     3.04           OBSERVATION DATA    M (MIXED)           RINEX VERSION / TYPE
BLANK OR G = GPS, R = GLONASS, C = BDS, E = GAL, J = QZSS, M = MIXEDCOMMENT             
HGO                 HITARGET            20250511 084943 UTC PGM / RUN BY / DATE 
4444                                                        MARKER NAME         
                                                            MARKER NUMBER       
whoever             HITARGET                                OBSERVER / AGENCY   
10020463            iRTK2                                   REC # / TYPE / VERS 
1                   HITIRTK2-2                              ANT # / TYPE        
 -2623852.7753  3977002.9251  4226096.5356                  APPROX POSITION XYZ 
------------------------------------------------------------COMMENT             
*** Antenna height is from mark to ANTENNA Phase Center.    COMMENT             
------------------------------------------------------------COMMENT             
        1.5026        0.0000        0.0000                  ANTENNA: DELTA H/E/N
G    9 C1C C2W C2X L1C L2W L2X S1C S2W S2X                  SYS / # / OBS TYPES 
R   12 C1C C1P C2P C2C L1C L1P L2P L2C S1C S1P S2P S2C      SYS / # / OBS TYPES 
E   12 C1X C5X C7X C8X L1X L5X L7X L8X S1X S5X S7X S8X      SYS / # / OBS TYPES 
C    6 C2I C7I L2I L7I S2I S7I                              SYS / # / OBS TYPES 
     5.000                                                  INTERVAL            
  2025     4    10     7    20   45.0000000     GPS         TIME OF FIRST OBS   
  2025     4    10     7    41    0.0000000     GPS         TIME OF LAST OBS    
     0                                                      RCV CLOCK OFFS APPL 
    18                                                      LEAP SECONDS        
                                                            END OF HEADER       
> 2025 04 10 07 20 45.0000000  0 30
G17  21542947.109                    21542955.121   113208941.845                    88214794.685          45.900                          45.200  
G11  22318001.578                    22318008.953   117281950.633                    91388514.987          44.700                          46.600  
G20  23369938.891    23369947.563                   122809960.559    95696031.610                          41.600          26.400                  
G22  23610148.328    23610158.523                   124072115.315    96679641.371                          40.500          23.000                  
G19  19846473.758    19846477.633                   104293912.858    81268012.992                          49.000          42.800                  
G06  20720058.664                    20720067.996   108884664.716                    84845214.258          48.900                          48.200  
G09  22526494.953                    22526506.160   118377600.440                    92242274.755          42.200                          45.700  
G04  22940863.641                    22940873.293   120555080.569                    93939041.579          40.600                          42.600  
G12  23130814.820                    23130823.473   121553271.494                    94716852.315          41.800                          43.000  
R01  22145535.000    22145534.188                                   118380564.580   118380547.578                                          43.700          41.600                                  
R02  20171960.297    20171958.625    20171967.273    20171967.082   107641473.842   107641462.842    83721145.709    83721152.713          51.200          49.100          48.000          48.900  
R18  20649041.352    20649040.160    20649047.895    20649047.191   110226002.614   110225979.623    85731324.453    85731334.457          49.700          47.700          47.500          48.800  
R17  19876685.125    19876684.426    19876692.184    19876692.047   106364150.717   106364139.735    82727702.979    82727701.981          51.100          49.300          48.600          49.700  
R16  21930422.977    21930423.457    21930433.043    21930432.520   117148382.736   117148340.764    91115363.018    91115370.009          46.000          45.100          46.100          47.300  
R24  23060675.047    23060674.934    23060687.379    23060686.945   123315738.910   123315785.926    95912297.692    95912273.697          47.000          45.000          44.300          44.700  
R03  21864514.008    21864513.219    21864524.789    21864524.980   117042523.982   117042449.003    91033048.794    91033059.797          45.700          44.500          47.100          47.500  
E03  26274193.211    26274204.051    26274201.660    26274204.230   138071848.032   103105613.618   105795318.587   104450486.711          43.500          43.000          45.300          49.800  
E13  25344323.273    25344332.383    25344330.320    25344332.391   133185346.734    99456586.512   102051099.734   100753854.727          44.400          46.100          47.300          52.400  
E30  27687155.859    27687174.121    27687170.883    27687173.797   145496927.624   108650327.368   111484691.211   110067521.898          41.700          40.500          42.300          46.800  
E15  23598023.648    23598031.184    23598029.965    23598031.645   124008453.527    92603694.841    95019443.816    93811572.938          48.500          48.300          49.200          55.300  
E21  25962844.234    25962852.672    25962850.188    25962852.770   136435680.937   101883782.790   104541620.443   103212720.227          44.000          45.300          46.400          51.900  
E05  25291836.297    25291846.500    25291844.391    25291846.953   132909502.979    99250621.331   101839755.579   100545197.063          43.400          41.600          44.800          48.900  
E27  24995084.109    24995093.246    24995090.527    24995093.223   131350040.017    98086066.093   100644814.419    99365445.364          46.600          47.300          48.200          53.600  
C04  38528060.672    38528060.000   200625768.079   155136530.173          36.200          41.100  
C03  37516744.875    37516744.027   195359565.696   151064375.863          39.400          41.400  
C02  38985988.477    38985987.980   203010323.486   156980416.391          35.400          40.800  
C30  22738560.352                   118405635.155                          47.200                  
C29  21792176.008                   113477577.235                          49.000                  
C20  23012953.977                   119834540.013                          47.900                  
C13  38437009.680    38437015.449   200151634.577   154769943.524          42.100          40.800  
> 2025 04 10 07 20 50.0000000  0 30
G17  21543560.305                    21543568.277   113212166.017                    88217307.023          45.500                          45.500  
G11  22314688.961                    22314696.332   117264544.567                    91374951.823          44.600                          46.000  
G20  23365606.352    23365615.031                   122787195.183    95678292.397                          41.600          26.000                  
G22  23611931.625    23611942.406                   124081489.143    96686945.529                          41.300          26.200                  
G19  19845660.211    19845663.742                   104289636.829    81264681.025                          49.900          42.400                  
G06  20718263.703                    20718272.965   108875232.868                    84837864.774          50.000                          48.000  
G09  22523075.281                    22523086.191   118359628.281                    92228270.506          42.100                          44.800  
G04  22939011.945                    22939021.402   120545351.719                    93931460.661          41.900                          43.100  
G12  23128112.656                    23128121.328   121539071.655                    94705787.507          41.700                          43.500  
R01  22147070.422    22147068.555                                   118388764.807   118388747.788                                          43.800          42.100                                  
R02  20169959.484    20169958.750    20169966.746    20169966.723   107630799.901   107630788.909    83712843.757    83712850.768          50.500          49.500          48.000          48.200  
R18  20645896.273    20645895.316    20645903.090    20645901.883   110209212.396   110209189.390    85718265.403    85718275.399          49.300          47.000          47.500          48.500  
R17  19875917.008    19875915.840    19875923.336    19875923.285   106360038.479   106360027.476    82724504.567    82724503.563          51.300          48.900          48.500          49.100  
R16  21930782.234    21930780.137    21930790.059    21930789.684   117150291.192   117150249.190    91116847.369    91116854.358          47.000          44.400          45.500          47.200  
R24  23061988.375    23061988.027    23061999.871    23061999.754   123322759.804   123322806.834    95917758.389    95917734.397          47.600          45.600          44.000          44.600  
R03  21859369.539    21859368.633    21859380.137    21859380.340   117014986.040   117014911.066    91011630.478    91011641.473          44.800          43.900          46.100          46.100  
E03  26270804.945    26270815.520    26270813.504    26270815.785   138054042.019   103092316.947   105781675.038   104437016.600          43.300          42.800          45.300          49.800  
E13  25341479.711    25341488.809    25341486.840    25341488.902   133170403.813    99445427.836   102039649.977   100742550.513          44.700          45.000          47.000          52.100  
E30  27688845.125    27688862.145    27688860.410    27688862.637   145505802.664   108656954.785   111491491.502   110074235.756          41.900          38.100          40.600          44.700  
E15  23597043.469    23597050.707    23597049.766    23597051.352   124003302.261    92599848.104    95015496.740    93807676.024          47.900          48.300          49.300          55.500  
E21  25960684.813    25960692.922    25960690.297    25960693.016   136424331.454   101875307.530   104532924.093   103204134.416          44.500          45.700          46.200          51.600  
E05  25290559.781    25290569.770    25290567.520    25290570.168   132902793.464    99245610.995   101834614.542   100540121.379          42.900          40.900          43.400          48.300  
E27  24995518.891    24995527.320    24995525.539    24995527.707   131352323.674    98087771.413   100646564.231    99367172.931          46.800          47.000          47.900          53.700  
C04  38526692.805    38526693.055   200618649.524   155131025.673          36.100          40.700  
C03  37515395.188    37515395.039   195352540.616   151058943.633          39.000          41.600  
C02  38984612.125    38984612.789   203003160.146   156974877.247          35.700          39.900  
C30  22738831.648                   118407049.037                          46.600                  
C29  21789867.172                   113465554.620                          49.500                  
C20  23009484.727                   119816474.350                          48.500                  
C13  38434794.234    38434800.988   200140100.555   154761024.699          41.400          41.200  
> 2025 04 10 07 20 55.0000000  0 30
G17  21544176.055                    21544183.828   113215399.859                    88219826.880          45.800                          45.100  
G11  22311377.453                    22311385.164   117247143.478                    91361392.547          44.200                          46.200  
G20  23361274.969    23361284.094                   122764435.659    95660557.771                          39.300          23.500                  
G22  23613716.273    23613726.996                   124090866.502    96694252.563                          41.800          23.300                  
G19  19844849.172    19844853.355                   104285375.161    81261360.238                          48.900          42.700                  
G06  20716470.344                    20716479.934   108865808.314                    84830520.960          49.300                          48.300  
G09  22519657.055                    22519668.375   118341667.153                    92214274.849          42.100                          44.500  
G04  22937163.828                    22937173.211   120535638.001                    93923891.532          41.400                          42.800  
G12  23125414.297                    23125422.070   121524887.830                    94694735.189          42.600                          42.600  
R01  22148605.523    22148604.359                                   118396980.518   118396963.531                                          42.400          41.600                                  
R02  20167964.688    20167962.547    20167970.637    20167970.676   107620148.760   107620137.768    83704559.551    83704566.568          51.500          49.500          47.300          48.200  
R18  20642749.992    20642750.207    20642758.281    20642757.449   110192427.095   110192404.081    85705210.161    85705220.165          49.200          47.000          48.200          48.700  
R17  19875149.148    19875148.918    19875156.629    19875156.656   106355934.606   106355923.632    82721312.689    82721311.693          50.800          49.100          49.100          49.500  
R16  21931141.047    21931140.590    21931150.453    21931150.738   117152218.288   117152176.292    91118346.201    91118353.203          45.600          44.300          44.600          45.500  
R24  23063302.117    23063301.535    23063313.762    23063313.547   123329784.812   123329831.815    95923222.239    95923198.233          45.600          44.900          42.000          43.100  
R03  21854225.617    21854226.238    21854236.969    21854237.172   116987456.461   116987381.498    90990218.586    90990229.582          45.000          45.000          46.600          46.200  
E03  26267417.758    26267428.535    26267426.426    26267428.531   138036242.802   103079025.370   105768036.716   104423551.651          42.000          43.000          44.600          49.600  
E13  25338636.781    25338645.781    25338643.621    25338645.949   133155463.851    99434271.369   102028202.467   100731248.524          45.100          45.500          47.300          52.300  
E30  27690534.609    27690551.469    27690549.406    27690551.785   145514678.279   108663582.532   111498292.181   110080949.966          41.400          40.900          42.700          47.600  
E15  23596063.953    23596071.043    23596070.059    23596071.770   123998154.758    92596004.196    95011552.549    93803781.977          48.500          48.200          49.100          55.400  
E21  25958526.961    25958535.348    25958532.676    25958535.195   136412993.523   101866840.897   104524236.581   103195557.348          44.900          45.100          46.000          51.100  
E05  25289285.164    25289295.363    25289293.066    25289295.477   132896095.735    99240609.448   101829482.510   100535054.586          43.100          41.700          43.900          48.300  
E27  24995955.469    24995963.867    24995962.086    24995964.211   131354616.866    98089483.829   100648321.313    99368907.677          45.700          46.500          48.900          54.000  
C04  38525326.336    38525325.805   200611531.030   155125521.182          36.100          40.800  
C03  37514046.422    37514045.531   195345515.506   151053511.354          38.700          41.700  
C02  38983237.398    38983237.004   202995996.775   156969338.094          34.100          40.100  
C30  22739104.570                   118408469.453                          47.300                  
C29  21787559.391                   113453538.424                          49.000                  
C20  23006017.516                   119798419.629                          48.600                  
C13  38432579.742    38432586.125   200128569.387   154752108.096          41.100          40.500  
> 2025 04 10 07 21  0.0000000  0 30
G17  21544793.516                    21544801.645   113218644.549                    88222355.214          45.700                          45.400  
G11  22308066.898                    22308075.219   117229748.606                    91347838.109          43.400                          46.900  
G20  23356945.672    23356954.152                   122741683.122    95642828.505                          41.300          26.500                  
G22  23615502.070    23615512.324                   124100248.555    96701563.223                          41.500          24.900                  
G19  19844041.438    19844045.117                   104281129.069    81258051.593                          49.100          42.800                  
G06  20714678.406                    20714687.867   108856392.180                    84823183.711          49.500                          47.900  
G09  22516242.328                    22516252.695   118323718.360                    92200288.785          43.000                          45.000  
G04  22935318.633                    22935328.258   120525940.623                    93916335.153          41.800                          42.900  
G12  23122718.813                    23122726.285   121510721.201                    94683696.267          42.200                          43.700  
R01  22150146.617    22150144.516                                   118405213.010   118405196.011                                          42.000          40.900                                  
R02  20165972.789    20165971.703    20165979.430    20165979.492   107609521.589   107609510.590    83696293.988    83696300.992          51.800          49.200          47.400          48.200  
R18  20639607.594    20639606.520    20639614.887    20639613.594   110175647.918   110175624.927    85692159.701    85692169.706          48.600          46.100          48.200          48.200  
R17  19874384.867    19874383.344    19874391.016    19874390.855   106351840.675   106351829.680    82718128.496    82718127.506          51.300          49.500          48.800          49.300  
R16  21931505.484    21931506.320    21931514.813    21931515.363   117154165.373   117154123.393    91119860.575    91119867.593          45.200          45.200          44.400          45.200  
R24  23064616.750    23064616.754    23064627.730    23064627.285   123336815.061   123336862.052    95928690.213    95928666.217          45.600          43.600          41.000          41.300  
R03  21849085.219    21849086.074    21849096.223    21849095.988   116959936.651   116959861.649    90968814.311    90968825.307          45.600          44.800          47.000          47.400  
E03  26264032.383    26264042.875    26264040.953    26264043.047   138018451.515   103065739.692   105754404.465   104410092.681          42.100          43.100          45.000          49.700  
E13  25335794.836    25335803.188    25335801.031    25335803.574   133140528.045    99423118.006   102016758.146   100719949.680          45.100          45.700          47.000          52.300  
E30  27692223.656    27692241.457    27692238.219    27692241.125   145523555.382   108670211.425   111505094.013   110087665.327          39.100          40.300          41.800          46.400  
E15  23595085.516    23595092.980    23595091.527    23595093.227   123993012.225    92592163.991    95007612.163    93799891.681          48.500          48.100          49.400          55.400  
E21  25956372.602    25956380.164    25956377.582    25956380.195   136401668.336   101858383.777   104515558.841   103186989.921          43.600          44.700          46.600          51.300  
E05  25288013.336    25288022.895    25288020.785    25288023.230   132889411.095    99235617.675   101824360.507   100529997.699          42.300          41.100          44.000          48.000  
E27  24996394.367    24996402.117    24996400.664    24996402.469   131356920.709    98091204.238   100650086.606    99370650.523          46.600          46.700          48.300          53.800  
C04  38523959.625    38523959.230   200604413.905   155120017.777          36.400          41.000  
C03  37512697.367    37512696.949   195338491.663   151048080.092          39.300          41.400  
C02  38981861.891    38981860.875   202988833.457   156963798.688          34.400          41.200  
C30  22739378.883                   118409897.504                          47.100                  
C29  21785253.367                   113441529.828                          49.400                  
C20  23002552.070                   119780377.027                          48.100                  
C13  38430366.117    38430372.832   200117042.391   154743194.681          41.000          41.200  
> 2025 04 10 07 21  5.0000000  0 30
G17  21545413.008                    21545420.176   113221899.156                    88224891.260          45.900                          46.200  
G11  22304758.297                    22304765.953   117212358.972                    91334287.762          43.700                          46.800  
G20  23352616.977    23352625.637                   122718936.592    95625103.954                          41.100          26.700                  
G22  23617287.375    23617298.762                   124109634.331    96708876.727                          40.200          22.500                  
G19  19843235.805    19843239.715                   104276897.556    81254754.300                          49.100          42.600                  
G06  20712887.656                    20712897.367   108846983.555                    84815852.324          49.500                          48.800  
G09  22512829.234                    22512839.293   118305780.881                    92186311.533          43.400                          45.200  
G04  22933475.391                    22933486.395   120516258.649                    93908790.761          41.100                          43.200  
G12  23120025.453                    23120033.699   121496570.786                    94672669.988          41.800                          42.100  
R01  22151689.039    22151687.055                                   118413461.326   118413444.308                                          42.000          40.200                                  
R02  20163985.625    20163984.305    20163992.484    20163992.301   107598917.401   107598906.409    83688046.299    83688053.303          51.100          49.000          48.300          48.600  
R18  20636464.617    20636464.598    20636472.977    20636472.215   110158873.927   110158850.921    85679113.266    85679123.270          48.600          46.700          48.200          48.700  
R17  19873620.867    19873620.871    19873628.367    19873628.227   106347755.541   106347744.544    82714951.176    82714950.172          51.200          49.000          49.100          49.300  
R16  21931873.828    21931873.957    21931882.555    21931882.594   117156131.367   117156089.364    91121389.656    91121396.674          46.300          45.300          45.100          45.500  
R24  23065932.281    23065930.879    23065943.176    23065942.836   123343849.713   123343896.710    95934161.617    95934137.618          42.400          40.900          41.600          41.400  
R03  21843946.477    21843947.098    21843956.875    21843957.598   116932425.584   116932350.576    90947416.843    90947427.831          45.600          45.100          46.700          46.800  
E03  26260648.430    26260658.902    26260656.746    26260658.945   138000667.300   103052459.288   105740777.611   104396639.057          42.800          43.200          45.100          49.800  
E13  25332953.180    25332961.621    25332959.699    25332962.105   133125595.384    99411967.007   102005316.258   100708653.240          44.500          45.900          46.900          52.600  
E30  27693913.227    27693930.809    27693927.992    27693930.688   145532433.119   108676840.786   111511896.322   110094381.160          39.900          40.200          41.100          46.100  
E15  23594107.773    23594115.238    23594113.738    23594115.379   123987873.726    92588326.798    95003674.868    93796004.439          49.100          48.000          48.900          55.300  
E21  25954219.242    25954227.637    25954225.055    25954227.387   136390354.883   101849935.451   104506890.123   103178431.398          44.500          45.000          46.000          51.200  
E05  25286743.742    25286753.563    25286751.309    25286753.855   132882738.487    99230634.881   101819247.740   100524949.918          43.000          41.100          44.100          48.000  
E27  24996834.352    24996842.828    24996840.902    24996842.770   131359234.258    98092931.880   100651859.322    99372400.709          47.100          46.000          47.700          53.300  
C04  38522592.938    38522592.504   200597297.004   155114514.537          36.700          41.300  
C03  37511348.844    37511347.871   195331468.071   151042649.003          38.300          42.500  
C02  38980485.867    38980485.945   202981671.278   156958260.489          35.200          40.800  
C30  22739654.531                   118411332.314                          47.300                  
C29  21782948.633                   113429527.882                          49.400                  
C20  22999089.969                   119762345.605                          48.500                  
C13  38428153.063    38428160.004   200105518.510   154734283.688          41.500          41.800  
> 2025 04 10 07 21 10.0000000  0 30
G17  21546033.750                    21546041.754   113225163.554                    88227434.929          45.300                          45.300  
G11  22301449.945                    22301457.859   117194974.439                    91320741.360          43.400                          46.700  
G20  23348289.125    23348298.426                   122696196.012    95607384.079                          39.700          23.000                  
G22  23619073.672    23619085.730                   124119023.605    96716193.015                          38.800          22.300                  
G19  19842433.438    19842437.555                   104272680.526    81251468.303                          48.800          43.100                  
G06  20711099.047                    20711108.254   108837582.307                    84808526.667          48.900                          48.600  
G09  22509416.289                    22509427.852   118287854.622                    92172343.020          42.200                          45.200  
G04  22931636.797                    22931646.711   120506591.907                    93901258.256          41.700                          43.600  
G12  23117335.578                    23117343.977   121482436.581                    94661656.310          43.000                          43.100  
R01  22153235.438    22153234.039                                   118421725.138   118421708.158                                          42.100          40.800                                  
R02  20162001.805    20162001.070    20162009.340    20162009.082   107588335.982   107588324.977    83679816.311    83679823.314          51.400          49.000          47.700          48.300  
R18  20633324.336    20633323.262    20633331.398    20633330.793   110142104.958   110142081.966    85666070.734    85666080.738          48.400          46.900          48.000          49.100  
R17  19872860.375    19872858.383    19872865.906    19872865.867   106343679.177   106343668.188    82711780.653    82711779.649          51.400          49.900          48.700          48.500  
R16  21932247.742    21932245.645    21932254.555    21932254.449   117158116.079   117158074.077    91122933.319    91122940.338          48.100          45.700          44.900          44.700  
R24  23067247.352    23067246.652    23067259.063    23067259.293   123350888.647   123350935.687    95939636.339    95939612.354          41.700          40.400          40.900          41.900  
R03  21838809.828    21838809.273    21838818.926    21838819.430   116904923.137   116904848.144    90926026.106    90926037.104          46.400          44.900          46.600          46.400  
E03  26257265.445    26257276.059    26257273.668    26257276.059   137982889.964   103039184.024   105727156.036   104383190.632          43.700          44.000          45.500          50.100  
E13  25330111.984    25330120.953    25330118.469    25330121.207   133110665.802    99400818.288   101993876.702   100697359.103          44.600          45.900          47.100          52.600  
E30  27695602.844    27695620.156    27695617.766    27695620.305   145541311.299   108683470.479   111518698.983   110101097.344          40.900          40.400          42.100          47.100  
E15  23593130.469    23593138.039    23593136.352    23593138.262   123982739.089    92584492.492    94999740.539    93792120.124          48.800          47.400          48.500          55.200  
E21  25952068.617    25952077.109    25952074.156    25952076.641   136379053.136   101841495.871   104498230.378   103169881.735          45.100          44.900          46.200          51.500  
E05  25285476.570    25285485.727    25285483.805    25285486.273   132876077.883    99225661.063   101814144.159   100519911.221          43.300          41.600          43.800          48.200  
E27  24997276.273    24997285.137    24997282.934    24997285.008   131361557.409    98094666.686   100653639.382    99374158.144          47.200          46.900          48.200          53.900  
C04  38521226.594    38521225.902   200590180.387   155109011.521          36.200          40.500  
C03  37509999.523    37509999.352   195324444.632   151037218.026          38.500          41.800  
C02  38979110.617    38979110.664   202974509.162   156952722.263          34.600          39.700  
C30  22739931.055                   118412773.689                          47.200                  
C29  21780644.727                   113417532.493                          49.900                  
C20  22995629.000                   119744325.224                          47.600                  
C13  38425940.297    38425947.641   200093997.676   154725375.040          41.700          40.100  
> 2025 04 10 07 21 15.0000000  0 30
G17  21546657.203                    21546665.133   113228438.517                    88229986.845          45.300                          45.000  
G11  22298142.406                    22298151.426   117177595.734                    91307199.523          43.300                          46.600  
G20  23343963.352    23343972.629                   122673462.072    95589669.370                          39.200          24.500                  
G22  23620861.875    23620872.859                   124128417.277    96723512.670                          37.900          21.100                  
G19  19841633.914    19841637.965                   104268478.705    81248194.159                          48.200          42.600                  
G06  20709311.516                    20709320.547   108828189.119                    84801207.313          49.100                          48.300  
G09  22506007.109                    22506018.578   118269940.319                    92158383.861          41.500                          45.100  
G04  22929800.133                    22929809.965   120496941.161                    93893738.183          42.000                          44.000  
G12  23114649.469                    23114657.375   121468319.227                    94650655.789          40.600                          42.200  
R01  22154783.102    22154782.758                                   118430005.201   118429988.229                                          42.000          41.200                                  
R02  20160023.336    20160022.484    20160030.566    20160030.730   107577778.221   107577767.235    83671604.728    83671611.738          50.900          48.800          47.700          48.200  
R18  20630183.945    20630182.871    20630190.914    20630190.375   110125341.822   110125318.815    85653032.747    85653042.744          47.900          46.400          47.400          48.700  
R17  19872099.625    19872098.102    19872106.113    19872106.219   106339612.200   106339601.204    82708617.460    82708616.457          51.400          49.700          48.300          49.500  
R16  21932621.313    21932620.504    21932630.180    21932629.969   117160120.232   117160078.230    91124492.088    91124499.092          47.500          45.100          45.500          46.000  
R24  23068566.164    23068565.465    23068576.027    23068576.391   123357932.473   123357979.484    95945114.790    95945090.797          42.700          41.000          41.600          41.400  
R03  21833673.133    21833672.227    21833683.168    21833683.426   116877430.057   116877355.062    90904642.654    90904653.656          44.900          43.100          44.600          45.200  
E03  26253883.414    26253894.980    26253892.262    26253894.512   137965120.222   103025914.418   105713540.272   104369747.954          42.400          43.600          44.700          50.100  
E13  25327271.648    25327280.914    25327277.961    25327280.875   133095739.998    99389672.396   101982440.049   100686067.834          44.000          45.900          47.300          52.700  
E30  27697292.672    27697310.375    27697306.719    27697310.094   145550190.705   108690101.129   111525502.597   110107814.473          40.500          39.100          40.900          45.700  
E15  23592154.594    23592161.777    23592160.137    23592161.996   123977609.065    92580661.621    94995809.734    93788239.283          48.500          48.300          49.300          55.500  
E21  25949920.094    25949928.590    25949926.105    25949928.270   136367763.713   101833065.502   104489580.073   103161341.396          44.800          44.800          46.100          51.600  
E05  25284211.602    25284221.000    25284219.219    25284221.289   132869429.905    99220696.649   101809050.257   100514882.063          42.800          42.300          44.000          48.600  
E27  24997720.266    24997729.039    24997726.602    24997728.883   131363890.835    98096409.175   100655427.324    99375923.360          47.200          46.400          47.800          53.300  
C04  38519859.922    38519859.035   200583064.618   155103509.159          35.200          40.500  
C03  37508651.320    37508650.852   195317421.985   151031787.687          39.400          41.200  
C02  38977735.867    38977735.504   202967347.735   156947184.622          34.700          40.500  
C30  22740209.438                   118414222.385                          47.600                  
C29  21778342.789                   113405544.346                          49.100                  
C20  22992170.773                   119726316.638                          48.000                  
C13  38423728.820    38423735.629   200082480.588   154716469.284          42.000          40.800  
> 2025 04 10 07 21 20.0000000  0 30
G17  21547282.711                    21547290.500   113231722.823                    88232546.034          45.400                          45.200  
G11  22294836.500                    22294844.949   117160221.802                    91293661.397          43.900                          46.000  
G20  23339637.656    23339647.418                   122650733.667    95571958.928                          39.600          25.000                  
G22  23622649.406    23622660.973                   124137814.022    96730834.762                          39.700          25.800                  
G19  19840837.156    19840840.723                   104264290.953    81244930.979                          48.900          43.200                  
G06  20707526.008                    20707534.523   108818802.913                    84793893.377          49.100                          48.300  
G09  22502601.742                    22502611.508   118252036.842                    92144433.124          42.400                          45.300  
G04  22927966.539                    22927976.500   120487305.237                    93886229.659          41.600                          44.600  
G12  23111965.672                    23111974.367   121454217.649                    94639667.531          41.400                          43.000  
R01  22156336.609    22156334.508                                   118438300.421   118438283.426                                          41.500          40.400                                  
R02  20158049.195    20158048.695    20158056.738    20158056.570   107567242.860   107567231.861    83663410.562    83663417.565          50.900          49.500          48.000          48.000  
R18  20627043.883    20627043.395    20627051.809    20627051.047   110108583.343   110108560.344    85639998.374    85640008.378          48.800          46.600          47.800          48.600  
R17  19871341.305    19871339.898    19871347.859    19871347.766   106335553.492   106335542.496    82705460.682    82705459.678          50.800          49.100          48.900          49.800  
R16  21933000.117    21932999.426    21933008.340    21933008.367   117162142.634   117162100.632    91126065.074    91126072.069          45.800          43.900          45.500          46.000  
R24  23069884.539    23069883.020    23069894.980    23069894.727   123364980.104   123365027.115    95950596.234    95950572.238          44.300          42.400          42.800          42.800  
R03  21828538.211    21828537.188    21828548.637    21828548.988   116849945.351   116849870.349    90883265.688    90883276.692          45.300          43.100          45.600          45.600  
E03  26250503.055    26250514.652    26250512.539    26250514.395   137947357.055   103012649.749   105699929.557   104356310.259          42.600          44.200          45.400          50.700  
E13  25324432.273    25324440.711    25324438.508    25324440.977   133080816.818    99378528.485   101971005.424   100674778.563          44.900          46.200          47.600          52.900  
E30  27698982.602    27698999.926    27698996.832    27698999.625   145559070.089   108696731.706   111532306.166   110114531.549          39.900          38.100          40.900          45.000  
E15  23591178.977    23591186.363    23591184.582    23591186.527   123972482.506    92576833.341    94991881.584    93784361.068          48.100          48.200          48.900          55.400  
E21  25947773.680    25947782.406    25947779.828    25947781.867   136356485.536   101824643.506   104480938.376   103152809.553          43.600          45.400          46.200          51.400  
E05  25282948.414    25282958.473    25282956.270    25282958.461   132862793.480    99215740.903   101803965.211   100509861.667          43.400          41.400          43.600          48.200  
E27  24998166.258    24998174.793    24998172.164    24998174.805   131366233.441    98098158.491   100657222.279    99377695.495          46.700          46.900          48.400          53.700  
C04  38518493.383    38518492.551   200575948.700   155098006.679          35.800          40.000  
C03  37507302.484    37507302.156   195310399.151   151026357.191          38.700          41.700  
C02  38976359.281    38976360.227   202960186.043   156941646.686          34.100          39.500  
C30  22740488.828                   118415677.290                          47.500                  
C29  21776041.758                   113393562.362                          49.300                  
C20  22988714.422                   119708318.730                          48.000                  
C13  38421517.109    38421524.438   200070966.169   154707565.629          40.700          40.500  
> 2025 04 10 07 21 25.0000000  0 30
G17  21547909.398                    21547916.828   113235015.929                    88235112.092          45.800                          45.100  
G11  22291531.164                    22291539.129   117142851.962                    91280126.470          43.500                          46.400  
G20  23335313.648    23335323.551                   122628010.242    95554252.394                          40.200          26.700                  
G22  23624439.211    23624450.012                   124147213.298    96738158.851                          41.300          22.600                  
G19  19840042.898    19840046.598                   104260116.722    81241678.318                          48.900          43.400                  
G06  20705740.227                    20705749.719   108809423.107                    84786584.446          48.300                          47.600  
G09  22499196.406                    22499207.141   118234143.693                    92130490.401          41.700                          44.900  
G04  22926135.727                    22926145.613   120477683.672                    93878732.337          41.800                          44.800  
G12  23109284.914                    23109293.109   121440131.212                    94628691.081          41.400                          41.500  
R01  22157890.852    22157888.867                                   118446610.307   118446593.299                                          42.400          40.500                                  
R02  20156079.367    20156077.695    20156086.344    20156086.453   107556729.266   107556718.251    83655233.333    83655240.344          51.100          48.500          47.700          48.200  
R18  20623906.180    20623904.871    20623912.598    20623911.934   110091828.932   110091805.933    85626967.174    85626977.179          49.200          47.200          47.500          47.800  
R17  19870584.250    19870583.199    19870591.121    19870590.957   106331502.513   106331491.538    82702309.916    82702308.920          50.600          49.200          49.100          49.600  
R16  21933381.961    21933381.855    21933390.488    21933390.223   117164182.789   117164140.796    91127651.848    91127658.831          46.800          45.800          45.100          45.200  
R24  23071202.047    23071201.465    23071213.746    23071213.137   123372030.836   123372077.854    95956080.079    95956056.091          45.500          44.200          43.500          43.800  
R03  21823404.508    21823404.074    21823415.324    21823415.605   116822468.398   116822393.390    90861894.757    90861905.762          45.600          44.500          46.100          46.000  
E03  26247123.930    26247135.000    26247133.219    26247135.051   137929599.836   102999389.521   105686323.397   104342877.065          42.600          43.700          44.800          50.100  
E13  25321592.789    25321601.410    25321599.441    25321601.668   133065895.716    99367386.118   101959572.383   100663490.855          44.700          46.300          47.700          53.000  
E30  27700672.320    27700689.746    27700686.605    27700689.336   145567949.026   108703361.963   111539109.400   110121248.291          41.900          39.400          40.900          45.500  
E15  23590203.977    23590210.973    23590209.281    23590211.496   123967358.873    92573007.246    94987955.682    93780485.072          48.800          48.300          49.200          55.400  
E21  25945629.445    25945638.234    25945635.844    25945637.859   136345217.979   101816229.422   104472304.789   103144285.713          43.600          44.600          46.300          51.100  
E05  25281687.500    25281697.148    25281695.414    25281697.566   132856168.077    99210793.349   101798888.587   100504849.573          43.700          41.500          44.400          48.600  
E27  24998613.586    24998621.848    24998619.738    24998622.305   131368584.616    98099914.248   100659023.836    99379474.150          47.000          46.000          47.600          53.100  
C04  38517126.836    38517126.195   200568832.015   155092503.587          36.000          40.400  
C03  37505953.375    37505953.531   195303375.478   151020926.033          38.900          42.000  
C02  38974984.492    38974984.105   202953023.282   156936108.002          34.600          40.100  
C30  22740769.359                   118417137.822                          47.000                  
C29  21773742.117                   113381585.942                          49.600                  
C20  22985259.977                   119690330.961                          48.200                  
C13  38419306.430    38419313.379   200059453.783   154698663.539          41.700          39.900  
> 2025 04 10 07 21 30.0000000  0 30
G17  21548537.461                    21548545.262   113238318.302                    88237685.368          45.700                          45.500  
G11  22288226.992                    22288234.680   117125486.771                    91266595.149          45.100                          46.400  
G20  23330990.492    23331000.301                   122605292.293    95536550.150                          41.300          26.700                  
G22  23626228.766    23626239.230                   124156615.668    96745485.323                          41.600          23.800                  
G19  19839251.633    19839254.980                   104255956.472    81238436.561                          50.000          43.400                  
G06  20703956.398                    20703966.109   108800050.156                    84779280.836          48.400                          48.500  
G09  22495793.344                    22495804.320   118216261.347                    92116556.116          42.500                          45.700  
G04  22924307.609                    22924317.699   120468076.838                    93871246.493          41.600                          45.300  
G12  23106608.156                    23106616.219   121426060.526                    94617726.965          40.400                          42.000  
R01  22159447.508    22159446.695                                   118454935.184   118454918.184                                          42.400          40.800                                  
R02  20154113.484    20154111.695    20154120.156    20154119.984   107546238.147   107546227.142    83647073.590    83647080.594          50.600          49.000          48.000          49.000  
R18  20620767.883    20620766.691    20620774.750    20620774.348   110075079.044   110075056.037    85613939.491    85613949.488          48.800          47.000          46.500          47.200  
R17  19869828.320    19869827.621    19869835.762    19869835.555   106327459.743   106327448.762    82699165.537    82699164.540          50.800          48.900          48.300          49.500  
R16  21933768.406    21933765.484    21933775.523    21933775.945   117166241.183   117166199.195    91129252.803    91129259.800          47.100          44.300          44.900          45.800  
R24  23072521.336    23072520.988    23072532.969    23072532.539   123379085.388   123379132.398    95961566.932    95961542.921          45.200          44.100          42.300          42.800  
R03  21818273.164    21818273.199    21818283.902    21818284.066   116794999.600   116794924.601    90840530.183    90840541.193          45.500          44.600          46.500          45.700  
E03  26243746.094    26243756.871    26243755.371    26243757.309   137911849.031   102986134.084   105672722.168   104329448.734          42.600          44.100          46.400          50.800  
E13  25318753.406    25318762.930    25318760.633    25318762.891   133050977.171    99356245.645   101948141.279   100652205.069          45.000          46.300          47.500          52.600  
E30  27702361.414    27702379.566    27702376.613    27702379.188   145576827.904   108709992.183   111545912.604   110127965.002          40.600          39.100          39.800          45.200  
E15  23589229.922    23589236.957    23589234.754    23589237.160   123962238.611    92569183.688    94984032.379    93776611.638          49.000          48.800          49.400          55.600  
E21  25943487.492    25943496.348    25943493.676    25943495.867   136333961.573   101807823.674   104463679.760   103135770.322          43.600          44.700          45.300          50.500  
E05  25280428.922    25280438.473    25280437.254    25280438.656   132849554.121    99205854.369   101793820.759   100499846.168          42.900          41.800          43.500          48.400  
E27  24999063.023    24999070.906    24999068.703    24999071.492   131370944.861    98101676.755   100660832.324    99381259.647          47.400          46.200          48.000          52.900  
C04  38515759.820    38515759.277   200561714.973   155087000.243          36.500          41.400  
C03  37504604.656    37504604.551   195296351.420   151015494.596          38.400          41.300  
C02  38973609.188    38973608.551   202945860.166   156930569.007          34.800          40.400  
C30  22741050.648                   118418604.481                          47.200                  
C29  21771442.750                   113369615.602                          49.000                  
C20  22981807.836                   119672353.782                          47.800                  
C13  38417096.359    38417103.418   200047943.916   154689763.386          41.200          40.500  
> 2025 04 10 07 21 35.0000000  0 30
G17  21549168.016                    21549175.406   113241629.882                    88240265.812          46.400                          45.000  
G11  22284923.305                    22284931.176   117108126.103                    91253067.359          43.500                          47.200  
G20  23326668.781    23326678.203                   122582579.722    95518852.098                          40.900          26.700                  
G22  23628017.289    23628029.129                   124166021.090    96752814.146                          39.700          23.500                  
G19  19838462.070    19838466.270                   104251810.128    81235205.653                          49.400          42.600                  
G06  20702174.680                    20702184.238   108790684.008                    84771982.538          48.500                          48.100  
G09  22492392.883                    22492403.078   118198389.627                    92102630.115          42.900                          44.500  
G04  22922482.203                    22922491.934   120458484.793                    93863772.163          41.600                          44.000  
G12  23103933.039                    23103940.797   121412005.362                    94606774.851          41.800                          41.700  
R01  22161008.625    22161006.992                                   118463274.939   118463257.956                                          43.500          41.400                                  
R02  20152151.180    20152149.742    20152158.305    20152158.141   107535769.330   107535758.324    83638931.155    83638938.158          50.600          48.300          47.500          48.800  
R18  20617630.867    20617629.793    20617638.273    20617637.586   110058333.707   110058310.701    85600915.355    85600925.366          48.900          46.800          47.000          48.500  
R17  19869074.766    19869073.480    19869081.746    19869081.313   106323425.162   106323414.158    82696027.543    82696026.539          50.300          48.800          49.100          50.100  
R16  21934156.531    21934154.785    21934164.410    21934164.820   117168317.665   117168275.634    91130867.837    91130874.849          47.800          45.800          45.600          46.700  
R24  23073841.406    23073841.645    23073853.348    23073852.883   123386143.453   123386190.446    95967056.523    95967032.523          46.200          44.300          43.000          43.700  
R03  21813143.938    21813143.855    21813154.621    21813154.285   116767538.958   116767463.971    90819171.963    90819182.966          45.000          43.800          45.100          45.700  
E03  26240369.766    26240380.004    26240378.504    26240380.566   137894104.638   102972883.434   105659125.851   104316025.251          42.600          43.200          45.100          49.900  
E13  25315915.047    25315923.852    25315921.930    25315924.289   133036061.144    99345107.071   101936712.131   100640921.209          44.800          46.300          48.200          53.000  
E30  27704050.867    27704069.621    27704066.246    27704069.039   145585706.625   108716622.253   111552715.651   110134681.564          41.400          39.300          41.200          46.100  
E15  23588256.016    23588263.117    23588261.102    23588263.441   123957121.661    92565362.581    94980111.592    93772740.693          49.100          48.500          49.300          55.600  
E21  25941348.063    25941355.879    25941353.770    25941355.922   136322716.261   101799426.210   104455063.230   103127263.331          44.700          44.500          46.000          50.900  
E05  25279172.711    25279182.574    25279181.211    25279182.598   132842951.557    99200923.861   101788761.661   100494851.367          42.800          42.300          44.000          48.900  
E27  24999513.359    24999521.797    24999519.875    24999522.238   131373314.104    98103445.978   100662647.707    99383051.950          46.200          47.900          48.800          54.100  
C04  38514393.133    38514392.121   200554597.632   155081496.646          36.600          40.100  
C03  37503256.180    37503255.707   195289326.960   151010062.838          38.800          41.700  
C02  38972232.969    38972233.188   202938696.453   156925029.646          34.300          40.100  
C30  22741333.727                   118420077.148                          47.000                  
C29  21769145.125                   113357651.266                          49.200                  
C20  22978357.383                   119654387.136                          47.500                  
C13  38414886.000    38414893.332   200036436.478   154680865.132          41.500          40.300  
> 2025 04 10 07 21 40.0000000  0 30
G17  21549800.383                    21549807.551   113244951.860                    88242854.350          46.500                          45.500  
G11  22281620.594                    22281628.809   117090771.247                    91239544.095          43.500                          47.900  
G20  23322348.805    23322357.992                   122559873.825    95501159.224                          40.600          26.700                  
G22  23629808.828    23629819.297                   124175430.609    96760146.158                          40.400          22.200                  
G19  19837675.922    19837679.930                   104247679.038    81231986.604                          48.900          42.800                  
G06  20700393.602                    20700403.172   108781325.898                    84764690.513          47.900                          48.200  
G09  22488994.117                    22489004.684   118180529.929                    92088713.470          42.900                          45.700  
G04  22920659.070                    22920670.074   120448908.714                    93856310.291          40.600                          44.500  
G12  23101262.305                    23101270.355   121397967.138                    94595836.002          42.200                          41.600  
R01  22162571.422    22162569.672                                   118471630.896   118471613.912                                          43.600          42.000                                  
R02  20150193.656    20150192.688    20150200.867    20150201.063   107525324.168   107525313.176    83630807.167    83630814.178          50.800          49.400          47.700          48.300  
R18  20614494.828    20614493.871    20614501.793    20614501.043   110041594.101   110041571.109    85587895.674    85587905.679          48.600          46.800          46.800          47.300  
R17  19868322.992    19868321.707    19868329.672    19868329.637   106319399.967   106319388.962    82692896.826    82692895.829          50.500          49.600          48.300          49.100  
R16  21934547.445    21934547.691    21934556.492    21934556.809   117170413.374   117170371.350    91132497.828    91132504.840          46.400          45.700          44.500          47.000  
R24  23075161.156    23075160.809    23075173.594    23075173.188   123393206.497   123393253.473    95972549.945    95972525.957          43.700          42.600          40.700          40.600  
R03  21808015.484    21808015.168    21808026.082    21808026.332   116740087.720   116740012.727    90797821.017    90797832.020          45.400          43.900          46.000          47.100  
E03  26236994.453    26237004.406    26237002.766    26237005.117   137876367.861   102959638.455   105645535.343   104302607.501          43.300          44.100          45.000          50.100  
E13  25313077.219    25313086.098    25313084.453    25313086.672   133021148.850    99333971.263   101925285.828   100629640.154          44.700          46.400          47.700          52.900  
E30  27705741.570    27705759.223    27705756.219    27705758.848   145594586.485   108723253.225   111559519.608   110141399.029          40.700          39.400          41.600          46.300  
E15  23587282.883    23587290.172    23587288.156    23587290.613   123952009.283    92561544.898    94976194.322    93768873.218          49.000          47.900          49.000          55.500  
E21  25939210.586    25939218.605    25939216.215    25939218.391   136311483.290   101791037.966   104446456.166   103118765.674          44.400          43.800          45.600          50.400  
E05  25277917.844    25277928.402    25277927.137    25277928.301   132836361.618    99196002.830   101783712.224   100489866.133          42.600          42.100          43.800          48.800  
E27  24999966.219    24999974.434    24999973.215    24999975.195   131375693.551    98105222.823   100664470.907    99384851.974          46.200          47.800          48.700          54.200  
C04  38513025.570    38513025.941   200547481.126   155075993.726          36.100          40.900  
C03  37501906.719    37501906.832   195282303.322   151004631.717          38.700          42.600  
C02  38970857.766    38970857.473   202931533.551   156919490.866          34.700          39.200  
C30  22741617.852                   118421557.110                          47.500                  
C29  21766848.953                   113345694.159                          48.800                  
C20  22974909.453                   119636432.296                          48.100                  
C13  38412676.977    38412684.516   200024932.698   154671969.673          40.800          40.800  
> 2025 04 10 07 21 45.0000000  0 30
G17  21550433.984                    21550441.215   113248283.343                    88245450.276          46.400                          45.500  
G11  22278318.969                    22278326.816   117073421.243                    91226024.647          43.800                          47.300  
G20  23318027.891    23318037.707                   122537173.627    95483470.769                          40.900          26.000                  
G22  23631599.977    23631610.723                   124184843.291    96767480.674                          41.400          25.900                  
G19  19836892.789    19836896.582                   104243562.132    81228778.624                          48.900          42.900                  
G06  20698614.367                    20698624.078   108771974.866                    84757403.994          48.200                          48.800  
G09  22485596.773                    22485607.684   118162681.291                    92074805.457          41.800                          45.200  
G04  22918840.328                    22918850.359   120439347.628                    93848860.101          40.100                          44.900  
G12  23098593.945                    23098601.512   121383944.753                    94584909.508          40.700                          42.100  
R01  22164137.328    22164136.164                                   118480002.033   118479985.033                                          42.900          41.800                                  
R02  20148241.367    20148239.813    20148247.676    20148247.973   107514901.477   107514890.471    83622700.621    83622707.632          50.900          48.800          48.000          48.500  
R18  20611360.031    20611358.605    20611366.883    20611365.910   110024859.359   110024836.360    85574879.749    85574889.753          47.600          45.800          47.300          47.800  
R17  19867572.102    19867570.934    19867578.980    19867577.984   106315383.216   106315372.219    82689772.669    82689771.672          50.900          49.100          49.000          49.500  
R16  21934943.836    21934944.789    21934952.688    21934952.461   117172527.652   117172485.664    91134142.262    91134149.280          47.000          45.400          46.300          46.800  
R24  23076483.953    23076483.137    23076495.141    23076494.875   123400273.371   123400320.388    95978046.419    95978022.423          44.100          42.400          40.600          41.600  
R03  21802889.250    21802888.344    21802899.508    21802899.262   116712645.005   116712570.038    90776476.723    90776487.741          46.200          44.100          46.000          46.600  
E03  26233621.031    26233631.023    26233629.566    26233631.406   137858637.749   102946398.480   105631949.971   104289194.834          43.400          43.100          45.600          50.100  
E13  25310240.016    25310248.906    25310247.125    25310249.355   133006239.306    99322837.550   101913861.664   100618361.216          44.000          46.200          47.300          52.800  
E30  27707430.711    27707448.891    27707446.453    27707448.637   145603466.467   108729884.302   111566323.685   110148116.605          38.800          40.500          41.600          46.700  
E15  23586310.961    23586318.348    23586315.863    23586318.539   123946900.486    92557729.884    94972279.779    93765008.438          49.500          48.900          49.600          55.700  
E21  25937075.063    25937083.004    25937080.848    25937083.117   136300261.688   101782658.229   104437857.828   103110276.636          43.500          44.500          45.400          50.700  
E05  25276666.070    25276677.270    25276674.973    25276676.770   132829783.362    99191090.477   101778671.747   100484889.726          42.200          42.400          44.100          48.900  
E27  25000420.852    25000429.340    25000427.559    25000429.590   131378082.245    98107006.571   100666301.182    99386658.980          46.800          47.700          48.600          54.000  
C04  38511660.133    38511659.402   200540364.531   155070490.724          36.400          38.800  
C03  37500558.375    37500557.922   195275279.563   150999200.494          38.000          43.000  
C02  38969481.250    38969481.750   202924370.352   156913951.788          33.700          40.200  
C30  22741903.469                   118423043.392                          47.300                  
C29  21764554.133                   113333743.367                          48.800                  
C20  22971463.203                   119618488.295                          47.300                  
C13  38410468.813    38410475.191   200013431.765   154663076.479          39.900          40.400  
> 2025 04 10 07 21 50.0000000  0 30
G17  21551070.070                    21551077.246   113251625.040                    88248054.191          46.600                          44.800  
G11  22275017.656                    22275026.527   117056076.803                    91212509.501          43.100                          47.200  
G20  23313710.063    23313719.457                   122514479.915    95465787.387                          41.400          26.000                  
G22  23633392.375    23633402.359                   124194259.923    96774818.255                          41.300          24.600                  
G19  19836112.023    19836115.785                   104239460.168    81225582.278                          49.100          43.200                  
G06  20696836.688                    20696846.191   108762631.658                    84750123.569          48.100                          48.600  
G09  22482203.094                    22482213.375   118144844.391                    92060906.597          41.600                          45.000  
G04  22917024.438                    22917033.730   120429802.320                    93841422.226          41.300                          43.700  
G12  23095928.547                    23095936.121   121369939.099                    94573995.979          41.300                          41.600  
R01  22165706.719    22165704.617                                   118488389.021   118488372.040                                          43.200          41.600                                  
R02  20146291.594    20146290.859    20146298.508    20146298.395   107504502.150   107504491.137    83614612.262    83614619.266          51.100          49.400          48.200          48.700  
R18  20608225.352    20608224.746    20608232.945    20608232.148   110008130.169   110008107.170    85561868.167    85561878.163          47.500          46.000          47.200          47.300  
R17  19866823.125    19866822.074    19866830.109    19866829.418   106311375.664   106311364.683    82686655.685    82686654.688          51.500          48.700          48.500          48.900  
R16  21935342.594    21935342.840    21935351.828    21935351.344   117174660.834   117174618.864    91135801.389    91135808.408          46.400          44.400          45.300          46.000  
R24  23077804.469    23077804.473    23077816.664    23077817.406   123407345.028   123407392.021    95983546.514    95983522.510          42.600          41.700          40.400          41.600  
R03  21797764.359    21797763.688    21797774.961    21797774.758   116685211.677   116685136.691    90755139.715    90755150.733          46.000          44.900          46.300          47.000  
E03  26230248.359    26230258.453    26230256.250    26230258.824   137840915.124   102933164.077   105618370.319   104275787.807          42.800          43.500          45.900          50.300  
E13  25307403.727    25307412.281    25307410.828    25307412.684   132991333.272    99311706.417   101902440.152   100607084.893          43.900          45.900          46.800          52.600  
E30  27709120.883    27709138.777    27709136.430    27709138.688   145612347.342   108736516.012   111573128.401   110154834.815          40.900          39.400          41.500          46.200  
E15  23585339.602    23585346.746    23585344.824    23585347.176   123941796.004    92553918.087    94968368.544    93761146.925          49.500          47.800          49.300          55.500  
E21  25934941.945    25934949.641    25934947.719    25934949.754   136289052.220   101774287.512   104429268.739   103101796.729          44.300          45.200          45.900          50.900  
E05  25275416.813    25275427.676    25275425.332    25275427.246   132823217.515    99186187.432   101773640.775   100479922.711          42.700          41.800          43.300          48.300  
E27  25000877.320    25000885.941    25000883.879    25000886.063   131380480.925    98108797.781   100668139.127    99388473.562          47.000          47.600          48.200          54.000  
C04  38510293.172    38510292.453   200533248.613   155064988.251          36.300          40.300  
C03  37499209.375    37499209.145   195268256.389   150993769.732          38.700          42.800  
C02  38968106.711    38968106.570   202917207.563   156908413.068          34.300          40.400  
C30  22742190.195                   118424536.739                          47.600                  
C29  21762260.234                   113321799.581                          48.500                  
C20  22968019.867                   119600555.884                          48.000                  
C13  38408260.430    38408267.551   200001934.295   154654185.907          39.900          39.600  
> 2025 04 10 07 21 55.0000000  0 30
G17  21551707.469                    21551715.582   113254976.036                    88250665.362          45.900                          44.600  
G11  22271718.656                    22271726.887   117038737.020                    91198997.986          43.200                          46.800  
G20  23309392.539    23309401.961                   122491791.633    95448108.266                          41.100          24.700                  
G22  23635184.813    23635195.152                   124203679.515    96782158.180                          41.800          24.100                  
G19  19835333.703    19835337.750                   104235372.227    81222396.871                          48.900          42.800                  
G06  20695059.391                    20695068.961   108753295.356                    84742848.532          49.100                          49.000  
G09  22478810.188                    22478821.465   118127018.411                    92047016.234          42.300                          45.500  
G04  22915210.656                    22915220.137   120420271.848                    93833995.879          42.100                          44.300  
G12  23093266.188                    23093273.996   121355949.104                    94563094.696          41.700                          40.900  
R01  22167279.008    22167276.316                                   118496791.086   118496774.098                                          43.800          41.800                                  
R02  20144347.164    20144345.844    20144353.547    20144353.918   107494125.289   107494114.297    83606541.397    83606548.394          50.800          49.700          47.500          48.200  
R18  20605092.523    20605091.566    20605099.570    20605098.918   109991405.567   109991382.576    85548860.153    85548870.165          47.300          45.600          47.300          47.700  
R17  19866075.828    19866074.543    19866082.746    19866082.512   106307376.353   106307365.350    82683545.107    82683544.117          51.100          49.100          49.500          49.600  
R16  21935747.438    21935745.457    21935755.262    21935754.750   117176812.280   117176770.270    91137474.712    91137481.725          47.000          44.900          45.500          46.200  
R24  23079128.977    23079128.629    23079140.824    23079140.574   123414420.258   123414467.283    95989049.494    95989025.474          44.200          42.800          40.800          41.700  
R03  21792641.555    21792640.297    21792651.098    21792651.582   116657786.651   116657711.655    90733809.183    90733820.188          46.000          44.600          46.500          47.200  
E03  26226876.703    26226886.891    26226885.199    26226887.648   137823198.996   102919934.518   105604795.639   104262385.684          43.700          42.800          45.000          49.700  
E13  25304568.203    25304576.492    25304574.711    25304576.742   132976429.798    99300577.212   101891020.620   100595810.525          44.100          46.200          47.800          52.600  
E30  27710811.297    27710829.137    27710826.512    27710828.910   145621228.119   108743147.617   111579933.028   110161552.936          40.300          38.400          40.900          45.600  
E15  23584368.766    23584375.879    23584373.863    23584376.336   123936694.913    92550108.839    94964459.925    93757287.987          49.000          47.700          49.000          55.100  
E21  25932810.945    25932818.730    25932816.762    25932819.031   136277853.932   101765925.168   104420688.262   103093325.322          44.900          44.400          46.200          51.200  
E05  25274169.828    25274180.449    25274177.684    25274179.922   132816663.183    99181292.962   101768618.619   100474964.400          42.500          42.100          43.600          48.200  
E27  25001335.461    25001344.125    25001342.105    25001344.223   131382888.652    98110595.753   100669983.996    99390294.979          47.100          47.600          48.700          54.100  
C04  38508926.781    38508925.824   200526132.412   155059485.569          36.200          40.400  
C03  37497860.922    37497860.746   195261232.887   150988338.717          39.400          42.100  
C02  38966730.703    38966730.637   202910045.423   156902874.999          35.000          37.700  
C30  22742478.195                   118426036.216                          47.400                  
C29  21759967.984                   113309861.910                          49.900                  
C20  22964578.000                   119582634.121                          48.100                  
C13  38406052.445    38406059.977   199990439.321   154645297.265          40.500          40.400  
> 2025 04 10 07 22  0.0000000  0 30
G17  21552346.773                    21552354.313   113258336.277                    88253283.744          46.500                          45.400  
G11  22268420.141                    22268428.000   117021401.869                    91185490.097          43.700                          46.600  
G20  23305075.984    23305085.188                   122469108.903    95430433.449                          41.200          22.800                  
G22  23636977.578    23636988.363                   124213102.076    96789500.377                          42.500          25.800                  
G19  19834558.227    19834562.699                   104231298.301    81219222.378                          48.300          42.400                  
G06  20693284.398                    20693293.977   108743965.895                    84735578.822          48.600                          48.500  
G09  22475421.188                    22475431.086   118109203.257                    92033134.305          41.900                          44.700  
G04  22913399.133                    22913409.160   120410756.200                    93826581.101          41.600                          43.500  
G12  23090607.234                    23090615.223   121341974.890                    94552205.656          42.200                          41.800  
R01  22168853.523    22168851.422                                   118505208.039   118505191.048                                          44.100          42.600                                  
R02  20142406.172    20142405.438    20142413.352    20142413.801   107483770.749   107483759.749    83598487.886    83598494.889          50.800          49.300          47.100          48.600  
R18  20601960.648    20601959.691    20601967.629    20601967.117   109974685.541   109974662.542    85535855.709    85535865.706          47.400          45.600          47.300          48.300  
R17  19865330.109    19865328.469    19865336.625    19865336.262   106303385.231   106303374.235    82680440.909    82680439.912          51.000          49.300          48.500          49.500  
R16  21936152.234    21936150.723    21936160.633    21936160.773   117178981.820   117178939.826    91139162.114    91139169.110          46.500          44.900          45.300          45.300  
R24  23080453.781    23080452.848    23080464.535    23080463.973   123421499.284   123421546.295    95994555.397    95994531.409          44.300          43.200          41.800          42.900  
R03  21787519.570    21787518.781    21787529.695    21787530.371   116630369.938   116630294.951    90712485.107    90712496.112          45.900          44.600          46.400          47.500  
E03  26223506.781    26223516.762    26223514.980    26223517.508   137805489.355   102906709.814   105591225.949   104248988.489          43.100          43.100          45.100          49.800  
E13  25301732.500    25301740.855    25301739.402    25301741.266   132961528.923    99289449.954   101879603.089   100584538.129          44.000          46.200          47.100          52.500  
E30  27712501.086    27712518.906    27712516.797    27712518.824   145630108.814   108749779.207   111586737.625   110168271.025          40.100          39.100          41.900          46.200  
E15  23583398.781    23583405.598    23583403.906    23583406.254   123931597.224    92546302.122    94960553.904    93753431.619          49.000          48.000          49.600          55.300  
E21  25930682.055    25930689.641    25930687.574    25930690.137   136266666.832   101757571.164   104412116.316   103084862.346          44.700          45.400          45.900          51.200  
E05  25272924.680    25272934.891    25272932.547    25272934.980   132810120.340    99176407.068   101763605.285   100470014.785          42.900          42.300          43.400          48.500  
E27  25001795.273    25001804.426    25001802.035    25001804.309   131385305.405    98112400.462   100671835.790    99392123.234          46.800          47.700          48.700          53.900  
C04  38507559.945    38507559.063   200519015.914   155053982.612          36.300          40.500  
C03  37496511.500    37496511.582   195254209.031   150982907.421          39.000          42.500  
C02  38965355.609    38965355.137   202902880.763   156897334.310          34.300          36.900  
C30  22742767.453                   118427541.812                          47.300                  
C29  21757676.563                   113297930.358                          49.300                  
C20  22961138.430                   119564723.053                          48.800                  
C13  38403846.453    38403853.332   199978946.955   154636410.635          41.000          39.900  
> 2025 04 10 07 22  5.0000000  0 31
G17  21552988.203                    21552995.684   113261705.930                    88255909.421          46.100                          46.000  
G11  22265122.023                    22265129.660   117004071.497                    91171985.900          43.400                          47.300  
G20  23300760.773    23300769.563                   122446431.754    95412762.915                          41.400          24.800                  
G22  23638771.367    23638782.160                   124222527.749    96796844.995                          42.600          26.400                  
G19  19833786.508    19833790.777                   104227238.531    81216058.914                          48.800          42.800                  
G06  20691510.602                    20691519.660   108734643.413                    84728314.551          48.800                          48.800  
G09  22472033.125                    22472043.148   118091399.104                    92019260.941          42.900                          45.600  
G04  22911591.633                    22911601.398   120401255.477                    93819177.914          41.700                          44.300  
G12  23087950.516                    23087959.164   121328016.427                    94541328.939          41.100                          41.400  
R01  22170429.906    22170429.445                                   118513639.977   118513623.010                                          42.800          42.400                                  
R02  20140470.820    20140469.148    20140477.715    20140477.672   107473438.739   107473427.755    83590451.867    83590458.878          51.400          48.800          47.600          48.400  
R18  20598829.156    20598828.082    20598836.234    20598835.785   109957970.224   109957947.239    85522854.900    85522864.912          48.200          46.100          46.800          48.500  
R17  19864586.297    19864585.012    19864592.871    19864592.695   106299402.521   106299391.524    82677343.230    82677342.226          50.900          48.700          48.500          49.500  
R16  21936561.070    21936561.316    21936570.789    21936570.961   117181169.446   117181127.460    91140863.622    91140870.604          45.000          44.000          45.300          45.900  
R24  23081778.250    23081777.434    23081788.957    23081788.859   123428581.983   123428629.050    96000064.135    96000040.132          44.500          42.600          41.800          43.400  
R03  21782399.500    21782399.184    21782409.754    21782409.980   116602961.685   116602886.702    90691167.602    90691178.599          46.300          45.700          46.900          47.600  
E03  26220137.953    26220147.453    26220146.516    26220148.621   137787786.430   102893490.105   105577661.356   104235596.336          43.800          42.700          45.700          49.700  
E13  25298897.242    25298906.172    25298904.109    25298906.195   132946630.690    99278324.628   101868187.532   100573267.687          45.700          45.800          47.500          52.800  
E30  27714191.422    27714209.051    27714206.285    27714208.727   145638989.547   108756410.804   111593542.223   110174989.122          39.100          39.000          40.800          45.500  
E15  23582429.453    23582436.410    23582434.535    23582436.922   123926503.013    92542497.992    94956650.536    93749577.874          48.900          48.300          49.400          55.400  
E21  25928555.586    25928563.438    25928560.996    25928563.648   136255491.038   101749225.592   104403553.037   103076407.919          44.400          44.100          44.800          50.400  
E05  25271681.625    25271691.824    25271689.527    25271692.074   132803589.016    99171529.770   101758600.760   100465073.875          42.000          42.200          44.400          48.900  
E27  25002256.984    25002265.500    25002263.527    25002265.793   131387731.282    98114211.990   100673694.574    99393958.391          46.700          47.700          49.200          54.000  
C04  38506193.195    38506192.578   200511899.259   155048479.581          36.200          41.100  
C03  37495162.125    37495162.879   195247184.935   150977475.960          38.700          42.100  
C02  38963978.961    38963978.883   202895716.841   156891795.054          35.400          39.600  
C30  22743058.094                   118429053.616                          47.900                  
C29  21755386.273                   113286004.995                          49.100                  
C19  26107938.406                   135950881.720                          36.500                  
C20  22957700.680                   119546822.724                          49.600                  
C13  38401639.016    38401646.449   199967457.184   154627526.046          40.200          40.000  
> 2025 04 10 07 22 10.0000000  0 31
G17  21553631.172                    21553638.961   113265085.789                    88258543.070          45.500                          45.800  
G11  22261825.172                    22261833.270   116986746.724                    91158486.085          44.200                          47.800  
G20  23296446.180    23296455.219                   122423761.094    95395097.522                          39.800          24.900                  
G22  23640566.000    23640576.445                   124231957.318    96804192.665                          42.300          25.000                  
G19  19833016.211    19833020.168                   104223193.834    81212907.205                          48.100          43.200                  
G06  20689737.938                    20689747.352   108725328.822                    84721056.426          48.200                          48.200  
G09  22468647.258                    22468657.938   118073606.810                    92005396.836          41.800                          45.400  
G04  22909787.250                    22909796.336   120391770.610                    93811787.133          42.100                          43.300  
G12  23085298.141                    23085305.652   121314074.691                    94530465.282          41.500                          40.500  
R01  22172010.023    22172009.211                                   118522087.706   118522070.711                                          43.900          42.500                                  
R02  20138539.172    20138537.852    20138546.109    20138545.973   107463130.057   107463119.064    83582434.021    83582441.023          51.400          49.000          48.300          49.200  
R18  20595698.906    20595697.480    20595705.961    20595705.234   109941260.562   109941237.569    85509858.488    85509868.485          47.300          45.500          46.600          47.900  
R17  19863843.344    19863842.176    19863850.113    19863849.648   106295429.079   106295418.090    82674252.777    82674251.788          50.200          48.200          48.200          48.600  
R16  21936974.320    21936974.215    21936983.719    21936983.848   117183376.227   117183334.225    91142579.972    91142586.983          45.600          44.300          45.100          46.000  
R24  23083102.844    23083102.496    23083114.363    23083114.684   123435669.512   123435716.520    96005576.618    96005552.622          44.300          42.900          42.600          44.200  
R03  21777281.203    21777280.063    21777291.555    21777291.926   116575562.717   116575487.737    90669857.324    90669868.319          46.300          44.400          46.800          47.600  
E03  26216770.336    26216781.066    26216778.816    26216781.363   137770090.931   102880275.969   105564102.508   104222209.850          42.600          43.100          44.500          49.700  
E13  25296062.688    25296071.477    25296069.648    25296071.699   132931735.985    99267201.972   101856774.718   100561999.953          45.300          46.200          47.600          52.500  
E30  27715881.359    27715899.082    27715896.363    27715898.809   145647871.093   108763043.011   111600347.450   110181707.837          38.800          37.900          40.200          44.600  
E15  23581460.750    23581467.590    23581465.855    23581468.234   123921413.152    92538697.127    94952750.521    93745727.432          49.600          47.800          49.300          55.200  
E21  25926430.805    25926438.777    25926436.574    25926439.176   136244327.377   101740889.091   104394999.065   103067962.689          43.700          43.400          44.600          49.900  
E05  25270441.336    25270451.133    25270449.305    25270451.578   132797070.121    99166661.779   101753605.774   100460142.382          42.000          40.900          43.300          48.000  
E27  25002720.875    25002729.121    25002726.777    25002729.273   131390167.165    98116030.972   100675561.014    99395801.101          47.000          46.800          48.500          53.800  
C04  38504826.781    38504826.289   200504783.274   155042977.056          36.000          40.700  
C03  37493813.602    37493814.012   195240161.473   150972044.984          38.500          42.700  
C02  38962603.617    38962603.477   202888553.330   156886255.806          34.800          40.600  
C30  22743349.414                   118430572.497                          47.900                  
C29  21753097.547                   113274086.729                          49.000                  
C19  26103234.320                   135926388.805                          35.000                  
C20  22954265.320                   119528934.076                          48.900                  
C13  38399433.766    38399440.605   199955970.949   154618644.169          40.300          40.300  
> 2025 04 10 07 22 15.0000000  0 31
G17  21554276.289                    21554283.906   113268475.051                    88261184.042          46.300                          44.700  
G11  22258529.805                    22258537.059   116969426.697                    91144989.969          44.300                          47.100  
G20  23292132.648    23292142.410                   122401096.092    95377436.499                          39.500          25.300                  
G22  23642360.781    23642371.285                   124241389.915    96811542.659                          41.800          25.900                  
G19  19832249.695    19832253.625                   104219163.204    81209766.457                          48.700          43.100                  
G06  20687966.695                    20687975.758   108716021.153                    84713803.688          48.700                          48.500  
G09  22465263.383                    22465274.156   118055825.479                    91991541.273          42.500                          45.600  
G04  22907984.680                    22907994.457   120382300.618                    93804407.912          42.100                          44.900  
G12  23082648.008                    23082655.578   121300148.834                    94519613.929          41.100                          41.000  
R01  22173593.531    22173592.602                                   118530550.424   118530533.424                                          44.500          42.900                                  
R02  20136610.734    20136610.000    20136618.785    20136618.316   107452843.979   107452832.980    83574433.750    83574440.753          51.300          49.200          48.100          49.300  
R18  20592568.320    20592568.891    20592576.637    20592575.879   109924555.563   109924532.570    85496865.727    85496875.730          48.500          46.500          47.400          48.200  
R17  19863103.109    19863101.352    19863109.203    19863108.711   106291463.898   106291452.881    82671168.724    82671167.733          50.800          48.900          49.000          50.200  
R16  21937390.664    21937389.855    21937399.754    21937400.055   117185601.012   117185559.002    91144310.325    91144317.329          45.000          43.700          45.800          47.300  
R24  23084429.688    23084428.520    23084441.320    23084440.375   123442760.692   123442807.688    96011091.957    96011067.961          42.600          40.900          42.800          43.900  
R03  21772163.484    21772163.520    21772174.336    21772174.270   116548172.200   116548097.214    90648553.651    90648564.646          46.300          44.400          46.800          47.200  
E03  26213404.414    26213414.453    26213412.953    26213415.180   137752402.043   102867066.742   105550548.713   104208828.336          42.400          43.200          46.300          50.400  
E13  25293228.938    25293237.445    25293235.805    25293237.852   132916843.899    99256081.282   101845363.938   100550734.215          45.100          46.700          47.900          52.900  
E30  27717570.891    27717589.266    27717586.641    27717589.094   145656752.631   108769675.223   111607152.685   110188426.563          38.500          38.000          40.200          44.600  
E15  23580492.672    23580500.039    23580498.258    23580500.453   123916326.742    92534898.838    94948853.143    93741879.599          49.400          48.500          49.200          55.400  
E21  25924308.898    25924316.672    25924314.281    25924317.043   136233175.010   101732561.021   104386453.742   103059525.989          44.400          44.800          45.900          51.000  
E05  25269202.742    25269213.375    25269210.609    25269213.309   132790562.906    99161802.481   101748619.709   100455219.703          42.300          41.700          43.600          48.300  
E27  25003185.867    25003194.160    25003192.332    25003194.613   131392612.108    98117856.730   100677434.403    99397650.673          47.200          47.500          49.200          53.900  
C04  38503459.984    38503459.574   200497667.060   155037474.330          36.600          40.700  
C03  37492465.344    37492464.828   195233137.722   150966613.764          39.000          42.600  
C02  38961228.078    38961227.766   202881389.527   156880716.304          35.000          40.400  
C30  22743642.133                   118432097.576                          48.200                  
C29  21750810.234                   113262174.665                          48.600                  
C19  26098530.711                   135901896.547                          35.300                  
C20  22950831.953                   119511056.158                          48.100                  
C13  38397228.305    38397235.340   199944487.323   154609764.267          40.800          41.400  
> 2025 04 10 07 22 20.0000000  0 31
G17  21554923.336                    21554930.859   113271874.498                    88263832.937          46.000                          44.900  
G11  22255234.641                    22255242.867   116952112.245                    91131498.180          43.700                          47.000  
G20  23287821.617    23287830.566                   122378437.531    95359780.491                          40.400          25.100                  
G22  23644155.969    23644166.770                   124250826.306    96818895.682                          40.400          24.600                  
G19  19831485.133    19831489.570                   104215147.533    81206637.354                          48.900          42.800                  
G06  20686196.836                    20686206.402   108706721.300                    84706557.052          48.100                          48.600  
G09  22461881.203                    22461892.277   118038056.033                    91977694.958          43.100                          46.000  
G04  22906185.563                    22906195.453   120372846.474                    93797041.046          41.400                          43.600  
G12  23080001.133                    23080008.637   121286239.620                    94508775.609          41.300                          40.500  
R01  22175179.828    22175178.430                                   118539029.031   118539012.037                                          43.300          42.100                                  
R02  20134687.578    20134686.375    20134695.063    20134694.645   107442581.104   107442570.104    83566451.518    83566458.527          50.500          48.900          47.600          49.100  
R18  20589441.352    20589440.395    20589448.105    20589447.383   109907856.226   109907833.204    85483877.346    85483887.364          48.700          46.500          47.000          48.000  
R17  19862362.375    19862361.793    19862369.590    19862369.563   106287507.907   106287496.918    82668091.848    82668090.844          50.900          48.300          48.500          49.100  
R16  21937811.320    21937810.629    21937820.258    21937819.777   117187844.777   117187802.797    91146055.486    91146062.513          45.800          44.600          45.900          46.000  
R24  23085756.141    23085755.090    23085768.156    23085767.594   123449856.664   123449903.654    96016611.023    96016587.032          41.900          39.500          42.700          43.600  
R03  21767049.109    21767048.793    21767059.723    21767059.676   116520791.222   116520716.234    90627257.369    90627268.373          45.800          44.000          46.600          46.600  
E03  26210039.734    26210050.215    26210048.336    26210050.625   137734720.608   102853863.107   105537000.628   104195452.479          42.800          42.800          45.700          50.400  
E13  25290395.969    25290404.426    25290402.691    25290404.734   132901955.333    99244963.196   101833955.809   100539471.108          44.800          46.500          48.300          53.000  
E30  27719261.844    27719279.715    27719276.855    27719279.582   145665634.987   108776308.013   111613958.540   110195145.890          39.800          37.400          40.000          44.500  
E15  23579525.766    23579532.949    23579531.449    23579533.426   123911244.672    92531103.777    94944959.083    93738035.035          49.700          47.600          49.000          55.400  
E21  25922188.523    25922196.453    25922194.297    25922196.879   136222034.814   101724242.040   104377917.746   103051098.504          44.000          44.900          45.200          50.700  
E05  25267966.680    25267977.359    25267974.688    25267977.473   132784068.001    99156952.395   101743643.108   100450306.364          42.100          42.800          43.800          48.900  
E27  25003653.063    25003661.668    25003659.371    25003661.859   131395067.020    98119689.943   100679315.443    99399507.801          46.400          47.400          48.600          53.900  
C04  38502093.680    38502093.055   200490551.565   155031972.185          36.000          40.400  
C03  37491116.883    37491116.137   195226114.605   150961183.068          38.400          42.400  
C02  38959853.063    38959852.582   202874226.173   156875177.122          36.000          39.700  
C30  22743936.328                   118433629.724                          48.000                  
C29  21748523.695                   113250269.622                          48.100                  
C19  26093827.031                   135877405.860                          35.200                  
C20  22947401.398                   119493189.893                          48.000                  
C13  38395023.781    38395030.785   199933007.185   154600887.136          40.500          41.000  
> 2025 04 10 07 22 25.0000000  0 31
G17  21555572.406                    21555579.609   113275284.033                    88266489.713          45.800                          44.800  
G11  22251941.438                    22251949.313   116934803.221                    91118010.648          45.600                          46.300  
G20  23283510.977    23283520.730                   122355785.260    95342129.390                          40.600          25.600                  
G22  23645952.609    23645963.289                   124260266.439    96826251.565                          40.900          23.500                  
G19  19830723.719    19830728.164                   104211146.683    81203519.805                          48.500          42.700                  
G06  20684428.953                    20684437.875   108697429.150                    84699316.421          48.400                          48.800  
G09  22458502.359                    22458513.105   118020298.348                    91963857.807          43.100                          45.200  
G04  22904389.648                    22904398.883   120363407.929                    93789686.347          41.600                          42.300  
G12  23077356.742                    23077365.082   121272346.986                    94497950.176          40.900                          38.800  
R01  22176769.898    22176768.031                                   118547523.253   118547506.245                                          44.300          43.200                                  
R02  20132769.164    20132767.609    20132775.680    20132775.363   107432341.667   107432330.668    83558487.501    83558494.504          51.200          49.200          48.100          48.500  
R18  20586314.844    20586313.184    20586321.109    20586320.477   109891162.284   109891139.277    85470893.182    85470903.179          48.000          45.800          47.200          48.400  
R17  19861625.344    19861624.762    19861632.547    19861632.223   106283561.025   106283550.036    82665022.055    82665021.065          50.300          48.600          48.500          49.300  
R16  21938235.414    21938234.605    21938243.750    21938243.551   117190107.534   117190065.538    91147815.406    91147822.418          44.900          43.300          44.500          44.100  
R24  23087083.719    23087082.785    23087095.719    23087095.516   123456957.190   123457004.194    96022133.628    96022109.640          43.600          42.500          42.100          43.400  
R03  21761935.539    21761935.809    21761946.766    21761947.270   116493419.518   116493344.510    90605968.291    90605979.287          45.600          44.300          46.700          46.400  
E03  26206676.547    26206687.359    26206685.059    26206687.371   137717046.593   102840665.006   105523458.217   104182082.216          43.100          43.400          45.200          50.200  
E13  25287563.484    25287572.172    25287569.922    25287572.219   132887070.125    99233847.633   101822550.273   100528210.561          45.800          45.900          46.600          52.100  
E30  27720952.438    27720969.777    27720967.480    27720969.816   145674518.001   108782941.324   111620764.889   110201865.716          40.000          38.700          40.300          44.700  
E15  23578559.547    23578566.836    23578565.195    23578567.277   123906166.796    92527311.857    94941068.239    93734193.652          50.000          48.200          49.200          55.900  
E21  25920070.992    25920079.215    25920076.773    25920079.297   136210906.618   101715932.021   104369390.945   103042680.092          43.700          44.000          44.600          50.300  
E05  25266733.258    25266743.266    25266741.203    25266743.711   132777585.473    99152111.550   101738675.971   100445402.366          41.600          41.800          43.400          48.300  
E27  25004121.906    25004130.281    25004128.641    25004130.797   131397531.734    98121530.472   100681203.980    99401372.330          46.300          47.800          48.700          54.000  
C04  38500727.266    38500726.523   200483436.513   155026470.368          36.200          39.900  
C03  37489768.633    37489767.941   195219091.968   150955752.707          39.700          42.500  
C02  38958477.797    38958476.789   202867063.248   156869638.305          36.100          41.100  
C30  22744232.016                   118435168.811                          47.300                  
C29  21746238.945                   113238371.531                          48.800                  
C19  26089123.945                   135852916.527                          34.000                  
C20  22943972.500                   119475335.146                          47.900                  
C13  38392819.922    38392826.465   199921530.435   154592012.590          40.900          40.600  
> 2025 04 10 07 22 30.0000000  0 31
G17  21556222.609                    21556230.387   113278703.090                    88269153.909          46.300                          45.300  
G11  22248647.750                    22248656.285   116917499.165                    91104526.959          43.600                          46.800  
G20  23279201.984    23279210.605                   122333138.882    95324482.988                          39.200          22.000                  
G22  23647749.070    23647760.645                   124269709.766    96833609.940                          39.000          22.500                  
G19  19829965.094    19829969.750                   104207160.131    81200413.404                          48.100          42.600                  
G06  20682662.320                    20682670.918   108688144.131                    84692081.356          48.700                          48.700  
G09  22455125.688                    22455135.875   118002551.840                    91950029.408          42.300                          45.500  
G04  22902596.516                    22902605.934   120353984.566                    93782343.454          41.700                          43.900  
G12  23074716.930                    23074723.805   121258470.423                    94487137.271          43.600                          42.100  
R01  22178360.422    22178359.961                                   118556032.548   118556015.551                                          44.800          43.700                                  
R02  20130854.750    20130853.195    20130861.453    20130861.414   107422124.764   107422113.756    83550541.041    83550548.036          51.900          49.500          48.200          48.800  
R18  20583187.297    20583186.574    20583194.902    20583194.063   109874473.274   109874450.275    85457912.825    85457922.829          47.900          46.300          48.600          49.800  
R17  19860889.211    19860887.688    19860895.820    19860895.203   106279622.768   106279611.771    82661958.963    82661957.959          50.700          48.800          49.400          50.300  
R16  21938661.984    21938661.410    21938670.816    21938670.168   117192388.503   117192346.513    91149589.480    91149596.477          46.100          44.300          44.400          45.000  
R24  23088412.109    23088411.879    23088423.969    23088424.023   123464061.729   123464108.733    96027659.318    96027635.314          44.700          42.800          42.700          42.700  
R03  21756823.930    21756824.434    21756835.305    21756835.371   116466056.359   116465981.379    90584685.881    90584696.877          45.800          44.900          47.000          46.300  
E03  26203314.516    26203325.781    26203323.906    26203325.496   137699379.364   102827471.993   105509921.036   104168717.123          42.700          44.100          45.100          50.300  
E13  25284731.070    25284740.031    25284737.688    25284740.121   132872187.748    99222734.146   101811146.867   100516952.113          44.800          46.300          48.200          52.800  
E30  27722643.070    27722660.602    27722657.742    27722660.473   145683401.204   108789574.761   111627571.385   110208585.682          37.700          38.100          39.300          44.200  
E15  23577593.758    23577601.016    23577599.328    23577601.375   123901092.550    92523522.659    94937180.183    93730355.025          48.900          47.700          49.000          54.900  
E21  25917955.781    25917963.734    25917961.527    25917964.039   136199789.895   101707630.585   104360872.952   103034270.376          44.000          45.300          46.700          51.900  
E05  25265502.023    25265512.230    25265510.074    25265512.414   132771114.654    99147279.483   101733717.853   100440507.277          41.600          41.200          43.500          48.200  
E27  25004592.938    25004601.047    25004599.734    25004601.531   131400005.713    98123377.898   100683099.606    99403243.858          46.400          47.400          49.000          54.300  
C04  38499361.258    38499360.375   200476321.452   155020968.558          35.900          40.000  
C03  37488419.633    37488419.098   195212069.225   150950322.286          39.400          41.800  
C02  38957100.930    38957101.234   202859900.058   156864099.310          33.400          40.600  
C30  22744528.969                   118436714.262                          47.200                  
C29  21743955.258                   113226479.836                          49.200                  
C19  26084420.539                   135828428.071                          31.900                  
C20  22940545.422                   119457491.396                          48.500                  
C13  38390616.563    38390622.844   199910056.502   154583140.213          41.300          40.100  
> 2025 04 10 07 22 35.0000000  0 31
G17  21556875.000                    21556883.000   113282132.071                    88271825.832          46.300                          45.100  
G11  22245356.500                    22245364.117   116900200.362                    91091047.385          44.000                          47.100  
G20  23274893.016    23274902.508                   122310498.590    95306841.177                          41.300          27.700                  
G22  23649547.422    23649558.090                   124279156.460    96840970.955                          40.700          24.700                  
G19  19829209.352    19829213.508                   104203188.217    81197318.402                          48.500          42.300                  
G06  20680896.461                    20680905.785   108678866.622                    84684852.125          48.600                          48.100  
G09  22451750.531                    22451761.512   117984816.899                    91936209.983          43.000                          45.700  
G04  22900806.203                    22900815.496   120344576.646                    93775012.620          41.200                          43.300  
G12  23072080.102                    23072086.984   121244610.208                    94476337.074          42.400                          42.100  
R01  22179955.383    22179953.984                                   118564557.270   118564540.295                                          44.100          43.500                                  
R02  20128944.172    20128942.617    20128951.043    20128950.836   107411930.960   107411919.961    83542612.525    83542619.528          51.900          50.300          47.700          49.300  
R18  20580061.820    20580061.332    20580069.641    20580068.820   109857789.548   109857766.548    85444936.611    85444946.615          48.200          46.700          48.800          49.900  
R17  19860155.266    19860153.859    19860161.828    19860161.254   106275693.356   106275682.360    82658902.752    82658901.755          51.200          49.300          49.000          50.000  
R16  21939093.070    21939092.262    21939101.219    21939101.535   117194688.143   117194646.146    91151378.063    91151385.053          47.600          45.600          45.400          45.300  
R24  23089741.438    23089741.090    23089752.527    23089752.703   123471170.396   123471217.380    96033188.290    96033164.286          45.200          43.000          42.900          43.700  
R03  21751713.742    21751714.129    21751724.563    21751724.723   116438702.517   116438627.545    90563410.692    90563421.695          44.700          44.200          45.900          46.200  
E03  26199953.648    26199965.008    26199962.992    26199964.805   137681719.403   102814284.362   105496389.374   104155357.474          43.500          43.300          45.300          50.300  
E13  25281899.688    25281908.617    25281906.555    25281908.793   132857308.576    99211623.107   101799745.978   100505696.147          44.700          45.700          47.700          52.800  
E30  27724333.641    27724351.137    27724348.555    27724350.984   145692284.867   108796208.543   111634378.233   110215306.001          38.900          37.000          38.500          43.500  
E15  23576629.047    23576636.473    23576634.551    23576636.652   123896022.299    92519736.419    94933295.180    93726519.405          49.100          47.700          48.300          54.800  
E21  25915842.461    25915850.465    25915848.023    25915850.633   136188685.028   101699337.965   104352364.001   103025869.594          44.900          45.400          46.200          51.900  
E05  25264272.906    25264283.336    25264280.566    25264283.391   132764655.953    99142456.391   101728768.934   100435621.270          43.600          40.200          42.700          47.500  
E27  25005065.781    25005073.766    25005072.547    25005074.289   131402489.274    98125232.530   100685002.617    99405122.683          45.900          47.600          48.800          54.500  
C04  38497994.602    38497993.980   200469206.756   155015467.016          36.000          40.400  
C03  37487070.609    37487070.313   195205046.742   150944892.081          38.600          42.400  
C02  38955725.805    38955725.363   202852737.104   156858560.433          35.700          40.500  
C30  22744827.383                   118438266.486                          49.300                  
C29  21741672.711                   113214594.910                          48.700                  
C19  26079719.039                   135803940.983                          36.500                  
C20  22937120.914                   119439658.994                          47.800                  
C13  38388413.781    38388420.066   199898585.690   154574270.257          41.100          40.500  
> 2025 04 10 07 22 40.0000000  0 31
G17  21557529.203                    21557537.582   113285570.647                    88274505.243          45.200                          45.800  
G11  22242065.445                    22242073.441   116882906.582                    91077571.739          43.600                          47.000  
G20  23270586.367    23270595.078                   122287864.162    95289204.041                          39.400          23.600                  
G22  23651345.383    23651356.465                   124288606.514    96848334.543                          39.800          23.800                  
G19  19828456.227    19828461.016                   104199230.670    81194234.600                          48.000          42.500                  
G06  20679132.453                    20679141.590   108669596.333                    84677628.519          48.800                          48.100  
G09  22448378.180                    22448389.004   117967093.352                    91922399.457          42.700                          45.300  
G04  22899018.586                    22899028.250   120335184.021                    93767693.705          41.600                          43.500  
G12  23069445.289                    23069452.191   121230766.142                    94465549.504          42.800                          41.600  
R01  22181552.969    22181551.453                                   118573097.111   118573080.117                                          44.600          43.300                                  
R02  20127037.969    20127036.648    20127044.293    20127044.367   107401760.040   107401749.048    83534701.826    83534708.837          51.400          50.200          47.800          48.200  
R18  20576937.625    20576936.668    20576945.148    20576944.484   109841110.813   109841087.813    85431964.264    85431974.269          48.500          46.600          48.400          49.100  
R17  19859422.117    19859420.949    19859428.859    19859428.367   106271772.620   106271761.624    82655853.293    82655852.296          50.800          48.800          49.300          50.300  
R16  21939526.703    21939526.246    21939535.164    21939535.582   117197006.187   117196964.192    91153180.979    91153187.975          45.800          44.700          44.500          45.900  
R24  23091072.961    23091071.676    23091083.840    23091083.227   123478283.207   123478330.215    96038720.411    96038696.408          47.200          44.400          44.600          44.900  
R03  21746605.219    21746605.254    21746615.840    21746616.141   116411357.664   116411282.685    90542142.513    90542153.523          45.300          44.100          45.600          46.100  
E03  26196594.438    26196605.156    26196603.891    26196605.305   137664066.359   102801101.943   105482863.048   104142003.101          43.300          43.500          45.500          50.500  
E13  25279068.742    25279077.797    25279075.641    25279078.000   132842432.321    99200514.202   101788347.277   100494442.348          44.700          45.700          47.000          52.700  
E30  27726023.898    27726042.066    27726039.066    27726041.613   145701168.662   108802842.405   111641185.162   110222026.393          37.500          37.000          39.300          44.000  
E15  23575664.938    23575672.191    23575670.313    23575672.480   123890955.773    92515952.981    94929413.045    93722686.621          48.900          48.200          48.400          55.100  
E21  25913731.609    25913739.414    25913737.539    25913739.789   136177591.710   101691054.012   104343863.941   103017477.578          44.900          44.600          45.500          51.300  
E05  25263046.219    25263055.711    25263053.883    25263056.453   132758209.079    99137642.206   101723829.149   100430744.288          43.000          40.400          42.500          47.200  
E27  25005539.945    25005548.387    25005546.465    25005548.578   131404982.187    98127094.087   100686912.742    99407008.521          46.300          47.100          48.900          54.100  
C04  38496628.203    38496627.922   200462092.180   155009965.572          36.100          39.600  
C03  37485721.828    37485721.809   195198024.300   150939461.873          38.600          42.200  
C02  38954350.180    38954349.887   202845574.010   156853021.497          33.700          39.800  
C30  22745126.398                   118439825.158                          48.200                  
C29  21739391.867                   113202716.466                          49.200                  
C19  26075016.461                   135779454.792                          36.300                  
C20  22933698.477                   119421837.651                          47.900                  
C13  38386211.281    38386217.715   199887117.771   154565402.536          41.700          40.000  
> 2025 04 10 07 22 45.0000000  0 31
G17  21558185.969                    21558193.957   113289019.291                    88277192.490          46.300                          45.300  
G11  22238775.703                    22238783.211   116865618.264                    91064100.341          43.900                          46.900  
G20  23266280.438    23266289.020                   122265236.131    95271571.823                          40.900          23.400                  
G22  23653144.727    23653155.836                   124298060.122    96855700.970                          40.900          26.200                  
G19  19827706.344    19827710.363                   104195288.016    81191162.403                          48.700          42.400                  
G06  20677369.359                    20677378.918   108660333.725                    84670410.910          48.900                          48.100  
G09  22445007.570                    22445018.195   117949381.576                    91908598.085          42.800                          45.400  
G04  22897234.578                    22897243.836   120325807.008                    93760386.973          41.400                          43.200  
G12  23066812.883                    23066821.461   121216938.713                    94454774.876          41.600                          42.300  
R01  22183153.266    22183152.102                                   118581652.648   118581635.626                                          44.900          43.200                                  
R02  20125136.570    20125135.133    20125142.570    20125143.199   107391612.462   107391601.462    83526809.275    83526816.278          52.000          50.200          48.000          48.000  
R18  20573813.313    20573813.762    20573821.371    20573820.391   109824437.591   109824414.591    85418996.209    85419006.220          48.800          46.500          48.100          48.600  
R17  19858691.453    19858691.105    19858698.742    19858698.504   106267860.876   106267849.887    82652810.821    82652809.825          51.400          48.900          49.000          49.300  
R16  21939964.602    21939963.559    21939972.816    21939972.676   117199342.927   117199300.954    91154998.445    91155005.443          47.900          46.000          45.300          46.800  
R24  23092403.484    23092403.020    23092415.645    23092415.176   123485400.540   123485447.529    96044256.104    96044232.108          45.600          44.500          44.600          45.200  
R03  21741499.094    21741498.777    21741509.582    21741509.945   116384021.857   116383946.875    90520881.427    90520892.452          43.900          43.000          45.200          45.600  
E03  26193236.688    26193247.270    26193246.051    26193247.566   137646420.705   102787924.992   105469342.367   104128654.284          42.900          43.600          45.300          50.500  
E13  25276238.594    25276247.684    25276245.430    25276247.754   132827559.426    99189407.851   101776951.187   100483191.125          44.800          46.100          47.500          52.600  
E30  27727714.523    27727733.012    27727730.008    27727732.473   145710053.224   108809476.901   111647992.770   110228747.448          37.000          37.500          40.000          44.000  
E15  23574701.797    23574709.117    23574706.867    23574709.227   123885893.451    92512172.682    94925534.126    93718857.008          49.000          48.500          49.100          55.100  
E21  25911623.164    25911630.789    25911628.867    25911630.973   136166510.429   101682779.022   104335373.084   103009094.664          44.800          45.000          46.100          51.700  
E05  25261821.883    25261831.234    25261829.215    25261832.082   132751774.527    99132837.161   101718898.755   100425876.566          43.800          39.800          42.600          46.800  
E27  25006016.266    25006024.621    25006022.789    25006024.840   131407484.898    98128962.985   100688830.386    99408901.792          45.900          47.800          49.100          54.600  
C04  38495261.945    38495261.750   200454978.044   155004464.478          35.900          40.500  
C03  37484373.672    37484373.457   195191002.354   150934032.040          38.500          42.300  
C02  38952974.602    38952974.566   202838412.295   156847482.852          33.700          39.200  
C30  22745426.914                   118441390.788                          48.200                  
C29  21737112.242                   113190845.001                          49.500                  
C19  26070313.727                   135754970.109                          37.600                  
C20  22930278.688                   119404027.889                          48.000                  
C13  38384009.438    38384016.055   199875653.240   154556537.468          42.600          39.800  
> 2025 04 10 07 22 50.0000000  0 31
G17  21558844.055                    21558851.949   113292477.420                    88279887.125          46.000                          45.500  
G11  22235486.469                    22235494.102   116848334.884                    91050632.764          44.100                          46.600  
G20  23261975.375    23261984.258                   122242613.967    95253944.167                          41.600          26.000                  
G22  23654943.969    23654955.648                   124307516.874    96863069.813                          40.700          26.600                  
G19  19826958.672    19826962.879                   104191359.650    81188101.331                          48.400          43.000                  
G06  20675608.547                    20675617.746   108651078.239                    84663198.838          49.100                          48.700  
G09  22441639.164                    22441649.648   117931681.027                    91894805.460          42.600                          45.100  
G04  22895452.719                    22895462.414   120316445.179                    93753092.021          40.900                          42.400  
G12  23064184.211                    23064193.266   121203127.352                    94444012.799          41.700                          41.300  
R01  22184756.328    22184754.695                                   118590223.104   118590206.130                                          43.900          42.500                                  
R02  20123239.164    20123238.078    20123245.559    20123246.109   107381487.273   107381476.273    83518934.138    83518941.142          52.600          50.100          47.800          48.700  
R18  20570690.969    20570690.949    20570698.590    20570698.063   109807769.234   109807746.249    85406031.938    85406041.942          49.100          47.300          48.600          48.900  
R17  19857962.633    19857960.875    19857969.309    19857968.805   106263957.769   106263946.758    82649775.058    82649774.054          51.300          48.500          49.400          50.000  
R16  21940405.695    21940403.832    21940414.055    21940414.180   117201698.034   117201656.030    91156830.175    91156837.188          46.300          45.200          44.600          45.500  
R24  23093734.914    23093734.566    23093747.160    23093746.234   123492521.893   123492568.903    96049794.928    96049770.924          46.200          43.900          44.800          45.000  
R03  21736396.352    21736394.273    21736404.770    21736404.961   116356695.140   116356620.131    90499627.290    90499638.302          45.600          44.100          46.000          45.800  
E03  26189880.094    26189890.586    26189889.273    26189891.113   137628781.878   102774753.175   105455826.934   104115310.656          43.700          44.200          45.700          50.800  
E13  25273408.938    25273417.461    25273415.539    25273417.832   132812689.310    99178303.555   101765557.217   100471941.991          45.600          46.100          47.700          52.900  
E30  27729405.547    27729423.520    27729420.801    27729423.117   145718937.786   108816111.315   111654800.243   110235468.392          39.600          36.800          40.200          43.800  
E15  23573739.102    23573746.156    23573744.234    23573746.480   123880834.738    92508395.056    94921657.956    93715030.114          49.600          48.200          48.900          55.100  
E21  25909516.688    25909524.527    25909521.996    25909524.551   136155440.588   101674512.581   104326890.995   103000720.396          44.600          44.700          45.600          50.900  
E05  25260599.352    25260609.211    25260607.242    25260610.004   132745351.693    99128040.890   101713977.379   100421017.742          44.000          40.600          42.200          46.600  
E27  25006493.906    25006503.109    25006500.531    25006502.871   131409996.780    98130838.729   100690755.073    99410802.009          46.600          47.900          49.000          54.400  
C04  38493896.031    38493895.445   200447864.011   154998963.442          35.800          40.100  
C03  37483024.641    37483024.891   195183980.287   150928602.153          38.400          42.500  
C02  38951599.523    38951598.965   202831249.438   156841944.034          35.100          40.700  
C30  22745728.273                   118442962.769                          47.900                  
C29  21734833.500                   113178979.909                          49.200                  
C19  26065612.211                   135730486.338                          35.800                  
C20  22926860.109                   119386229.104                          48.300                  
C13  38381808.031    38381815.035   199864191.438   154547674.471          41.700          41.300  
> 2025 04 10 07 22 55.0000000  0 31
G17  21559503.648                    21559511.578   113295944.652                    88282588.857          46.100                          45.400  
G11  22232198.141                    22232206.480   116831055.982                    91037168.689          43.900                          46.300  
G20  23257672.156    23257680.883                   122219997.238    95236320.748                          42.200          28.300                  
G22  23656744.641    23656755.887                   124316976.290    96870440.751                          42.000          26.000                  
G19  19826213.781    19826217.898                   104187445.166    81185051.076                          48.100          42.300                  
G06  20673848.656                    20673857.688   108641829.482                    84655992.011          49.000                          48.700  
G09  22438272.875                    22438283.508   117913991.371                    91881021.318          43.100                          45.000  
G04  22893674.281                    22893683.797   120307098.087                    93745808.598          41.200                          43.400  
G12  23061558.914                    23061567.496   121189331.618                    94433262.867          42.000                          42.100  
R01  22186362.617    22186361.570                                   118598808.158   118598791.167                                          43.500          42.300                                  
R02  20121345.500    20121344.531    20121352.508    20121352.441   107371384.689   107371373.697    83511076.568    83511083.572          51.800          49.000          46.800          47.800  
R18  20567569.586    20567569.332    20567576.613    20567575.996   109791105.430   109791082.423    85393071.191    85393081.202          49.200          47.400          47.900          49.500  
R17  19857234.305    19857232.547    19857240.910    19857240.180   106260062.684   106260051.701    82646745.551    82646744.546          52.000          49.800          48.800          49.600  
R16  21940849.445    21940848.051    21940857.656    21940857.152   117204070.790   117204028.787    91158675.635    91158682.661          45.800          44.900          44.700          45.400  
R24  23095067.961    23095066.559    23095079.055    23095078.348   123499646.684   123499693.679    96055336.402    96055312.399          46.000          44.300          45.500          46.000  
R03  21731291.742    21731291.188    21731301.293    21731301.141   116329376.656   116329301.654    90478379.625    90478390.642          46.600          45.000          45.300          45.900  
E03  26186524.297    26186535.215    26186533.715    26186535.566   137611149.542   102761586.183   105442316.460   104101971.933          42.600          44.000          45.700          50.500  
E13  25270580.047    25270588.242    25270586.555    25270588.645   132797821.623    99167201.080   101754165.105   100460694.697          46.200          46.300          47.300          52.400  
E30  27731095.836    27731114.555    27731111.977    27731114.031   145727822.110   108822745.581   111661607.619   110242189.209          38.300          39.000          40.500          45.200  
E15  23572776.961    23572784.297    23572782.281    23572784.438   123875779.232    92504619.844    94917784.267    93711205.662          49.300          47.700          48.800          55.000  
E21  25907411.945    25907419.918    25907417.762    25907420.035   136144381.899   101666254.478   104318417.456   102992354.577          44.600          44.900          46.300          51.500  
E05  25259379.695    25259389.055    25259387.414    25259389.801   132738940.188    99123253.058   101709064.645   100416167.458          43.700          40.400          43.000          47.500  
E27  25006973.633    25006982.344    25006980.141    25006982.426   131412517.493    98132721.094   100692686.538    99412708.925          46.500          47.100          48.900          53.800  
C04  38492529.711    38492529.359   200440749.441   154993461.998          36.500          40.900  
C03  37481676.547    37481676.086   195176957.710   150923171.846          37.700          41.700  
C02  38950223.031    38950223.090   202824085.927   156836404.740          35.600          41.700  
C30  22746031.438                   118444540.718                          48.100                  
C29  21732556.125                   113167120.828                          49.100                  
C19  26060910.375                   135706003.052                          36.200                  
C20  22923444.102                   119368440.920                          48.600                  
C13  38379607.945    38379614.793   199852732.092   154538813.380          40.200          40.500  
> 2025 04 10 07 23  0.0000000  0 31
G17  21560165.047                    21560173.063   113299421.675                    88285298.219          46.600                          45.400  
G11  22228911.289                    22228919.184   116813782.268                    91023708.666          43.700                          46.600  
G20  23253369.070    23253378.066                   122197386.581    95218702.104                          42.100          28.200                  
G22  23658546.281    23658556.012                   124326439.100    96877814.297                          42.400          25.100                  
G19  19825471.367    19825475.582                   104183545.264    81182012.200                          48.600          43.000                  
G06  20672089.891                    20672099.023   108632588.123                    84648790.950          48.500                          48.900  
G09  22434909.305                    22434919.879   117896313.275                    91867246.185          43.000                          46.100  
G04  22891898.758                    22891907.688   120297766.387                    93738537.167          41.700                          43.100  
G12  23058937.109                    23058945.031   121175552.188                    94422525.646          42.000                          42.500  
R01  22187973.008    22187970.434                                   118607408.477   118607391.466                                          44.100          42.300                                  
R02  20119456.602    20119455.281    20119463.543    20119463.531   107361304.859   107361293.859    83503236.694    83503243.697          51.300          49.100          47.300          48.500  
R18  20564449.133    20564447.707    20564455.688    20564454.895   109774446.796   109774423.782    85380114.490    85380124.486          49.200          47.200          47.600          48.700  
R17  19856507.695    19856507.230    19856514.930    19856514.199   106256176.450   106256165.453    82643722.928    82643721.931          50.600          49.800          48.700          49.800  
R16  21941295.563    21941297.102    21941305.672    21941304.977   117206462.172   117206420.153    91160535.593    91160542.604          44.500          44.000          44.900          45.200  
R24  23096400.922    23096401.277    23096413.219    23096412.891   123506775.817   123506822.836    96060881.248    96060857.268          45.000          44.100          45.600          46.400  
R03  21726189.750    21726189.195    21726199.672    21726199.535   116302067.339   116301992.356    90457139.052    90457150.055          47.100          45.000          45.800          46.100  
E03  26183170.547    26183181.371    26183179.965    26183181.637   137593524.373   102748424.566   105428811.481   104088638.633          43.300          44.900          46.200          51.100  
E13  25267751.391    25267759.680    25267757.473    25267759.883   132782957.018    99156100.890   101742775.353   100449449.726          45.700          45.500          47.100          52.300  
E30  27732785.883    27732805.352    27732802.445    27732804.770   145736706.658   108829380.005   111668415.102   110248910.165          37.400          36.200          39.000          43.600  
E15  23571815.742    23571822.930    23571820.961    23571823.215   123870727.622    92500847.529    94913913.545    93707384.144          48.800          48.300          49.200          55.200  
E21  25905309.781    25905317.957    25905315.656    25905317.977   136133334.896   101658005.090   104309952.871   102983997.589          43.200          45.200          46.500          51.500  
E05  25258162.156    25258172.074    25258169.543    25258172.168   132732540.666    99118474.196   101704161.135   100411326.273          43.700          41.800          43.600          48.400  
E27  25007455.250    25007463.734    25007461.578    25007464.000   131415047.683    98134610.487   100694625.223    99414622.965          46.200          47.000          48.800          54.100  
C04  38491162.891    38491163.086   200433635.073   154987960.709          36.200          41.100  
C03  37480328.102    37480327.746   195169935.352   150917741.714          38.100          41.400  
C02  38948848.141    38948847.863   202816922.520   156830865.552          35.300          41.400  
C30  22746335.797                   118446125.282                          47.300                  
C29  21730280.234                   113155268.452                          49.800                  
C19  26056208.422                   135681521.002                          36.100                  
C20  22920030.406                   119350664.027                          48.500                  
C13  38377407.570    38377414.738   199841275.765   154529954.645          40.900          40.900  
> 2025 04 10 07 23  5.0000000  0 31
G17  21560828.992                    21560836.117   113302908.047                    88288014.859          46.800                          45.100  
G11  22225624.734                    22225633.262   116796513.307                    91010252.327          42.700                          46.700  
G20  23249067.180    23249076.648                   122174781.632    95201087.891                          41.500          26.700                  
G22  23660347.055    23660357.504                   124335904.748    96885190.081                          42.300          26.200                  
G19  19824732.047    19824736.320                   104179659.449    81178984.289                          48.500          43.000                  
G06  20670332.555                    20670342.047   108623353.730                    84641595.321          48.500                          48.500  
G09  22431546.492                    22431557.441   117878646.245                    91853479.679          41.100                          45.500  
G04  22890125.492                    22890135.313   120288449.721                    93731277.399          42.700                          44.300  
G12  23056318.328                    23056326.414   121161788.646                    94411800.828          43.100                          42.000  
R01  22189583.391    22189582.109                                   118616023.457   118616006.456                                          44.500          42.600                                  
R02  20117571.695    20117570.961    20117579.152    20117578.820   107351247.724   107351236.725    83495414.493    83495421.496          51.300          49.500          47.900          48.700  
R18  20561328.398    20561328.262    20561335.957    20561335.480   109757792.938   109757769.939    85367161.492    85367171.496          48.100          47.000          47.600          48.900  
R17  19855782.945    19855781.895    19855789.605    19855789.313   106252298.533   106252287.551    82640706.781    82640705.791          51.100          49.100          48.900          49.000  
R16  21941747.750    21941747.762    21941756.684    21941756.246   117208871.341   117208829.352    91162409.396    91162416.394          46.300          45.000          45.500          45.800  
R24  23097733.922    23097734.277    23097746.906    23097746.484   123513908.685   123513955.680    96066428.997    96066405.009          42.200          42.000          44.900          45.600  
R03  21721089.852    21721088.828    21721099.250    21721099.809   116274766.696   116274691.733    90435905.269    90435916.265          46.500          44.900          45.900          46.700  
E03  26179817.758    26179828.977    26179827.336    26179828.953   137575905.875   102735267.917   105415311.618   104075310.373          43.700          44.500          45.700          51.000  
E13  25264922.453    25264931.918    25264929.246    25264932.027   132768095.040    99145002.661   101731387.602   100438206.739          45.300          45.900          47.600          52.900  
E30  27734476.930    27734496.469    27734493.234    27734495.391   145745591.176   108836014.479   111675222.655   110255631.176          39.100          37.600          39.900          43.700  
E15  23570855.055    23570862.348    23570860.426    23570862.574   123865679.456    92497077.806    94910045.475    93703565.249          48.900          48.200          49.000          54.900  
E21  25903209.344    25903217.426    25903215.504    25903217.793   136122299.232   101649764.184   104301496.977   102975649.191          44.100          44.200          46.100          51.000  
E05  25256946.234    25256956.301    25256954.004    25256956.492   132726152.763    99113704.040   101699266.522   100406493.890          44.100          41.300          43.200          47.200  
E27  25007938.133    25007947.297    25007944.672    25007947.246   131417586.913    98136506.657   100696570.861    99416543.869          46.000          47.600          48.400          54.300  
C04  38489796.961    38489796.602   200426520.564   154982459.339          36.100          41.300  
C03  37478979.125    37478978.945   195162912.758   150912311.398          38.400          41.700  
C02  38947472.242    38947471.637   202809758.710   156825326.050          35.600          40.000  
C30  22746641.484                   118447716.088                          47.000                  
C29  21728004.922                   113143422.300                          49.900                  
C19  26051507.313                   135657039.738                          37.000                  
C20  22916618.641                   119332898.005                          47.300                  
C13  38375208.625    38375215.074   199829822.046   154521097.914          41.800          41.400  
> 2025 04 10 07 23 10.0000000  0 31
G17  21561494.203                    21561501.551   113306403.957                    88290738.944          47.000                          45.200  
G11  22222339.844                    22222348.227   116779249.380                    90996799.949          43.000                          46.600  
G20  23244766.281    23244775.707                   122152182.639    95183478.314                          41.100          26.900                  
G22  23662148.914    23662159.867                   124345373.566    96892568.331                          43.500          27.500                  
G19  19823995.625    19823999.590                   104175788.091    81175967.639                          48.800          42.800                  
G06  20668576.984                    20668586.145   108614126.572                    84634405.332          49.000                          48.700  
G09  22428187.133                    22428197.926   117860990.702                    91839722.144          40.500                          44.600  
G04  22888354.359                    22888365.098   120279148.285                    93724029.534          40.500                          43.100  
G12  23053702.891                    23053710.211   121148041.329                    94401088.602          42.600                          41.800  
R01  22191198.531    22191196.664                                   118624653.607   118624636.620                                          43.400          41.400                                  
R02  20115691.391    20115690.188    20115697.809    20115697.762   107341213.470   107341202.471    83487610.099    83487617.109          51.200          49.200          47.400          47.500  
R18  20558210.266    20558209.543    20558217.055    20558216.488   109741144.146   109741121.147    85354212.421    85354222.433          48.800          47.400          47.700          48.200  
R17  19855060.352    19855059.301    19855067.281    19855066.664   106248429.310   106248418.313    82637697.376    82637696.386          50.800          49.000          49.000          49.500  
R16  21942202.258    21942200.629    21942210.852    21942210.949   117211298.885   117211256.878    91164297.448    91164304.438          46.600          44.700          44.900          45.300  
R24  23099069.516    23099069.285    23099081.684    23099081.215   123521045.585   123521092.623    96071979.902    96071955.904          43.200          40.100          44.500          45.800  
R03  21715990.844    21715990.527    21716001.141    21716001.836   116247475.081   116247400.101    90414678.509    90414689.512          46.400          45.000          46.100          46.800  
E03  26176465.992    26176477.707    26176476.160    26176477.625   137558294.393   102722116.518   105401817.137   104061987.434          42.100          44.200          45.400          50.500  
E13  25262095.344    25262104.094    25262101.938    25262104.363   132753236.008    99133906.644   101720002.116   100426965.984          45.500          46.100          47.500          52.800  
E30  27736167.672    27736187.617    27736183.957    27736186.402   145754475.835   108842648.959   111682030.240   110262352.209          39.700          36.800          38.500          43.300  
E15  23569895.281    23569902.484    23569900.469    23569902.664   123860635.078    92493310.886    94906180.286    93699749.195          49.000          47.200          47.800          55.000  
E21  25901112.023    25901120.055    25901117.477    25901120.094   136111275.191   101641531.955   104293049.989   102967309.578          44.000          45.500          45.900          51.500  
E05  25255732.883    25255743.156    25255741.141    25255743.383   132719776.731    99108942.685   101694380.981   100401670.438          43.800          42.000          43.300          48.300  
E27  25008423.664    25008431.625    25008429.750    25008432.063   131420135.415    98138409.771   100698523.618    99418471.802          46.400          47.300          48.300          53.800  
C04  38488431.281    38488430.270   200419406.168   154976958.060          36.000          40.400  
C03  37477630.633    37477630.105   195155890.158   150906881.090          38.400          41.300  
C02  38946096.281    38946095.965   202802594.884   156819786.524          34.300          41.100  
C30  22746948.195                   118449313.391                          46.300                  
C29  21725731.313                   113131582.724                          49.000                  
C19  26046805.453                   135632559.494                          36.300                  
C20  22913208.805                   119315143.146                          48.600                  
C13  38373009.109    38373015.688   199818371.277   154512243.448          41.300          40.700  
> 2025 04 10 07 23 15.0000000  0 31
G17  21562161.281                    21562169.004   113309909.359                    88293470.412          46.400                          45.800  
G11  22219055.633                    22219063.918   116761990.342                    90983351.342          43.700                          47.300  
G20  23240466.875    23240476.508                   122129589.539    95165873.342                          40.500          27.400                  
G22  23663950.922    23663961.668                   124354845.480    96899948.970                          44.300          28.300                  
G19  19823261.250    19823265.516                   104171931.021    81172962.125                          48.500          43.200                  
G06  20666821.922                    20666831.359   108604906.500                    84627220.863          48.500                          48.900  
G09  22424829.914                    22424840.852   117843346.376                    91825973.335          41.100                          44.300  
G04  22886588.750                    22886597.891   120269862.013                    93716793.502          40.500                          44.000  
G12  23051089.703                    23051097.379   121134310.023                    94390388.896          43.600                          41.700  
R01  22192815.820    22192814.188                                   118633298.622   118633281.620                                          44.300          41.800                                  
R02  20113814.938    20113813.969    20113821.715    20113822.086   107331201.701   107331190.717    83479823.168    83479830.179          51.700          49.400          47.600          47.900  
R18  20555092.820    20555091.277    20555098.828    20555098.578   109724500.221   109724477.229    85341267.164    85341277.168          49.400          47.500          46.800          47.800  
R17  19854338.586    19854337.770    19854345.672    19854345.191   106244568.616   106244557.635    82634694.601    82634693.610          50.800          49.400          49.200          49.100  
R16  21942659.453    21942658.176    21942668.441    21942669.164   117213744.556   117213702.538    91166199.624    91166206.619          46.100          43.600          44.200          45.500  
R24  23100402.500    23100403.207    23100416.641    23100416.199   123528186.478   123528233.496    96077533.889    96077509.886          38.100          37.100          44.300          45.000  
R03  21710896.750    21710893.734    21710905.266    21710905.543   116220192.493   116220117.498    90393458.736    90393469.739          47.000          44.600          46.700          47.300  
E03  26173116.305    26173127.855    26173125.887    26173127.477   137540689.762   102708970.247   105388327.913   104048669.688          42.800          44.200          44.100          50.200  
E13  25259268.430    25259277.242    25259275.086    25259277.379   132738379.732    99122812.675   101708618.748   100415727.321          45.700          45.500          47.600          52.800  
E30  27737858.469    27737877.648    27737874.789    27737877.055   145763360.489   108849283.449   111688837.819   110269073.244          38.000          37.300          39.700          44.100  
E15  23568935.797    23568943.250    23568941.563    23568943.559   123855594.225    92489546.608    94902317.817    93695935.819          49.000          47.800          49.000          55.100  
E21  25899016.320    25899024.309    25899022.059    25899024.488   136100262.590   101633308.265   104284611.771   102958978.625          44.500          45.900          46.200          51.700  
E05  25254521.680    25254532.172    25254529.781    25254531.980   132713412.380    99104190.087   101689504.383   100396855.843          43.900          41.700          43.300          48.100  
E27  25008910.430    25008918.605    25008916.449    25008918.918   131422693.093    98140319.717   100700483.391    99420406.661          46.800          47.200          48.400          53.600  
C04  38487065.016    38487064.285   200412291.718   154971456.674          37.300          41.100  
C03  37476281.586    37476281.711   195148867.470   150901450.702          38.800          42.200  
C02  38944720.375    38944720.598   202795430.791   156814246.799          34.300          41.700  
C30  22747256.609                   118450917.021                          48.300                  
C29  21723458.633                   113119749.488                          49.000                  
C19  26042105.156                   135608080.228                          38.800                  
C20  22909801.445                   119297399.294                          48.300                  
C13  38370810.602    38370817.609   199806923.265   154503391.142          41.600          40.600  
> 2025 04 10 07 23 20.0000000  0 31
G17  21562829.648                    21562837.707   113313424.573                    88296209.531          45.300                          45.600  
G11  22215772.242                    22215779.898   116744736.535                    90969906.840          43.700                          47.300  
G20  23236168.992    23236178.305                   122107002.560    95148273.135                          42.800          28.300                  
G22  23665754.953    23665765.250                   124364320.654    96907332.196                          42.800          26.400                  
G19  19822530.000    19822534.422                   104168088.593    81169968.020                          48.100          42.600                  
G06  20665068.867                    20665078.281   108595693.886                    84620042.199          48.900                          48.400  
G09  22421474.953                    22421485.055   117825713.748                    91812233.612          42.900                          44.600  
G04  22884824.328                    22884833.473   120260591.257                    93709569.526          42.900                          44.400  
G12  23048479.594                    23048487.363   121120595.146                    94379702.005          43.900                          41.800  
R01  22194434.969    22194433.805                                   118641958.817   118641941.807                                          43.700          42.300                                  
R02  20111943.352    20111942.500    20111950.371    20111950.570   107321213.237   107321202.216    83472054.364    83472061.368          51.900          50.100          48.000          48.600  
R18  20551974.734    20551974.598    20551982.426    20551981.598   109707861.622   109707838.630    85328326.042    85328336.046          48.100          46.900          47.500          48.500  
R17  19853618.945    19853617.305    19853625.422    19853624.715   106240716.909   106240705.906    82631698.837    82631697.833          50.800          49.300          49.000          49.100  
R16  21943119.711    21943120.898    21943129.945    21943130.484   117216208.655   117216166.646    91168116.146    91168123.151          45.400          44.500          45.400          46.800  
R24  23101739.813    23101737.938    23101752.512    23101752.676   123535331.592   123535378.580    96083091.061    96083067.072          30.800          30.300          42.600          43.600  
R03  21705799.680    21705798.305    21705809.734    21705809.680   116192918.953   116192843.958    90372246.014    90372257.018          45.800          43.900          47.300          47.600  
E03  26169767.945    26169779.180    26169776.555    26169778.898   137523092.381   102695829.355   105374844.213   104035357.390          43.200          44.100          45.500          50.500  
E13  25256441.703    25256450.898    25256448.648    25256450.957   132723526.602    99111721.050   101697237.771   100404491.015          44.900          46.200          47.400          52.900  
E30  27739548.875    27739568.906    27739565.625    27739568.113   145772245.534   108855918.310   111695645.783   110275794.656          36.700          38.300          40.200          44.800  
E15  23567977.586    23567984.664    23567982.789    23567984.977   123850557.342    92485785.311    94898458.397    93692125.462          49.100          47.800          48.700          55.100  
E21  25896922.953    25896930.672    25896928.375    25896931.027   136089261.792   101625093.372   104276182.573   102950656.578          44.100          44.400          45.000          50.500  
E05  25253313.453    25253323.133    25253321.305    25253323.316   132707060.093    99099446.544   101684637.092   100392050.426          43.200          42.400          43.700          48.500  
E27  25009398.672    25009407.414    25009405.258    25009407.613   131425260.252    98142236.730   100702450.417    99422348.682          45.100          47.100          47.800          53.800  
C04  38485698.758    38485698.063   200405177.542   154965955.571          36.500          40.500  
C03  37474933.047    37474933.414   195141845.027   150896020.471          38.600          42.700  
C02  38943344.563    38943344.566   202788266.885   156808707.229          35.300          40.500  
C30  22747565.344                   118452527.366                          47.200                  
C29  21721187.633                   113107923.033                          49.600                  
C19  26037403.406                   135583602.275                          37.000                  
C20  22906396.336                   119279666.807                          48.100                  
C13  38368612.938    38368619.941   199795478.388   154494541.242          41.700          41.300  
> 2025 04 10 07 23 25.0000000  0 31
G17  21563501.453                    21563508.199   113316949.845                    88298956.488          46.000                          45.200  
G11  22212490.141                    22212497.656   116727488.195                    90956466.570          43.900                          46.600  
G20  23231871.594    23231881.414                   122084422.004    95130677.916                          41.700          25.900                  
G22  23667557.984    23667569.055                   124373799.438    96914718.188                          42.900          26.900                  
G19  19821802.242    19821805.625                   104164261.006    81166985.484                          48.800          42.600                  
G06  20663317.758                    20663326.992   108586488.915                    84612869.503          48.800                          48.800  
G09  22418121.500                    22418131.625   117808092.985                    91798503.160          42.900                          44.500  
G04  22883063.461                    22883072.648   120251336.145                    93702357.780          40.800                          43.900  
G12  23045872.953                    23045881.371   121106896.917                    94369028.057          43.600                          42.000  
R01  22196057.227    22196056.883                                   118650634.505   118650617.523                                          42.300          41.100                                  
R02  20110076.273    20110074.719    20110083.023    20110082.914   107311247.909   107311236.902    83464303.556    83464310.566          51.700          49.800          47.700          49.300  
R18  20548859.523    20548858.332    20548866.672    20548865.863   109691228.521   109691205.515    85315389.189    85315399.194          47.500          45.900          47.900          48.700  
R17  19852900.156    19852899.926    19852908.078    19852907.266   106236874.211   106236863.236    82628710.072    82628709.074          49.700          48.700          48.900          50.000  
R16  21943585.523    21943587.180    21943595.426    21943595.613   117218691.417   117218649.415    91170047.168    91170054.171          45.300          45.400          45.400          47.300  
R24  23103079.648    23103076.484    23103090.457    23103090.441   123542481.306   123542528.381    96088651.853    96088627.859          36.300          34.800          43.400          44.600  
R03  21700705.406    21700705.676    21700716.957    21700716.711   116165654.887   116165579.891    90351040.708    90351051.705          44.700          44.500          46.700          46.400  
E03  26166420.422    26166432.090    26166428.996    26166431.531   137505502.480   102682694.069   105361366.254   104022050.767          43.600          43.400          44.500          49.800  
E13  25253616.141    25253624.516    25253623.109    25253624.965   132708676.815    99100631.943   101685859.377   100393257.270          44.000          45.900          47.400          52.900  
E30  27741240.367    27741259.828    27741256.355    27741259.098   145781131.162   108862553.535   111702454.113   110282516.435          36.800          37.900          40.500          44.800  
E15  23567019.648    23567027.125    23567025.250    23567027.406   123845524.613    92482027.101    94894602.146    93688318.229          49.400          47.700          49.100          55.100  
E21  25894831.492    25894839.539    25894837.566    25894839.945   136078273.089   101616887.526   104267762.671   102942343.703          44.400          45.500          47.000          51.800  
E05  25252106.906    25252116.719    25252114.609    25252116.965   132700720.079    99094712.053   101679779.107   100387254.190          44.500          42.400          44.700          49.100  
E27  25009889.297    25009897.438    25009895.422    25009897.754   131427837.162    98144161.044   100704424.926    99424298.092          46.600          47.300          48.200          53.800  
C04  38484332.492    38484331.688   200398063.847   154960454.806          35.500          39.900  
C03  37473584.828    37473584.883   195134823.032   150890590.625          39.000          42.300  
C02  38941968.977    38941968.438   202781103.223   156803167.809          34.300          40.300  
C30  22747875.852                   118454144.606                          47.500                  
C29  21718917.898                   113096103.566                          49.200                  
C19  26032703.141                   135559125.799                          35.900                  
C20  22902992.844                   119261945.941                          48.800                  
C13  38366415.570    38366422.582   199784036.776   154485693.870          41.700          40.700  
> 2025 04 10 07 23 30.0000000  0 31
G17  21564173.438                    21564181.215   113320484.349                    88301710.614          45.900                          45.600  
G11  22209208.945                    22209216.543   116710244.579                    90943030.001          43.900                          46.600  
G20  23227575.867    23227585.445                   122061847.145    95113087.135                          42.400          28.100                  
G22  23669363.406    23669373.633                   124383280.971    96922106.352                          42.200          25.800                  
G19  19821075.547    19821079.871                   104160447.537    81164013.945                          47.900          42.400                  
G06  20661566.859                    20661576.676   108577290.874                    84605702.187          47.600                          48.700  
G09  22414770.211                    22414781.000   117790483.381                    91784781.399          43.300                          45.900  
G04  22881305.039                    22881314.051   120242096.022                    93695157.672          41.800                          43.400  
G12  23043269.922                    23043277.449   121093214.565                    94358366.479          42.200                          42.100  
R01  22197684.000    22197683.305                                   118659324.867   118659307.888                                          43.600          42.300                                  
R02  20108212.453    20108211.484    20108219.789    20108219.715   107301304.990   107301293.984    83456570.194    83456577.198          51.500          49.100          48.000          48.300  
R18  20545744.539    20545743.465    20545751.625    20545750.969   109674600.130   109674577.123    85302455.995    85302465.999          49.200          47.100          47.900          49.300  
R17  19852184.656    19852183.488    19852191.738    19852190.926   106233039.804   106233028.822    82625727.733    82625726.730          50.900          49.300          49.200          49.700  
R16  21944053.781    21944053.441    21944062.992    21944062.961   117221192.026   117221150.032    91171992.102    91171999.111          45.700          44.100          45.100          47.000  
R24  23104413.508    23104412.691    23104427.668    23104426.949   123549634.640   123549681.668    96094215.575    96094191.574          40.200          37.900          41.100          42.200  
R03  21695614.266    21695615.238    21695625.918    21695625.563   116138399.613   116138324.612    90329842.186    90329853.174          44.900          44.600          46.800          46.900  
E03  26163074.617    26163085.367    26163082.926    26163085.469   137487919.232   102669563.743   105347893.408   104008749.181          43.600          44.200          45.600          50.900  
E13  25250790.711    25250799.398    25250797.664    25250799.660   132693829.625    99089544.752   101674482.951   100382025.458          44.200          45.700          47.300          52.700  
E30  27742931.773    27742950.531    27742947.250    27742949.945   145790016.528   108869188.582   111709262.264   110289238.032          37.800          38.700          40.400          44.900  
E15  23566062.625    23566070.047    23566068.168    23566070.285   123840495.259    92478271.409    94890748.484    93684513.554          49.200          48.200          49.400          55.200  
E21  25892742.555    25892750.906    25892748.234    25892751.066   136067295.642   101608690.092   104259351.378   102934039.342          43.200          45.200          45.600          51.000  
E05  25250902.609    25250912.402    25250910.105    25250912.602   132694391.598    99089986.276   101674930.039   100382466.767          43.200          41.300          43.000          47.600  
E27  25010381.500    25010389.609    25010387.734    25010389.918   131430422.966    98146091.998   100706406.253    99426254.232          46.500          47.200          47.700          53.400  
C04  38482966.328    38482965.992   200390949.947   154954953.896          35.800          40.200  
C03  37472235.930    37472236.035   195127800.718   150885160.536          39.100          42.200  
C02  38940592.867    38940592.707   202773939.184   156797628.092          35.200          41.400  
C30  22748187.969                   118455768.030                          47.600                  
C29  21716648.938                   113084290.285                          48.900                  
C19  26028002.523                   135534650.102                          36.800                  
C20  22899592.000                   119244235.933                          49.300                  
C13  38364218.883    38364225.488   199772597.838   154476848.574          41.100          40.300  
> 2025 04 10 07 23 35.0000000  0 31
G17  21564848.234                    21564855.727   113324028.990                    88304472.681          46.200                          46.300  
G11  22205928.547                    22205936.500   116693006.527                    90929597.731          45.200                          46.500  
G20  23223281.445    23223290.711                   122039278.785    95095501.445                          42.400          27.300                  
G22  23671167.273    23671178.289                   124392766.136    96929497.316                          42.800          25.300                  
G19  19820353.117    19820357.336                   104156649.029    81161054.061                          48.300          41.800                  
G06  20659818.359                    20659827.910   108568100.566                    84598540.912          47.800                          48.100  
G09  22411421.445                    22411432.016   117772885.746                    91771068.963          43.000                          45.100  
G04  22879548.891                    22879558.496   120232871.706                    93687969.886          41.300                          42.700  
G12  23040668.656                    23040676.547   121079548.938                    94347717.946          42.700                          42.300  
R01  22199312.664    22199311.617                                   118668030.609   118668013.617                                          44.100          43.200                                  
R02  20106353.320    20106352.352    20106360.281    20106360.430   107291385.715   107291374.729    83448855.216    83448862.219          51.300          49.900          47.800          48.700  
R18  20542630.516    20542629.324    20542637.664    20542637.168   109657977.364   109657954.357    85289527.189    85289537.193          49.000          47.200          48.600          49.100  
R17  19851469.445    19851468.746    19851476.563    19851476.098   106229214.615   106229203.611    82622752.595    82622751.592          51.400          49.300          49.400          49.200  
R16  21944526.297    21944524.199    21944534.586    21944534.500   117223711.380   117223669.408    91173951.583    91173958.596          46.100          44.300          44.100          45.400  
R24  23105754.117    23105753.301    23105765.309    23105765.148   123556792.660   123556839.657    96099782.857    96099758.858          43.500          41.300          39.100          39.600  
R03  21690524.508    21690523.953    21690535.020    21690534.586   116111153.988   116111079.017    90308651.209    90308662.205          46.400          45.500          46.200          46.300  
E03  26159730.063    26159740.602    26159738.680    26159740.922   137470343.616   102656439.125   105334426.396   103995453.369          43.500          43.100          44.600          49.900  
E13  25247965.492    25247975.023    25247972.680    25247974.906   132678985.842    99078460.111   101663109.146   100370796.232          45.000          45.400          46.400          51.800  
E30  27744622.523    27744641.609    27744638.043    27744640.934   145798902.604   108875824.146   111716070.938   110295960.154          37.800          38.000          39.400          44.200  
E15  23565106.219    23565113.844    23565111.922    23565114.063   123835470.187    92474518.915    94886898.102    93680712.118          48.700          48.000          49.500          55.500  
E21  25890656.125    25890663.941    25890661.270    25890664.191   136056330.344   101600501.722   104250949.398   102925744.168          43.600          45.000          46.000          51.300  
E05  25249700.508    25249710.098    25249708.641    25249710.262   132688075.516    99085269.723   101670090.418   100377688.676          44.000          40.500          42.600          47.100  
E27  25010875.500    25010883.871    25010881.246    25010883.832   131433018.570    98148030.259   100708395.078    99428217.776          47.100          47.400          47.600          53.500  
C04  38481600.344    38481599.340   200383836.608   154949453.392          36.900          40.900  
C03  37470888.227    37470887.203   195120778.944   150879730.855          38.500          43.000  
C02  38939217.063    38939217.094   202766775.619   156792088.820          35.800          40.600  
C30  22748501.133                   118457398.429                          47.200                  
C29  21714381.609                   113072484.133                          48.900                  
C19  26023302.445                   135510176.054                          36.800                  
C20  22896193.352                   119226537.582                          48.200                  
C13  38362022.445    38362029.879   199761162.299   154468005.858          41.800          41.500  
> 2025 04 10 07 23 40.0000000  0 31
G17  21565524.320                    21565531.945   113327583.314                    88307242.274          46.000                          45.600  
G11  22202649.266                    22202657.215   116675773.590                    90916169.488          43.700                          47.600  
G20  23218988.047    23218997.387                   122016716.575    95077920.522                          42.800          28.900                  
G22  23672973.141    23672984.117                   124402254.550    96936890.841                          41.500          23.800                  
G19  19819633.266    19819637.480                   104152865.060    81158105.515                          48.100          42.300                  
G06  20658070.633                    20658080.090   108558917.636                    84591385.382          47.800                          48.200  
G09  22408075.000                    22408085.582   117755299.737                    91757365.629          43.200                          44.900  
G04  22877796.250                    22877806.266   120223662.844                    93680794.156          41.600                          43.600  
G12  23038072.023                    23038079.738   121065899.685                    94337082.187          43.600                          42.300  
R01  22200944.086    22200942.922                                   118676751.480   118676734.473                                          44.900          42.300                                  
R02  20104499.156    20104497.836    20104506.594    20104506.699   107281489.192   107281478.178    83441157.924    83441164.935          50.900          49.900          48.500          48.800  
R18  20539517.094    20539516.254    20539524.578    20539523.781   109641359.798   109641336.791    85276602.422    85276612.419          47.800          46.300          48.500          49.700  
R17  19850755.852    19850755.270    19850763.090    19850762.531   106225398.307   106225387.324    82619784.355    82619783.352          50.300          49.200          49.600          48.900  
R16  21945001.234    21944999.723    21945009.199    21945009.250   117226249.180   117226207.172    91175925.415    91175932.435          46.500          44.300          44.800          45.200  
R24  23107093.141    23107092.441    23107105.449    23107104.379   123563954.708   123564001.713    96105353.372    96105329.376          43.300          41.700          39.400          39.700  
R03  21685437.766    21685436.156    21685446.891    21685447.133   116083917.607   116083842.600    90287467.354    90287478.351          46.100          44.200          46.600          46.300  
E03  26156387.422    26156397.484    26156395.703    26156397.969   137452775.178   102643319.854   105320964.901   103982162.985          43.900          43.900          45.800          50.500  
E13  25245141.414    25245150.691    25245148.582    25245150.852   132664145.133    99067377.772   101651737.699   100359569.344          44.800          46.400          47.000          52.600  
E30  27746313.359    27746332.555    27746329.039    27746332.176   145807788.857   108882459.869   111722879.788   110302682.438          36.700          38.800          40.400          45.100  
E15  23564150.742    23564158.145    23564156.410    23564158.426   123830448.921    92470769.263    94883050.631    93676913.560          48.800          47.800          48.900          55.400  
E21  25888571.883    25888579.926    25888577.113    25888580.035   136045376.751   101592322.110   104242556.401   102917457.865          43.700          44.900          45.300          50.700  
E05  25248500.969    25248510.738    25248509.000    25248511.031   132681771.379    99080562.101   101665260.011   100372919.660          43.100          41.000          43.100          47.600  
E27  25011370.906    25011379.750    25011377.031    25011379.574   131435623.589    98149975.551   100710391.117    99430188.443          46.600          47.700          48.200          53.700  
C04  38480233.750    38480233.461   200376723.537   154943953.132          36.400          40.600  
C03  37469539.648    37469538.965   195113757.316   150874301.288          38.900          42.600  
C02  38937841.609    38937841.883   202759612.076   156786549.519          35.900          41.500  
C30  22748815.523                   118459035.416                          47.600                  
C29  21712115.984                   113060684.626                          49.300                  
C19  26018602.234                   135485703.205                          37.200                  
C20  22892796.813                   119208850.582                          47.800                  
C13  38359827.180    38359834.203   199749729.747   154459165.512          41.400          40.500  
> 2025 04 10 07 23 45.0000000  0 31
G17  21566202.813                    21566210.273   113331147.783                    88310019.778          46.300                          45.500  
G11  22199371.547                    22199378.711   116658546.230                    90902745.615          44.300                          47.400  
G20  23214696.164    23214705.117                   121994160.867    95060344.676                          43.100          29.400                  
G22  23674778.797    23674789.918                   124411746.565    96944287.192                          41.400          22.800                  
G19  19818916.234    19818920.074                   104149096.107    81155168.667                          48.400          43.000                  
G06  20656324.648                    20656334.328   108549742.476                    84584235.901          47.800                          49.000  
G09  22404730.547                    22404741.516   117737725.780                    91743671.646          43.300                          45.000  
G04  22876048.297                    22876057.082   120214469.803                    93673630.769          41.000                          43.900  
G12  23035477.969                    23035484.867   121052267.156                    94326459.430          42.800                          42.600  
R01  22202577.695    22202576.531                                   118685487.715   118685470.724                                          43.900          42.100                                  
R02  20102648.953    20102647.867    20102656.258    20102656.098   107271616.221   107271605.214    83433478.945    83433485.955          50.800          49.700          47.900          47.900  
R18  20536406.148    20536404.605    20536412.590    20536412.000   109624747.880   109624724.881    85263682.043    85263692.047          48.300          46.800          49.100          49.100  
R17  19850044.695    19850043.172    19850050.770    19850050.953   106221591.234   106221580.230    82616823.282    82616822.285          50.000          48.800          48.500          48.200  
R16  21945480.352    21945478.605    21945488.238    21945487.930   117228805.482   117228763.464    91177913.600    91177920.610          47.600          45.400          45.100          46.300  
R24  23108433.375    23108432.793    23108444.621    23108445.035   123571121.455   123571168.479    96110927.490    96110903.510          44.200          42.100          34.600          36.100  
R03  21680351.055    21680350.500    21680360.789    21680360.742   116056690.953   116056615.953    90266291.101    90266302.104          46.300          44.500          45.600          46.400  
E03  26153045.281    26153055.723    26153053.801    26153056.090   137435214.330   102630206.244   105307509.188   103968878.325          43.100          43.600          45.300          50.300  
E13  25242318.195    25242327.160    25242325.426    25242327.508   132649307.827    99056297.982   101640368.880   100348345.040          44.900          46.400          47.700          52.800  
E30  27748004.875    27748023.777    27748020.355    27748023.531   145816675.789   108889096.087   111729689.146   110309405.223          36.900          38.500          40.400          44.700  
E15  23563196.234    23563203.660    23563201.598    23563203.758   123825431.938    92467022.817    94879206.453    93673118.244          49.200          47.800          49.200          55.100  
E21  25886489.992    25886497.871    25886495.199    25886497.887   136034435.387   101584151.580   104234172.737   102909180.768          44.200          45.500          46.000          51.500  
E05  25247303.695    25247313.594    25247311.578    25247313.609   132675479.655    99075863.733   101660439.070   100368160.013          43.700          41.100          43.000          47.700  
E27  25011868.094    25011877.258    25011874.820    25011877.250   131438238.400    98151928.158   100712394.665    99432166.516          46.900          47.500          48.500          53.800  
C04  38478868.031    38478867.680   200369611.054   154938453.318          36.500          40.400  
C03  37468191.227    37468190.855   195106736.287   150868872.193          38.900          43.100  
C02  38936466.117    38936466.176   202752448.945   156781010.508          35.900          40.900  
C30  22749131.102                   118460679.454                          47.400                  
C29  21709851.398                   113048892.220                          48.400                  
C19  26013902.984                   135461232.070                          37.300                  
C20  22889402.414                   119191175.328                          47.900                  
C13  38357631.594    38357639.340   199738300.651   154450327.839          40.600          41.100  
> 2025 04 10 07 23 50.0000000  0 31
G17  21566882.484                    21566890.848   113334721.768                    88312804.696          46.300                          46.000  
G11  22196093.844                    22196101.637   116641323.881                    90889325.612          44.900                          47.100  
G20  23210404.648    23210414.148                   121971611.107    95042773.455                          41.200          25.800                  
G22  23676586.328    23676596.840                   124421241.580    96951685.846                          42.600          24.300                  
G19  19818201.531    19818205.516                   104145341.498    81152242.994                          48.600          42.300                  
G06  20654580.203                    20654589.512   108540574.468                    84577092.002          48.400                          48.400  
G09  22401387.984                    22401399.246   117720163.247                    91729986.563          42.700                          45.200  
G04  22874300.242                    22874311.273   120205292.003                    93666479.250          40.300                          43.700  
G12  23032886.492                    23032894.105   121038650.877                    94315849.317          41.700                          42.100  
R01  22204215.148    22204213.750                                   118694238.837   118694221.837                                          43.900          41.700                                  
R02  20100802.617    20100801.414    20100809.688    20100809.535   107261765.937   107261754.951    83425817.617    83425824.628          50.800          49.000          47.800          48.800  
R18  20533293.656    20533293.520    20533301.410    20533300.930   109608140.953   109608117.961    85250765.553    85250775.550          48.100          46.600          48.300          49.300  
R17  19849335.070    19849333.430    19849340.961    19849340.926   106217792.629   106217781.641    82613868.804    82613867.813          51.300          48.800          48.900          48.700  
R16  21945961.781    21945960.387    21945969.762    21945969.910   117231379.985   117231337.988    91179915.997    91179922.988          46.400          45.300          45.100          45.900  
R24  23109773.898    23109773.902    23109784.430    23109785.219   123578292.265   123578339.272    96116504.848    96116480.845          42.400          40.500          34.500          37.000  
R03  21675266.266    21675266.066    21675275.922    21675276.219   116029473.365   116029398.372    90245121.904    90245132.907          45.300          44.300          46.100          46.700  
E03  26149705.469    26149715.555    26149713.773    26149715.793   137417660.467   102617097.853   105294058.841   103955598.954          43.700          43.400          45.600          50.500  
E13  25239495.539    25239504.441    25239502.379    25239504.520   132634473.411    99045220.345   101629002.264   100337122.912          43.600          45.500          47.400          52.400  
E30  27749696.383    27749714.859    27749711.996    27749714.836   145825562.722   108895732.297   111736498.491   110316128.007          37.400          38.600          40.300          45.100  
E15  23562242.227    23562249.289    23562247.508    23562249.523   123820418.592    92463279.076    94875365.044    93669325.667          49.300          48.000          49.300          55.300  
E21  25884410.086    25884417.934    25884415.449    25884418.051   136023505.630   101575989.754   104225797.983   102900912.477          43.800          44.900          45.700          51.500  
E05  25246108.703    25246118.730    25246116.715    25246118.477   132669199.717    99071174.146   101655627.145   100363409.256          43.900          41.600          43.700          48.200  
E27  25012367.555    25012375.863    25012374.270    25012376.309   131440862.363    98153887.596   100714405.221    99434151.515          47.000          46.700          48.200          53.400  
C04  38477502.586    38477501.820   200362498.616   154932953.513          36.600          40.600  
C03  37466843.055    37466842.504   195099715.194   150863443.028          38.900          42.500  
C02  38935089.844    38935090.477   202745285.762   156775471.490          34.600          40.500  
C30  22749448.094                   118462329.909                          47.300                  
C29  21707587.922                   113037106.349                          48.800                  
C19  26009203.320                   135436762.014                          37.300                  
C20  22886009.664                   119173511.205                          47.900                  
C13  38355437.617    38355445.000   199726874.439   154441492.356          41.700          40.400  
> 2025 04 10 07 23 55.0000000  0 31
G17  21567564.180                    21567572.418   113338305.504                    88315597.215          46.100                          45.500  
G11  22192817.242                    22192825.445   116624106.654                    90875909.579          45.000                          47.300  
G20  23206114.914    23206124.340                   121949067.437    95025206.988                          42.500          28.900                  
G22  23678394.117    23678404.543                   124430739.750    96959086.962                          42.400          24.500                  
G19  19817489.719    19817494.160                   104141601.464    81149328.677                          48.000          42.300                  
G06  20652837.023                    20652846.398   108531413.799                    84569953.824          49.400                          48.200  
G09  22398047.977                    22398059.297   117702612.378                    91716310.568          41.300                          44.700  
G04  22872557.813                    22872566.961   120196129.611                    93659339.721          41.000                          43.100  
G12  23030298.148                    23030306.168   121025050.860                    94305251.930          42.600                          42.400  
R01  22205853.500    22205852.805                                   118703005.056   118702988.074                                          41.600          39.900                                  
R02  20098961.250    20098960.164    20098968.387    20098968.031   107251938.689   107251927.683    83418174.199    83418181.195          51.000          49.300          47.600          48.300  
R18  20530183.641    20530183.035    20530191.117    20530190.398   109591539.234   109591516.229    85237853.108    85237863.112          48.000          46.500          47.700          48.800  
R17  19848626.633    19848625.934    19848633.844    19848634.039   106214002.918   106213991.950    82610921.268    82610920.264          50.500          49.000          49.400          48.800  
R16  21946446.563    21946446.105    21946455.750    21946455.676   117233972.577   117233930.590    91181932.449    91181939.444          45.400          44.400          44.600          45.800  
R24  23111117.852    23111116.094    23111126.148    23111126.270   123585467.207   123585514.229    96122085.368    96122061.362          44.400          41.600          35.600          36.800  
R03  21670183.328    21670183.598    21670193.211    21670193.809   116002265.067   116002190.074    90223959.917    90223970.936          46.000          44.600          45.300          46.100  
E03  26146365.484    26146376.172    26146374.813    26146376.598   137400113.767   102603994.813   105280613.988   103942325.006          42.800          43.900          45.800          50.600  
E13  25236673.336    25236681.992    25236679.738    25236682.230   132619641.986    99034144.923   101617637.910   100325903.021          45.100          46.100          47.400          52.500  
E30  27751387.375    27751406.020    27751402.316    27751405.816   145834449.884   108902368.692   111743308.012   110322850.962          38.900          37.500          39.100          43.700  
E15  23561288.969    23561296.266    23561294.391    23561296.484   123815409.053    92459538.193    94871526.566    93665535.984          49.000          48.000          49.400          55.100  
E21  25882332.172    25882339.949    25882337.699    25882340.203   136012587.521   101567836.621   104217432.163   102892653.000          44.400          45.100          45.300          51.000  
E05  25244915.836    25244926.090    25244924.074    25244925.770   132662931.756    99066493.531   101650824.416   100358667.581          46.100          42.600          43.800          48.700  
E27  25012868.758    25012877.191    25012875.410    25012877.598   131443495.701    98155854.054   100716422.985    99436143.624          46.800          47.300          48.600          53.700  
C04  38476136.508    38476136.520   200355386.327   154927453.842          36.000          40.300  
C03  37465494.938    37465494.309   195092694.200   150858013.954          39.200          42.600  
C02  38933714.266    38933714.391   202738122.563   156769932.413          36.100          41.300  
C30  22749766.305                   118463986.933                          47.500                  
C29  21705325.594                   113025327.116                          49.600                  
C19  26004504.656                   135412293.195                          37.300                  
C20  22882619.773                   119155858.426                          47.200                  
C13  38353244.305    38353251.598   199715451.200   154432659.214          40.900          40.200  
> 2025 04 10 07 24  0.0000000  0 31
G17  21568248.750                    21568256.164   113341898.563                    88318396.982          45.800                          45.400  
G11  22189542.039                    22189549.418   116606894.270                    90862497.335          44.700                          46.000  
G20  23201826.336    23201835.367                   121926529.616    95007645.077                          43.100          29.600                  
G22  23680201.914    23680213.027                   124440240.752    96966490.283                          42.300          24.600                  
G19  19816780.758    19816785.184                   104137875.642    81146425.421                          47.600          42.400                  
G06  20651095.258                    20651104.277   108522260.141                    84562821.101          48.600                          48.000  
G09  22394710.336                    22394721.641   117685072.826                    91702643.378          41.300                          45.300  
G04  22870816.633                    22870826.316   120186982.294                    93652211.942          40.500                          42.800  
G12  23027713.477                    23027720.988   121011466.848                    94294666.969          41.800                          42.000  
R01  22207498.906    22207496.098                                   118711785.885   118711768.873                                          42.000          40.200                                  
R02  20097124.531    20097122.625    20097131.129    20097131.238   107242134.031   107242123.025    83410548.380    83410555.383          51.700          48.900          48.000          48.800  
R18  20527075.234    20527073.809    20527082.352    20527082.313   109574942.352   109574919.338    85224944.412    85224954.416          48.100          46.300          48.200          49.100  
R17  19847919.938    19847919.004    19847927.215    19847927.043   106210221.708   106210210.704    82607980.311    82607979.306          50.800          49.300          48.900          48.600  
R16  21946934.797    21946935.043    21946944.555    21946944.559   117236583.182   117236541.170    91183962.885    91183969.889          45.400          44.900          44.800          45.200  
R24  23112459.133    23112457.730    23112468.418    23112468.535   123592645.954   123592692.953    96127668.835    96127644.854          43.500          40.900          37.500          37.900  
R03  21665103.055    21665101.680    21665112.109    21665112.668   115975065.779   115974990.778    90202804.950    90202815.954          46.000          44.700          46.500          46.700  
E03  26143028.398    26143039.008    26143037.367    26143039.121   137382573.983   102590896.954   105267174.451   103929056.311          42.800          44.100          45.600          50.300  
E13  25233851.492    25233860.633    25233857.961    25233860.473   132604813.224    99023071.493   101606275.604   100314685.158          45.000          46.600          47.800          52.700  
E30  27753079.023    27753097.023    27753093.648    27753097.152   145843336.883   108909004.962   111750117.415   110329573.799          37.600          37.400          38.700          43.600  
E15  23560336.461    23560343.898    23560341.602    23560343.930   123810403.025    92455799.914    94867690.774    93661748.954          48.900          48.100          49.200          55.200  
E21  25880256.789    25880264.582    25880262.566    25880264.840   136001680.837   101559692.008   104209075.086   102884402.155          44.500          44.700          45.700          51.200  
E05  25243725.172    25243735.684    25243733.668    25243735.336   132656675.396    99061821.578   101646030.591   100353934.688          44.900          42.200          44.400          48.800  
E27  25013371.922    25013380.184    25013378.262    25013380.492   131446137.978    98157827.170   100718447.577    99438142.480          46.500          46.800          48.300          53.400  
C04  38474770.352    38474770.465   200348273.881   154921954.051          35.400          39.800  
C03  37464145.969    37464146.055   195085673.082   150852584.786          38.800          42.500  
C02  38932339.039    38932339.379   202730959.051   156764393.156          36.100          41.500  
C30  22750085.828                   118465650.243                          47.800                  
C29  21703065.227                   113013554.238                          49.100                  
C19  25999805.617                   135387825.316                          37.100                  
C20  22879231.969                   119138216.623                          47.700                  
C13  38351050.984    38351057.531   199704030.599   154423828.090          40.900          39.800  
> 2025 04 10 07 24  5.0000000  0 31
G17  21568934.172                    21568941.785   113345501.773                    88321204.668          45.800                          45.100  
G11  22186267.820                    22186275.320   116589687.521                    90849089.477          45.200                          46.700  
G20  23197539.016    23197547.477                   121903998.315    94990088.270                          40.600          22.000                  
G22  23682010.727    23682021.523                   124449745.358    96973896.440                          40.900          24.100                  
G19  19816075.219    19816078.555                   104134164.808    81143533.874                          47.800          42.100                  
G06  20649354.578                    20649364.297   108513114.275                    84555694.456          48.000                          48.700  
G09  22391375.469                    22391386.625   117667545.426                    91688985.663          41.700                          45.400  
G04  22869079.445                    22869088.668   120177850.943                    93645096.626          41.000                          45.200  
G12  23025131.133                    23025139.348   120997899.642                    94284095.120          42.900                          41.900  
R01  22209143.289    22209141.422                                   118720582.169   118720565.178                                          42.000          40.800                                  
R02  20095291.391    20095289.953    20095298.367    20095297.906   107232352.807   107232341.808    83402940.771    83402947.774          51.600          50.000          48.000          48.900  
R18  20523966.586    20523965.629    20523973.762    20523973.094   109558351.221   109558328.229    85212040.237    85212050.234          48.400          46.300          48.300          49.100  
R17  19847215.578    19847213.938    19847221.695    19847221.309   106206449.686   106206438.696    82605046.507    82605045.510          50.900          48.700          48.300          49.000  
R16  21947428.156    21947426.645    21947436.133    21947436.645   117239212.414   117239170.420    91186007.833    91186014.836          46.000          45.000          44.400          44.700  
R24  23113802.016    23113801.082    23113813.336    23113812.902   123599829.324   123599876.323    96133255.881    96133231.888          41.400          40.000          39.300          40.200  
R03  21660023.508    21660022.484    21660032.938    21660033.629   115947876.235   115947801.234    90181657.561    90181668.564          46.700          44.500          46.200          46.000  
E03  26139691.844    26139702.879    26139700.676    26139702.797   137365041.864   102577804.800   105253740.752   103915793.388          42.700          44.400          45.200          50.900  
E13  25231030.039    25231038.813    25231037.359    25231039.195   132589987.987    99012000.723   101594916.033   100303469.986          45.300          46.600          47.300          52.800  
E30  27754770.195    27754788.371    27754785.414    27754788.551   145852224.516   108915641.687   111756927.296   110336297.104          36.900          37.100          39.100          43.600  
E15  23559384.625    23559391.785    23559389.676    23559392.063   123805401.292    92452064.857    94863858.284    93657965.177          49.400          47.700          49.100          55.100  
E21  25878183.953    25878191.727    25878189.289    25878191.574   135990786.386   101551556.550   104200727.390   102876160.576          44.300          44.700          46.200          51.200  
E05  25242537.438    25242547.184    25242545.262    25242546.871   132650431.472    99057158.948   101641246.315   100349211.238          44.100          41.000          43.700          48.100  
E27  25013876.617    25013884.883    25013882.820    25013885.148   131448790.132    98159807.651   100720479.718    99440148.794          46.300          46.800          48.300          53.500  
C04  38473404.781    38473404.281   200341162.099   154916454.759          36.300          40.400  
C03  37462797.898    37462798.047   195078652.518   150847156.036          38.800          42.600  
C02  38930963.102    38930963.391   202723796.038   156758854.296          33.300          39.700  
C30  22750406.266                   118467320.639                          47.700                  
C29  21700805.578                   113001788.549                          48.800                  
C19  25995106.695                   135363359.225                          37.700                  
C20  22875846.320                   119120586.670                          48.200                  
C13  38348858.875    38348865.730   199692613.551   154414999.716          42.000          39.600  
> 2025 04 10 07 24 10.0000000  0 31
G17  21569621.750                    21569629.625   113349115.672                    88324020.687          45.600                          45.500  
G11  22182994.047                    22183002.113   116572486.925                    90835686.428          44.700                          46.200  
G20  23193252.250    23193260.871                   121881474.156    94972537.013                          40.900          25.300                  
G22  23683820.141    23683830.461                   124459254.090    96981305.748                          42.400          22.500                  
G19  19815371.500    19815375.934                   104130469.549    81140654.454                          48.400          42.800                  
G06  20647615.859                    20647625.246   108503976.778                    84548574.332          48.300                          48.600  
G09  22388042.977                    22388053.586   117650030.680                    91675337.839          42.900                          45.100  
G04  22867345.063                    22867354.344   120168736.004                    93637994.068          40.900                          44.600  
G12  23022552.953                    23022561.211   120984349.823                    94273536.858          42.600                          42.600  
R01  22210790.828    22210790.602                                   118729394.283   118729377.279                                          42.300          40.900                                  
R02  20093462.711    20093461.391    20093469.121    20093469.320   107222595.641   107222584.648    83395351.871    83395358.882          51.300          49.300          48.300          48.800  
R18  20520859.703    20520859.098    20520867.016    20520866.246   109541766.296   109541743.289    85199140.854    85199150.851          47.500          46.700          48.400          48.700  
R17  19846511.781    19846510.375    19846518.238    19846517.945   106202687.514   106202676.524    82602120.377    82602119.382          50.300          48.800          48.600          49.400  
R16  21947922.805    21947921.996    21947931.902    21947931.676   117241860.746   117241818.759    91188067.668    91188074.674          45.100          44.100          43.500          44.100  
R24  23115146.617    23115145.918    23115158.344    23115158.637   123607017.804   123607064.829    96138846.899    96138822.896          42.600          40.800          41.500          41.700  
R03  21654946.352    21654944.742    21654955.348    21654955.855   115920697.213   115920622.202    90160518.360    90160529.363          46.700          43.800          46.700          46.300  
E03  26136357.391    26136368.301    26136365.813    26136368.051   137347517.972   102564718.802   105240313.372   103902536.694          44.000          44.200          44.700          50.500  
E13  25228209.930    25228218.457    25228216.910    25228218.754   132575166.794    99000932.967   101583559.542   100292257.862          45.900          46.100          47.700          52.700  
E30  27756462.406    27756480.281    27756476.953    27756480.230   145861113.384   108922279.349   111763738.136   110343021.355          36.800          38.200          39.700          44.600  
E15  23558433.438    23558440.926    23558438.957    23558441.133   123800404.382    92448333.399    94860029.477    93654185.051          48.800          47.800          48.700          54.900  
E21  25876112.930    25876120.863    25876118.703    25876120.961   135979904.663   101543430.602   104192389.462   102867928.637          43.900          45.000          46.400          51.500  
E05  25241351.719    25241361.215    25241359.668    25241361.328   132644200.551    99052505.977   101636471.971   100344497.580          45.400          41.700          43.600          48.500  
E27  25014383.039    25014391.461    25014389.680    25014391.840   131451452.600    98161795.846   100722519.780    99442162.923          46.500          46.900          48.200          53.600  
C04  38472039.211    38472039.043   200334051.554   154910956.437          37.100          40.800  
C03  37461449.867    37461449.949   195071633.100   150841728.174          38.500          43.000  
C02  38929588.023    38929587.910   202716634.009   156753316.164          35.900          40.200  
C30  22750728.672                   118468998.606                          47.200                  
C29  21698547.750                   112990030.551                          49.400                  
C19  25990408.602                   135338895.383                          38.900                  
C20  22872463.203                   119102969.063                          48.700                  
C13  38346666.203    38346673.617   199681200.468   154406174.374          41.100          40.200  
> 2025 04 10 07 24 15.0000000  0 31
G17  21570311.680                    21570319.121   113352738.429                    88326843.611          46.400                          44.100  
G11  22179722.000                    22179730.012   116555290.585                    90822286.684          43.900                          46.900  
G20  23188966.266    23188976.098                   121858955.396    94954989.992                          40.200          26.100                  
G22  23685629.852    23685640.426                   124468765.123    96988716.874                          42.200          27.700                  
G19  19814670.688    19814675.168                   104126787.992    81137785.696                          47.900          42.200                  
G06  20645878.305                    20645887.770   108494845.755                    84541459.259          48.500                          49.000  
G09  22384712.172                    22384722.578   117632526.768                    91661698.457          43.200                          45.500  
G04  22865613.063                    22865622.609   120159635.692                    93630902.899          41.600                          44.500  
G12  23019977.180                    23019985.742   120970815.558                    94262990.638          41.800                          42.600  
R01  22212442.695    22212441.180                                   118738220.462   118738203.470                                          42.300          41.300                                  
R02  20091638.039    20091636.367    20091644.156    20091644.957   107212860.713   107212849.706    83387780.254    83387787.257          50.900          49.000          47.200          48.000  
R18  20517754.117    20517752.926    20517760.809    20517760.348   109525185.760   109525162.760    85186244.860    85186254.850          48.100          46.300          48.000          49.100  
R17  19845811.281    19845809.523    19845817.242    19845817.145   106198933.265   106198922.277    82599200.400    82599199.396          51.000          48.000          49.800          49.500  
R16  21948422.219    21948420.941    21948431.180    21948430.758   117244526.555   117244484.554    91190141.034    91190148.044          45.700          44.500          45.200          45.700  
R24  23116489.953    23116489.371    23116503.086    23116502.723   123614209.703   123614256.688    96144440.529    96144416.526          40.800          39.400          42.600          42.900  
R03  21649869.742    21649869.777    21649880.453    21649880.762   115893526.535   115893451.547    90139385.634    90139396.630          45.800          44.300          46.800          47.300  
E03  26133023.938    26133034.730    26133032.293    26133034.355   137330000.496   102551637.580   105226890.889   103889284.840          44.800          44.500          45.600          50.900  
E13  25225389.547    25225398.684    25225396.902    25225398.891   132560347.747    98989866.786   101572204.686   100281047.340          44.800          45.700          47.400          52.400  
E30  27758153.688    27758171.891    27758168.094    27758171.559   145870001.492   108928916.444   111770548.373   110349745.019          37.200          38.600          39.500          44.700  
E15  23557483.063    23557490.563    23557488.828    23557490.977   123795410.484    92444604.195    94856202.994    93650407.199          49.200          49.000          49.700          55.600  
E21  25874044.383    25874052.203    25874050.230    25874052.344   135969033.863   101535312.786   104184059.876   102859704.938          44.200          44.200          46.300          51.200  
E05  25240167.758    25240176.965    25240175.840    25240177.504   132637980.763    99047861.328   101631706.150   100339792.344          45.400          42.100          43.900          48.500  
E27  25014891.188    25014900.098    25014897.703    25014900.000   131454123.563    98163790.368   100724566.343    99444183.462          44.900          47.700          49.000          54.200  
C04  38470674.258    38470673.012   200326940.329   154905457.600          36.300          40.900  
C03  37460101.414    37460101.750   195064612.957   150836299.771          38.200          42.700  
C02  38928212.453    38928212.672   202709471.205   156747777.437          35.100          40.400  
C30  22751051.938                   118470682.323                          47.100                  
C29  21696290.961                   112978278.410                          49.000                  
C19  25985711.039                   135314432.057                          40.200                  
C20  22869081.734                   119085361.960                          47.600                  
C13  38344474.906    38344482.551   199669789.611   154397350.813          40.800          40.200  
> 2025 04 10 07 24 20.0000000  0 31
G17  21571003.094                    21571010.383   113356370.506                    88329673.784          46.900                          45.600  
G11  22176450.828                    22176458.277   116538099.115                    90808890.758          44.300                          47.100  
G20  23184682.813    23184691.879                   121836442.425    94937447.390                          41.600          26.100                  
G22  23687440.031    23687451.277                   124478278.791    96996130.109                          41.200          25.300                  
G19  19813973.391    19813977.609                   104123120.660    81134928.033                          48.700          42.500                  
G06  20644142.289                    20644151.504   108485721.758                    84534349.646          49.000                          48.500  
G09  22381383.047                    22381394.445   117615034.263                    91648067.952          42.400                          45.900  
G04  22863884.336                    22863893.707   120150550.416                    93623823.488          40.800                          44.100  
G12  23017405.391                    23017412.938   120957297.323                    94252456.975          41.500                          42.400  
R01  22214097.656    22214094.379                                   118747061.320   118747044.326                                          43.100          42.000                                  
R02  20089817.891    20089816.805    20089824.848    20089825.211   107203148.332   107203137.333    83380226.186    83380233.182          49.800          48.600          47.700          48.500  
R18  20514648.992    20514647.801    20514655.859    20514655.563   109508610.096   109508587.097    85173352.697    85173362.701          48.000          46.400          48.000          48.800  
R17  19845111.047    19845109.996    19845117.824    19845117.754   106195187.552   106195176.556    82596287.034    82596286.038          50.900          48.900          48.600          49.300  
R16  21948924.430    21948923.621    21948933.559    21948933.617   117247210.197   117247168.191    91192228.327    91192235.333          45.800          45.000          44.500          44.600  
R24  23117837.820    23117836.063    23117848.969    23117848.805   123621405.569   123621452.568    96150037.273    96150013.263          42.900          40.500          42.000          42.800  
R03  21644796.008    21644795.574    21644806.422    21644806.871   115866364.885   115866289.920    90118259.939    90118270.935          46.000          44.500          46.600          47.500  
E03  26129691.383    26129702.445    26129700.711    26129702.332   137312489.873   102538561.491   105213473.679   103876038.190          42.900          43.800          45.300          50.400  
E13  25222570.695    25222579.055    25222577.555    25222579.348   132545531.362    98978802.635   101560851.900   100269838.876          45.300          46.200          47.000          52.700  
E30  27759845.070    27759862.773    27759860.098    27759863.098   145878889.504   108935553.451   111777358.543   110356468.606          38.900          38.200          39.900          44.400  
E15  23556533.586    23556540.855    23556538.746    23556541.160   123790420.004    92440877.530    94852379.112    93646631.926          49.100          48.600          49.400          55.700  
E21  25871977.617    25871985.727    25871983.711    25871985.883   135958174.543   101527203.554   104175739.111   102851489.938          44.000          45.200          46.900          51.500  
E05  25238986.664    25238996.184    25238994.496    25238996.309   132631772.590    99043225.339   101626949.225   100335095.887          45.100          39.900          43.700          47.300  
E27  25015401.227    25015409.477    25015407.836    25015409.832   131456803.478    98165791.613   100726619.782    99446210.809          47.300          46.400          48.300          53.400  
C04  38469308.344    38469307.621   200319828.973   154899958.658          36.300          40.700  
C03  37458753.430    37458753.242   195057592.654   150830871.232          37.900          41.900  
C02  38926836.547    38926836.809   202702308.029   156742238.389          35.700          40.300  
C30  22751376.789                   118472372.296                          48.800                  
C29  21694035.219                   112966532.638                          49.300                  
C19  25981013.109                   135289969.667                          38.000                  
C20  22865702.758                   119067765.913                          47.600                  
C13  38342284.656    38342291.336   199658381.431   154388529.271          41.600          40.300  
> 2025 04 10 07 24 25.0000000  0 31
G17  21571695.453                    21571703.020   113360012.110                    88332511.385          46.400                          45.700  
G11  22173179.859                    22173188.223   116520912.617                    90795498.708          44.200                          47.200  
G20  23180400.258    23180408.922                   121813935.449    94919909.531                          40.500          26.600                  
G22  23689250.625    23689261.953                   124487795.431    97003545.612                          40.600          24.200                  
G19  19813278.344    19813282.426                   104119467.722    81132081.582                          48.500          42.600                  
G06  20642407.430                    20642416.500   108476604.921                    84527245.622          48.500                          47.900  
G09  22378056.430                    22378067.355   117597553.289                    91634446.404          43.600                          46.600  
G04  22862158.344                    22862168.098   120141480.513                    93616756.035          41.900                          44.300  
G12  23014835.563                    23014843.555   120943795.305                    94241935.910          41.600                          41.400  
R01  22215753.836    22215752.672                                   118755916.792   118755899.797                                          43.500          41.400                                  
R02  20088002.266    20088001.063    20088008.750    20088009.086   107193458.755   107193447.749    83372689.869    83372696.865          50.500          49.300          47.200          47.800  
R18  20511544.164    20511543.441    20511551.063    20511550.734   109492039.469   109492016.447    85160464.444    85160474.441          47.800          47.000          47.500          49.300  
R17  19844412.344    19844411.645    19844419.332    19844418.766   106191450.457   106191439.461    82593380.426    82593379.429          50.900          49.000          48.800          49.600  
R16  21949429.391    21949430.344    21949439.012    21949439.340   117249911.690   117249869.697    91194329.478    91194336.483          46.300          45.200          44.300          45.400  
R24  23119185.031    23119183.863    23119195.473    23119195.473   123628605.317   123628652.310    96155637.017    96155613.006          44.500          41.800          43.400          44.100  
R03  21639723.680    21639723.480    21639733.805    21639734.254   115839212.407   115839137.413    90097141.360    90097152.364          45.900          44.900          46.800          47.500  
E03  26126360.664    26126371.359    26126369.668    26126371.422   137294986.359   102525490.700   105200061.911   103862796.914          42.600          44.000          45.100          50.200  
E13  25219751.328    25219760.102    25219758.742    25219760.535   132530717.843    98967740.589   101549501.276   100258632.538          44.500          46.000          47.600          52.300  
E30  27761536.633    27761554.188    27761551.656    27761554.539   145887777.414   108942190.423   111784168.663   110363192.152          39.300          37.800          39.600          44.100  
E15  23555584.727    23555591.859    23555589.891    23555592.199   123785433.211    92437153.628    94848558.058    93642859.451          48.600          48.600          49.300          55.400  
E21  25869913.266    25869921.184    25869919.777    25869921.551   135947326.751   101519102.939   104167427.166   102843283.663          44.300          44.500          46.000          51.200  
E05  25237807.883    25237817.027    25237815.527    25237817.168   132625576.222    99038598.203   101622201.367   100330408.393          44.800          40.400          44.100          47.600  
E27  25015913.219    25015921.254    25015919.520    25015921.699   131459492.554    98167799.668   100728680.228    99448245.058          47.000          47.000          48.400          53.700  
C04  38467942.469    38467941.922   200312717.629   154894459.717          36.300          41.400  
C03  37457405.133    37457405.055   195050572.307   150825442.656          38.800          41.200  
C02  38925461.906    38925460.973   202695144.808   156736699.341          35.600          40.100  
C30  22751702.109                   118474068.704                          46.800                  
C29  21691780.969                   112954793.421                          49.100                  
C19  25976315.609                   135265508.435                          40.000                  
C20  22862325.797                   119050181.057                          48.300                  
C13  38340094.344    38340100.797   199646976.102   154379709.949          41.600          40.800  
> 2025 04 10 07 24 30.0000000  0 31
G17  21572390.578                    21572397.988   113363663.313                    88335356.459          47.300                          45.900  
G11  22169910.398                    22169917.941   116503731.199                    90782110.606          44.500                          46.700  
G20  23176118.367    23176127.422                   121791434.545    94902376.363                          40.400          24.400                  
G22  23691062.164    23691073.633                   124497315.141    97010963.484                          38.900          22.300                  
G19  19812585.422    19812589.793                   104115829.273    81129246.434                          48.500          42.200                  
G06  20640673.844                    20640683.004   108467495.355                    84520147.253          49.200                          48.700  
G09  22374732.008                    22374742.816   117580083.926                    91620833.945          42.500                          45.400  
G04  22860434.641                    22860444.789   120132425.945                    93609700.518          40.800                          44.300  
G12  23012269.039                    23012277.820   120930309.544                    94231427.566          40.900                          40.600  
R01  22217412.336    22217412.227                                   118764787.199   118764770.211                                          43.800          42.100                                  
R02  20086190.742    20086189.305    20086197.203    20086197.629   107183792.254   107183781.270    83365171.474    83365178.483          50.500          49.100          47.300          48.200  
R18  20508441.555    20508440.129    20508448.270    20508447.512   109475474.005   109475450.998    85147580.208    85147590.212          48.600          46.600          47.800          48.700  
R17  19843715.828    19843714.543    19843722.273    19843721.789   106187722.020   106187711.024    82590480.506    82590479.510          51.400          48.500          49.500          49.700  
R16  21949939.156    21949939.168    21949948.293    21949948.387   117252631.470   117252589.488    91196444.816    91196451.814          45.900          44.100          45.600          46.200  
R24  23120530.039    23120529.457    23120543.445    23120543.074   123635809.166   123635856.172    96161239.999    96161215.995          41.500          39.800          43.600          44.700  
R03  21634653.445    21634652.773    21634663.340    21634663.813   115812069.520   115811994.512    90076030.263    90076041.267          46.000          45.000          46.800          47.500  
E03  26123031.125    26123041.547    26123040.090    26123041.770   137277489.962   102512425.246   105186655.604   103849561.034          43.300          43.600          45.100          50.000  
E13  25216933.141    25216941.754    25216939.973    25216942.141   132515907.260    98956680.756   101538152.931   100247428.448          44.700          46.100          47.300          52.300  
E30  27763227.531    27763245.609    27763242.516    27763245.805   145896665.432   108948827.442   111790978.831   110369915.746          37.000          36.900          39.300          43.200  
E15  23554636.594    23554643.691    23554641.859    23554643.977   123780450.137    92433432.499    94844739.860    93639089.788          49.000          48.500          49.500          55.300  
E21  25867851.453    25867859.590    25867857.621    25867859.590   135936490.654   101511011.047   104159124.182   102835086.219          45.100          44.500          46.100          51.000  
E05  25236630.820    25236640.176    25236638.441    25236640.328   132619391.727    99033979.907   101617462.607   100325729.864          44.800          39.800          43.100          47.300  
E27  25016426.602    25016434.438    25016433.172    25016435.074   131462190.836    98169814.609   100730747.739    99450286.278          47.400          47.100          48.600          53.600  
C04  38466577.313    38466576.355   200305606.457   154888960.910          37.300          40.500  
C03  37456056.883    37456056.742   195043552.002   150820014.101          39.400          41.600  
C02  38924085.750    38924085.789   202687981.527   156731160.234          35.400          40.700  
C30  22752029.289                   118475771.619                          46.800                  
C29  21689527.805                   112943060.837                          48.400                  
C19  25971618.266                   135241048.406                          37.800                  
C20  22858951.156                   119032607.522                          48.200                  
C13  38337904.773    38337910.930   199635573.657   154370892.855          41.400          40.600  
> 2025 04 10 07 24 35.0000000  0 31
G17  21573086.930                    21573094.676   113367323.679                    88338208.672          47.000                          45.400  
G11  22166641.563                    22166649.434   116486554.467                    90768726.142          43.700                          47.000  
G20  23171837.250    23171846.465                   121768939.265    94884847.631                          38.800          22.600                  
G22  23692874.898    23692885.898                   124506837.261    97018383.265                          40.300          22.800                  
G19  19811896.180    19811900.270                   104112204.887    81126422.224                          48.600          43.100                  
G06  20638941.180                    20638950.691   108458392.600                    84513054.196          49.100                          48.200  
G09  22371410.344                    22371420.551   117562625.858                    91607230.270          42.200                          45.800  
G04  22858715.734                    22858724.668   120123386.320                    93602656.660          41.800                          44.600  
G12  23009705.828                    23009714.168   120916839.737                    94220931.633          41.200                          40.900  
R01  22219074.594    22219073.195                                   118773671.892   118773654.892                                          43.200          41.700                                  
R02  20084383.109    20084382.141    20084390.328    20084390.371   107174148.150   107174137.166    83357670.512    83357677.516          50.900          49.900          47.600          48.600  
R18  20505339.109    20505338.035    20505346.199    20505345.695   109458913.279   109458890.287    85134699.652    85134709.656          48.000          46.100          48.000          48.900  
R17  19843020.266    19843018.742    19843027.406    19843026.805   106184001.920   106183990.930    82587587.107    82587586.110          51.400          48.800          47.800          49.500  
R16  21950453.156    21950451.527    21950461.035    21950461.051   117255368.684   117255326.713    91198573.733    91198580.729          46.700          44.700          45.900          47.100  
R24  23121878.539    23121878.191    23121890.426    23121890.570   123643016.705   123643063.695    96166845.783    96166821.794          41.400          39.400          43.000          43.800  
R03  21629586.570    21629583.438    21629594.578    21629594.406   115784935.305   115784860.294    90054925.900    90054936.904          45.800          43.600          46.900          46.600  
E03  26119702.703    26119713.426    26119712.160    26119713.859   137260000.377   102499364.822   105173254.485   103836330.259          42.200          43.000          45.100          50.100  
E13  25214115.359    25214123.777    25214121.762    25214124.109   132501099.185    98945622.788   101526806.491   100236226.248          44.800          45.900          47.300          52.500  
E30  27764918.891    27764937.637    27764934.309    27764937.375   145905553.059   108955464.153   111797788.705   110376639.039          38.000          39.400          40.400          45.100  
E15  23553689.039    23553696.098    23553694.223    23553696.398   123775470.396    92429713.859    94840924.211    93635322.644          49.600          47.800          49.000          54.900  
E21  25865791.469    25865799.961    25865797.898    25865799.828   135925665.845   101502927.612   104150829.884   102826897.354          44.900          44.300          45.300          50.900  
E05  25235456.375    25235465.344    25235463.371    25235465.520   132613218.681    99029370.171   101612732.608   100321059.996          44.300          40.000          42.900          47.600  
E27  25016941.930    25016949.941    25016948.160    25016950.270   131464897.900    98171836.115   100732821.968    99452334.148          46.900          47.200          48.000          53.800  
C04  38465211.180    38465210.703   200298494.914   154883461.790          36.600          40.600  
C03  37454709.219    37454708.742   195036531.331   150814585.298          38.100          41.900  
C02  38922710.438    38922709.977   202680817.725   156725620.776          34.500          38.900  
C30  22752357.680                   118477480.658                          47.000                  
C29  21687275.844                   112931334.468                          49.900                  
C19  25966921.633                   135216589.332                          39.200                  
C20  22855578.000                   119015044.871                          47.800                  
C13  38335715.125    38335722.340   199624173.783   154362077.795          41.700          40.600  
> 2025 04 10 07 24 40.0000000  0 31
G17  21573785.344                    21573792.762   113370993.811                    88341068.511          46.400                          45.400  
G11  22163374.000                    22163381.883   116469383.001                    90755345.780          43.900                          47.000  
G20  23167557.984    23167566.383                   121746450.432    94867323.849                          40.600          25.400                  
G22  23694687.469    23694698.473                   124516362.629    97025805.559                          42.500          25.800                  
G19  19811209.273    19811213.449                   104108595.238    81123609.512                          48.900          42.600                  
G06  20637210.594                    20637219.789   108449297.332                    84505966.966          49.100                          47.900  
G09  22368089.969                    22368100.551   117545179.628                    91593635.813          42.700                          45.000  
G04  22856998.047                    22857007.547   120114362.279                    93595624.949          42.000                          44.300  
G12  23007146.516                    23007153.918   120903386.481                    94210448.554          41.700                          42.000  
R01  22220740.180    22220738.313                                   118782571.574   118782554.605                                          41.100          39.400                                  
R02  20082580.492    20082578.586    20082586.945    20082586.996   107164527.293   107164516.302    83350187.634    83350194.630          50.500          48.800          48.000          48.800  
R18  20502237.469    20502236.746    20502244.730    20502244.098   109442358.017   109442335.017    85121823.336    85121833.348          48.500          47.500          47.900          48.700  
R17  19842327.656    19842326.133    19842333.984    19842333.512   106180290.791   106180279.803    82584700.667    82584699.671          50.800          48.500          47.900          49.000  
R16  21950968.492    21950966.629    21950976.805    21950976.883   117258124.083   117258082.083    91200716.818    91200723.823          46.900          45.300          44.400          46.100  
R24  23123226.734    23123226.152    23123240.070    23123239.520   123650228.646   123650275.685    96172455.040    96172431.044          39.600          36.500          43.800          44.200  
R03  21624518.109    21624516.617    21624528.152    21624528.273   115757810.951   115757735.946    90033829.211    90033840.222          46.300          43.500          47.200          47.300  
E03  26116376.047    26116386.992    26116384.977    26116387.043   137242518.146   102486309.951   105159859.052   103823105.110          43.300          44.000          45.700          50.900  
E13  25211298.086    25211306.594    25211304.578    25211306.723   132486294.267    98934567.164   101515462.445   100225026.412          45.200          46.400          47.800          52.700  
E30  27766610.109    27766628.926    27766626.301    27766628.875   145914441.002   108962101.130   111804598.816   110383362.583          38.800          39.400          40.200          44.900  
E15  23552741.914    23552749.047    23552747.594    23552749.500   123770494.584    92425998.149    94837111.570    93631558.470          49.000          48.000          49.000          55.100  
E21  25863734.344    25863742.340    25863740.090    25863742.227   135914852.914   101494853.004   104142544.634   102818717.428          44.800          45.500          46.200          51.400  
E05  25234283.758    25234292.434    25234291.309    25234293.176   132607057.800    99024769.511   101608011.948   100316399.335          44.300          40.500          43.800          48.300  
E27  25017458.594    25017467.109    25017465.375    25017467.348   131467614.412    98173864.638   100734903.423    99454389.136          46.500          47.400          48.700          53.900  
C04  38463845.305    38463845.059   200291383.757   154877963.006          36.800          41.300  
C03  37453360.219    37453360.582   195029510.971   150809156.678          39.200          41.900  
C02  38921334.695    38921334.387   202673654.063   156720081.326          34.300          39.700  
C30  22752687.242                   118479196.396                          47.400                  
C29  21685024.938                   112919614.963                          49.200                  
C19  25962223.852                   135192131.610                          40.900                  
C20  22852207.445                   118997493.769                          47.500                  
C13  38333526.469    38333533.820   199612776.979   154353265.045          40.800          41.600  
> 2025 04 10 07 24 45.0000000  0 31
G17  21574485.250                    21574493.211   113374673.698                    88343935.960          46.400                          45.700  
G11  22160108.219                    22160115.266   116452216.785                    90741969.550          43.900                          46.300  
G20  23163279.586    23163288.578                   121723967.705    94849804.876                          41.800          27.300                  
G22  23696500.578    23696511.645                   124525891.104    97033230.286                          42.200          26.700                  
G19  19810525.008    19810529.156                   104105000.196    81120808.172                          48.600          42.600                  
G06  20635481.063                    20635490.684   108440209.478                    84498885.524          49.700                          47.800  
G09  22364772.773                    22364782.965   117527745.287                    91580050.633          42.700                          44.700  
G04  22855284.633                    22855293.258   120105353.866                    93588605.401          42.900                          44.200  
G12  23004588.906                    23004597.605   120889949.725                    94199978.384          40.300                          41.700  
R01  22222408.117    22222405.898                                   118791486.209   118791469.199                                          42.300          39.900                                  
R02  20080781.992    20080780.438    20080788.582    20080788.906   107154929.441   107154918.450    83342722.635    83342729.639          50.800          49.100          47.600          48.500  
R18  20499136.969    20499136.129    20499143.484    20499143.113   109425808.042   109425785.057    85108951.147    85108961.151          48.700          47.000          47.900          48.700  
R17  19841635.117    19841634.301    19841641.961    19841641.691   106176588.639   106176577.657    82581821.214    82581820.218          50.600          49.400          48.100          49.000  
R16  21951487.664    21951486.855    21951497.020    21951496.297   117260897.788   117260855.801    91202874.123    91202881.128          47.400          45.500          45.100          46.300  
R24  23124578.492    23124575.328    23124589.309    23124588.535   123657444.638   123657491.653    96178067.429    96178043.430          39.700          37.400          43.800          43.400  
R03  21619451.938    21619450.680    21619462.211    21619462.383   115730696.012   115730621.024    90012739.861    90012750.857          45.600          43.600          46.900          47.200  
E03  26113051.047    26113061.770    26113059.566    26113061.758   137225043.350   102473260.606   105146469.293   103809885.562          42.800          44.300          46.000          50.800  
E13  25208481.328    25208490.059    25208487.855    25208489.996   132471492.442    98923513.881   101504120.826   100213828.963          43.500          46.200          47.100          52.400  
E30  27768301.625    27768320.086    27768317.180    27768320.066   145923329.104   108968738.219   111811409.068   110390086.253          38.100          39.100          40.300          44.900  
E15  23551796.117    23551803.219    23551801.484    23551803.598   123765522.653    92422285.346    94833301.914    93627797.236          49.500          48.200          49.600          55.300  
E21  25861678.523    25861686.957    25861684.754    25861686.738   135904051.876   101486787.285   104134268.503   102810546.501          44.300          45.500          46.800          51.500  
E05  25233113.836    25233122.402    25233121.137    25233123.172   132600908.919    99020177.815   101603300.459   100311747.742          44.100          39.500          44.000          47.800  
E27  25017977.258    25017985.660    25017983.973    25017986.039   131470340.257    98175900.208   100736992.091    99456451.256          46.300          47.000          48.300          53.700  
C04  38462480.281    38462479.914   200284272.824   154872464.377          36.200          41.400  
C03  37452012.547    37452012.598   195022490.783   150803728.255          39.000          42.700  
C02  38919959.094    38919958.223   202666490.574   156714542.070          35.500          41.000  
C30  22753017.758                   118480918.813                          47.500                  
C29  21682775.742                   112907902.279                          49.000                  
C19  25957527.320                   135167675.399                          41.400                  
C20  22848839.531                   118979954.175                          48.100                  
C13  38331338.570    38331346.063   199601383.245   154344454.745          39.700          41.400  
> 2025 04 10 07 24 50.0000000  0 31
G17  21575187.766                    21575195.578   113378363.212                    88346810.904          46.700                          46.000  
G11  22156841.625                    22156849.512   116435055.658                    90728597.203          44.900                          47.500  
G20  23159002.914    23159011.383                   121701491.154    94832290.710                          41.400          26.900                  
G22  23698314.609    23698325.582                   124535422.560    97040657.319                          42.300          27.200                  
G19  19809843.938    19809847.566                   104101419.643    81118018.131                          48.400          42.600                  
G06  20633753.266                    20633762.570   108431128.873                    84491809.723          48.500                          47.800  
G09  22361457.461                    22361467.980   117510322.612                    91566474.524          42.400                          44.400  
G04  22853572.992                    22853581.324   120096360.764                    93581597.796          41.900                          44.300  
G12  23002035.430                    23002043.496   120876529.281                    94189520.895          42.200                          41.100  
R01  22224078.555    22224075.746                                   118800415.435   118800398.440                                          43.200          41.300                                  
R02  20078987.180    20078986.918    20078994.574    20078994.629   107145354.532   107145343.524    83335275.476    83335282.486          51.200          49.300          47.500          48.300  
R18  20496037.953    20496036.996    20496044.699    20496044.246   109409263.275   109409240.291    85096082.981    85096092.979          48.900          46.600          47.800          48.700  
R17  19840945.031    19840943.863    19840951.531    19840951.375   106172895.220   106172884.239    82578948.542    82578947.547          50.300          49.100          48.100          49.500  
R16  21952009.930    21952009.590    21952019.328    21952018.566   117263689.414   117263647.399    91205045.374    91205052.384          46.300          45.500          44.800          45.500  
R24  23125926.711    23125924.250    23125939.078    23125938.191   123664664.810   123664711.807    96183683.098    96183659.095          39.200          36.900          43.000          42.600  
R03  21614387.656    21614386.516    21614398.594    21614398.645   115703590.508   115703515.537    89991657.856    89991668.859          45.200          43.700          46.500          47.100  
E03  26109726.797    26109738.172    26109735.500    26109737.672   137207575.706   102460216.624   105133085.020   103796671.431          43.600          44.400          45.100          50.600  
E13  25205665.305    25205674.043    25205671.699    25205673.988   132456693.520    98912462.715   101492781.368   100202633.652          44.600          46.200          46.900          52.700  
E30  27769993.938    27770011.965    27770008.867    27770011.680   145932217.219   108975375.321   111818219.327   110396809.937          37.600          38.500          39.000          44.500  
E15  23550850.578    23550857.496    23550856.043    23550857.977   123760554.475    92418575.343    94829495.125    93624038.841          49.000          47.700          48.500          55.100  
E21  25859625.617    25859633.773    25859631.289    25859633.551   135893262.483   101478730.277   104126001.321   102802384.405          43.700          45.600          46.800          51.700  
E05  25231945.391    25231954.180    25231953.242    25231955.309   132594771.932    99015595.023   101598598.095   100307105.160          44.400          38.500          43.500          47.000  
E27  25018497.727    25018506.332    25018504.316    25018506.508   131473075.308    98177942.577   100739087.743    99458520.270          46.800          47.800          48.600          54.000  
C04  38461115.086    38461114.359   200277161.988   154866965.846          36.700          40.800  
C03  37450664.570    37450664.059   195015470.674   150798299.832          38.900          41.800  
C02  38918582.945    38918582.977   202659326.980   156709002.731          35.200          40.700  
C30  22753349.875                   118482647.750                          47.000                  
C29  21680527.828                   112896196.226                          49.400                  
C19  25952830.836                   135143220.483                          40.600                  
C20  22845473.227                   118962425.883                          48.300                  
C13  38329151.156    38329158.484   199589992.558   154335646.704          41.000          42.200  
> 2025 04 10 07 24 55.0000000  0 31
G17  21575891.563                    21575899.277   113382063.213                    88349693.989          47.300                          46.000  
G11  22153577.492                    22153585.230   116417900.548                    90715229.599          44.000                          46.700  
G20  23154726.445    23154735.590                   121679021.611    94814782.003                          41.800          26.400                  
G22  23700129.484    23700140.023                   124544957.826    97048087.340                          41.700          26.000                  
G19  19809165.281    19809169.695                   104097854.503    81115240.094                          48.100          41.800                  
G06  20632027.070                    20632036.266   108422056.426                    84484740.284          48.300                          48.300  
G09  22358144.133                    22358155.078   117492912.565                    91552908.281          43.000                          44.600  
G04  22851864.008                    22851872.945   120087384.016                    93574602.938          42.500                          44.200  
G12  22999485.148                    22999492.387   120863126.144                    94179076.907          42.700                          40.700  
R01  22225751.328    22225749.813                                   118809360.350   118809343.385                                          42.400          40.900                                  
R02  20077197.656    20077196.336    20077204.301    20077204.711   107135803.441   107135792.463    83327846.859    83327853.862          50.900          48.700          47.100          48.100  
R18  20492939.930    20492937.918    20492945.941    20492945.680   109392724.567   109392701.575    85083219.540    85083229.537          47.900          46.000          47.000          48.100  
R17  19840256.234    19840255.301    19840263.387    19840263.164   106169211.398   106169200.425    82576083.345    82576082.333          50.200          49.200          48.900          49.100  
R16  21952536.234    21952536.012    21952545.086    21952545.039   117266499.876   117266457.874    91207231.295    91207238.299          46.400          45.400          45.400          45.300  
R24  23127276.500    23127275.098    23127289.941    23127289.840   123671890.013   123671937.012    96189302.674    96189278.678          39.600          37.300          42.100          43.400  
R03  21609325.531    21609325.215    21609336.016    21609336.660   115676495.520   115676420.569    89970584.027    89970595.029          44.900          43.900          46.400          46.300  
E03  26106404.586    26106415.648    26106413.113    26106415.336   137190116.207   102447178.703   105119706.983   103783463.454          43.900          44.700          45.300          50.900  
E13  25202849.742    25202858.551    25202856.020    25202858.520   132441898.453    98901414.468   101481444.904   100191441.292          44.800          46.800          47.100          52.900  
E30  27771685.172    27771703.445    27771700.539    27771703.148   145941106.229   108982013.087   111825030.264   110403534.285          38.100          38.400          39.700          44.300  
E15  23549905.945    23549913.180    23549911.211    23549913.465   123755590.931    92414868.800    94825691.888    93620283.952          48.400          48.100          48.700          55.100  
E21  25857575.273    25857583.047    25857580.418    25857582.910   135882485.708   101470682.688   104117743.791   102794231.849          45.000          45.000          46.300          51.500  
E05  25230780.008    25230788.609    25230788.000    25230789.891   132588647.755    99011021.773   101593905.568   100302472.279          44.500          39.900          43.600          47.500  
E27  25019020.055    25019028.746    25019026.871    25019028.914   131475820.452    98179992.527   100741191.166    99460596.951          46.200          47.500          48.900          53.900  
C04  38459749.539    38459748.840   200270052.203   154861468.097          36.200          41.200  
C03  37449316.555    37449316.254   195008451.517   150792872.194          39.100          41.700  
C02  38917208.039    38917207.578   202652164.235   156703464.049          35.900          40.400  
C30  22753683.633                   118484384.099                          46.900                  
C29  21678280.969                   112884497.749                          49.200                  
C19  25948134.531                   135118767.706                          40.400                  
C20  22842109.469                   118944909.841                          47.700                  
C13  38326964.531    38326971.598   199578605.654   154326841.679          40.400          42.300  
> 2025 04 10 07 25  0.0000000  0 32
G17  21576597.391                    21576605.156   113385772.278                    88352584.164          47.000                          45.800  
G11  22150314.297                    22150321.480   116400750.025                    90701865.560          44.600                          46.800  
G20  23150451.477    23150460.820                   121656557.740    94797277.740                          41.800          27.800                  
G22  23701944.188    23701955.047                   124554495.592    97055519.327                          40.200          22.600                  
G19  19808489.227    19808493.215                   104094303.359    81112472.966                          48.000          42.400                  
G06  20630301.633                    20630311.281   108412990.737                    84477676.121          48.500                          48.400  
G09  22354833.680                    22354844.328   117475513.762                    91539350.786          42.800                          44.500  
G04  22850158.883                    22850167.738   120078422.148                    93567619.677          42.500                          43.800  
G12  22996937.922                    22996945.309   120849738.822                    94168645.250          42.700                          41.200  
R01  22227427.500    22227425.398                                   118818319.500   118818302.490                                          42.000          39.900                                  
R02  20075412.094    20075411.008    20075419.418    20075419.477   107126274.893   107126263.901    83320435.771    83320442.782          50.200          48.600          47.500          48.700  
R18  20489842.289    20489840.512    20489848.930    20489848.211   109376190.545   109376167.537    85070359.749    85070369.753          47.600          46.500          47.600          48.200  
R17  19839569.484    19839569.371    19839576.691    19839576.801   106165535.919   106165524.916    82573224.635    82573223.631          51.100          49.100          48.200          49.100  
R16  21953066.016    21953064.973    21953074.188    21953074.105   117269327.925   117269285.910    91209430.860    91209437.864          47.200          45.000          45.500          45.200  
R24  23128629.203    23128628.035    23128642.336    23128641.332   123679118.761   123679165.766    96194924.963    96194900.959          37.200          35.900          41.400          42.700  
R03  21604266.438    21604265.883    21604276.164    21604276.836   115649409.310   115649334.315    89949517.007    89949528.003          45.500          44.700          45.600          46.200  
R09  23217077.672    23217073.242    23217083.969    23217085.313   123977908.643   123977881.628    96427280.034    96427273.024          36.100          34.100          36.500          37.200  
E03  26103083.094    26103094.508    26103091.930    26103094.156   137172663.461   102434145.821   105106334.106   103770260.572          43.400          45.100          45.300          51.000  
E13  25200034.281    25200043.668    25200041.320    25200043.680   132427105.848    98890368.044   101470110.313   100180250.782          44.500          47.200          47.600          53.200  
E30  27773376.945    27773395.328    27773392.137    27773394.996   145949994.765   108988650.491   111831840.853   110410258.277          37.800          36.800          37.800          42.700  
E15  23548961.930    23548969.457    23548967.770    23548969.750   123750630.605    92411164.661    94821891.125    93616531.503          48.200          48.200          49.200          55.100  
E21  25855526.852    25855534.512    25855531.887    25855534.289   135871720.188   101462643.500   104109494.876   102786087.792          45.100          44.800          46.400          51.200  
E05  25229617.109    25229625.492    25229624.836    25229626.680   132582534.987    99006457.046   101589221.753   100297848.001          44.400          39.600          43.600          47.400  
E27  25019544.078    25019552.914    25019550.430    25019552.945   131478574.296    98182048.960   100743301.248    99462680.212          47.000          47.500          48.700          54.000  
C04  38458383.844    38458383.492   200262942.066   154855970.102          36.800          40.900  
C03  37447968.914    37447968.324   195001431.896   150787444.166          39.200          42.100  
C02  38915832.141    38915831.949   202645001.000   156697924.994          35.500          40.900  
C30  22754017.930                   118486126.459                          47.000                  
C29  21676035.906                   112872805.430                          48.500                  
C19  25943439.117                   135094315.835                          36.900                  
C20  22838748.031                   118927404.701                          48.000                  
C13  38324778.336    38324785.328   199567221.173   154318038.487          41.500          41.800  
> 2025 04 10 07 25  5.0000000  0 32
G17  21577305.039                    21577313.055   113389491.659                    88355482.373          45.900                          45.000  
G11  22147051.500                    22147059.039   116383605.292                    90688506.044          43.900                          47.600  
G20  23146178.773    23146187.098                   121634100.707    94779778.777                          41.600          28.100                  
G22  23703760.648    23703770.938                   124564036.900    97062954.031                          41.100          23.400                  
G19  19807816.508    19807820.520                   104090767.441    81109717.697                          47.600          42.200                  
G06  20628577.766                    20628587.578   108403933.013                    84470618.149          48.600                          48.400  
G09  22351525.039                    22351535.613   117458127.406                    91525802.983          43.000                          44.600  
G04  22848456.602                    22848465.719   120069476.439                    93560649.002          42.600                          43.100  
G12  22994393.984                    22994401.289   120836368.588                    94158226.886          43.300                          40.900  
R01  22229105.445    22229104.281                                   118827294.059   118827277.053                                          41.100          39.900                                  
R02  20073630.141    20073629.172    20073637.125    20073636.824   107116769.894   107116758.894    83313043.002    83313050.013          50.300          48.200          47.500          48.300  
R18  20486745.617    20486744.895    20486753.375    20486752.645   109359662.424   109359639.417    85057504.555    85057514.552          48.100          46.600          47.300          48.900  
R17  19838884.844    19838884.145    19838891.879    19838890.902   106161869.771   106161858.781    82570373.177    82570372.180          50.800          49.500          48.500          48.800  
R16  21953598.930    21953597.301    21953606.914    21953606.969   117272174.516   117272132.520    91211644.860    91211651.866          47.300          45.500          45.500          45.900  
R24  23129982.828    23129982.129    23129994.516    23129994.477   123686352.311   123686399.344    96200551.033    96200527.049          39.900          37.100          40.400          42.200  
R03  21599208.281    21599207.965    21599217.895    21599218.645   115622333.460   115622258.487    89928458.040    89928469.043          46.200          45.300          45.800          46.300  
R09  23214384.695    23214388.012    23214399.168    23214399.266   123963565.143   123963538.153    96416124.048    96416117.067          28.300          32.800          36.500          37.600  
E03  26099763.578    26099774.680    26099772.102    26099774.359   137155218.635   102421118.874   105092967.322   103757063.707          42.800          44.400          45.200          50.700  
E13  25197220.297    25197229.375    25197226.984    25197229.477   132412316.869    98879324.329   101458778.504   100169063.023          44.700          46.300          46.900          52.900  
E30  27775068.500    27775086.629    27775084.000    27775086.602   145958884.005   108995288.443   111838651.983   110416982.820          38.200          36.700          37.900          42.800  
E15  23548018.875    23548026.227    23548024.445    23548026.492   123745674.715    92407463.833    94818093.756    93612782.397          48.300          47.800          49.000          55.200  
E21  25853480.258    25853488.297    25853485.668    25853488.043   135860967.041   101454613.551   104101255.453   102777953.111          45.200          45.000          45.800          51.200  
E05  25228455.961    25228464.707    25228464.285    25228465.801   132576434.798    99001901.702   101584547.582   100293233.244          44.500          39.400          44.000          47.400  
E27  25020070.063    25020078.832    25020076.441    25020078.945   131481337.987    98184112.744   100745418.876    99464770.918          46.600          47.400          48.300          53.900  
C04  38457018.586    38457017.777   200255832.691   154850472.681          36.600          41.400  
C03  37446620.555    37446620.168   194994413.099   150782016.774          39.100          42.100  
C02  38914455.977    38914456.016   202637838.374   156692386.400          35.300          41.300  
C30  22754354.156                   118487876.071                          47.500                  
C29  21673791.945                   112861120.511                          48.600                  
C19  25938743.797                   135069865.886                          37.300                  
C20  22835388.445                   118909911.604                          47.900                  
C13  38322592.563    38322599.512   199555840.373   154309238.128          40.400          41.200  
> 2025 04 10 07 25 10.0000000  0 32
G17  21578014.570                    21578022.828   113393220.528                    88358387.972          46.000                          45.700  
G11  22143789.586                    22143797.379   116366465.569                    90675150.428          43.000                          47.700  
G20  23141906.063    23141915.590                   121611649.719    94762284.543                          41.100          26.500                  
G22  23705576.336    23705586.453                   124573581.019    97070390.970                          41.900          22.300                  
G19  19807146.367    19807150.684                   104087245.931    81106973.661                          48.200          42.300                  
G06  20626855.930                    20626865.320   108394882.448                    84463565.779          49.100                          48.700  
G09  22348218.555                    22348228.902   117440752.698                    91512264.270          42.800                          44.700  
G04  22846756.617                    22846766.336   120060545.999                    93553690.195          41.300                          43.400  
G12  22991852.375                    22991859.559   120823014.621                    94147821.200          43.900                          40.500  
R01  22230787.148    22230785.633                                   118836283.056   118836266.059                                          41.200          40.500                                  
R02  20071853.758    20071852.906    20071860.855    20071860.988   107107287.771   107107276.765    83305668.021    83305675.023          50.100          48.700          47.300          47.100  
R18  20483650.664    20483649.238    20483657.438    20483656.688   109343139.450   109343116.450    85044653.339    85044663.336          48.000          46.600          47.700          49.400  
R17  19838201.352    19838200.535    19838208.223    19838208.051   106158212.388   106158201.392    82567528.547    82567527.558          50.200          49.700          48.900          49.600  
R16  21954134.016    21954133.559    21954143.504    21954143.645   117275039.005   117274996.988    91213872.800    91213879.803          45.800          44.600          45.300          46.500  
R24  23131334.625    23131333.457    23131347.938    23131347.254   123693589.912   123693636.936    96206180.267    96206156.271          37.800          35.600          41.500          42.500  
R03  21594152.555    21594151.414    21594161.531    21594162.102   115595266.905   115595191.910    89907406.287    89907417.292          46.800          45.800          45.800          45.800  
R09  23211708.688    23211706.020    23211716.848    23211717.082   123949240.791   123949213.811    96404982.873    96404975.878          34.600          34.700          35.600          37.500  
E03  26096445.828    26096455.848    26096453.363    26096455.953   137137780.946   102408097.258   105079606.001   103743872.237          43.400          43.800          45.200          50.100  
E13  25194406.703    25194415.730    25194413.387    25194415.797   132397530.735    98868282.755   101447448.895   100157877.436          45.100          46.500          47.300          52.900  
E30  27776759.617    27776778.457    27776775.551    27776778.297   145967773.285   109001926.353   111845463.057   110423707.312          39.500          37.400          39.100          44.000  
E15  23547076.344    23547083.813    23547082.031    23547084.207   123740722.481    92403765.734    94814299.177    93609036.065          48.900          48.300          48.800          55.200  
E21  25851436.297    25851444.266    25851441.359    25851444.027   135850225.543   101446592.291   104093024.946   102769827.227          45.300          43.600          45.100          50.600  
E05  25227297.555    25227306.730    25227305.699    25227307.547   132570346.411    98997355.121   101579882.416   100288627.374          45.000          39.700          43.500          47.400  
E27  25020597.773    25020605.934    25020604.340    25020606.484   131484110.790    98186183.349   100747543.492    99466868.527          46.800          47.000          48.200          53.600  
C04  38455653.078    38455652.641   200248723.352   154844975.296          36.100          40.700  
C03  37445272.727    37445272.832   194987394.244   150776589.370          38.500          42.700  
C02  38913080.859    38913080.613   202630675.659   156686847.732          35.500          39.600  
C30  22754691.234                   118489632.084                          47.200                  
C29  21671549.109                   112849442.168                          48.500                  
C19  25934048.156                   135045417.212                          38.600                  
C20  22832031.328                   118892429.810                          48.200                  
C13  38320408.172    38320414.641   199544462.366   154300439.921          41.800          41.700  
> 2025 04 10 07 25 15.0000000  0 32
G17  21578725.680                    21578734.031   113396958.624                    88361300.770          45.900                          45.800  
G11  22140528.883                    22140536.547   116349330.592                    90661798.509          43.700                          46.800  
G20  23137634.797    23137643.688                   121589204.603    94744794.869                          40.600          25.700                  
G22  23707393.656    23707403.445                   124583127.722    97077829.879                          41.700          23.600                  
G19  19806479.008    19806483.434                   104083738.607    81104240.685                          48.700          42.600                  
G06  20625134.930                    20625144.207   108385838.851                    84456518.813          48.500                          48.300  
G09  22344914.820                    22344925.105   117423389.472                    91498734.475          43.500                          45.100  
G04  22845059.445                    22845070.293   120051630.737                    93546743.258          40.100                          43.800  
G12  22989313.688                    22989321.590   120809676.652                    94137427.984          43.000                          39.900  
R01  22232471.352    22232470.773                                   118845286.478   118845269.479                                          41.900          40.800                                  
R02  20070080.977    20070079.539    20070087.859    20070088.125   107097828.285   107097817.294    83298310.655    83298317.658          50.200          48.800          47.600          48.100  
R18  20480556.227    20480555.387    20480563.469    20480562.961   109326621.335   109326598.343    85031805.932    85031815.936          48.400          46.200          48.600          48.400  
R17  19837519.297    19837517.891    19837526.395    19837525.602   106154563.450   106154552.463    82564690.477    82564689.479          50.700          49.000          49.000          49.600  
R16  21954674.625    21954673.582    21954683.008    21954682.840   117277921.132   117277879.122    91216114.418    91216121.422          46.600          45.300          45.600          46.600  
R24  23132689.586    23132689.824    23132702.637    23132702.039   123700831.295   123700878.288    96211812.432    96211788.439          41.600          39.100          40.700          41.700  
R03  21589097.828    21589097.273    21589107.723    21589107.676   115568209.459   115568134.463    89886361.632    89886372.636          46.300          45.000          46.600          47.300  
R09  23209030.039    23209026.898    23209037.367    23209036.945   123934935.608   123934908.589    96393856.551    96393849.525          36.800          33.200          34.600          35.000  
E03  26093128.914    26093139.063    26093135.871    26093139.141   137120350.224   102395080.832   105066250.005   103730686.026          43.600          43.400          44.600          49.700  
E13  25191593.820    25191602.605    25191599.980    25191602.488   132382747.184    98857243.104   101436121.248   100146693.785          44.700          46.900          47.500          53.000  
E30  27778450.984    27778470.383    27778467.055    27778469.824   145976662.116   109008564.015   111852273.890   110430431.563          37.500          36.700          37.200          41.900  
E15  23546134.859    23546141.902    23546140.168    23546142.305   123735773.644    92400070.186    94810507.222    93605292.310          49.000          48.000          48.800          54.900  
E21  25849393.961    25849401.977    25849399.727    25849402.133   135839495.468   101438579.575   104084803.203   102761710.000          44.000          44.500          45.900          51.000  
E05  25226141.063    25226150.535    25226149.035    25226150.863   132564269.635    98992817.319   101575226.211   100284030.373          44.700          40.400          43.700          47.500  
E27  25021127.102    25021135.410    25021133.676    25021135.809   131486892.439    98188260.522   100749674.852    99468972.795          47.700          47.000          48.500          53.700  
C04  38454287.906    38454287.520   200241613.894   154839477.800          35.900          41.000  
C03  37443924.609    37443924.535   194980375.150   150771161.757          38.800          42.800  
C02  38911705.070    38911705.102   202623512.573   156681308.768          35.000          39.900  
C30  22755029.648                   118491394.317                          47.300                  
C29  21669308.102                   112837770.208                          49.100                  
C19  25929353.031                   135020969.623                          37.900                  
C20  22828676.219                   118874959.088                          48.300                  
C13  38318223.445    38318230.195   199533086.961   154291643.756          41.700          40.900  
> 2025 04 10 07 25 20.0000000  0 31
G17  21579439.258                    21579447.289   113400706.737                    88364221.371          45.300                          45.400  
G11  22137269.313                    22137276.867   116332201.190                    90648450.913          44.200                          46.600  
G20  23133364.773    23133373.594                   121566766.033    94727310.295                          40.200          26.100                  
G22  23709210.039    23709220.805                   124592677.699    97085271.388                          41.200          22.500                  
G19  19805814.211    19805818.465                   104080246.184    81101519.313                          47.900          42.200                  
G06  20623415.938                    20623425.008   108376802.912                    84449477.813          49.100                          48.000  
G09  22341612.195                    22341622.699   117406038.406                    91485214.183          42.300                          46.000  
G04  22843366.141                    22843376.457   120042731.292                    93539808.639          41.000                          43.100  
G12  22986778.289                    22986786.652   120796355.537                    94127047.870          41.800                          40.600  
R01  22234159.250    22234157.852                                   118854304.904   118854287.908                                          42.200          40.400                                  
R02  20068312.586    20068311.617    20068319.676    20068319.746   107088392.157   107088381.171    83290971.452    83290978.463          49.800          48.300          48.000          48.100  
R18  20477462.797    20477462.074    20477470.207    20477469.777   109310108.919   109310085.912    85018962.949    85018972.953          48.100          46.700          48.700          49.000  
R17  19836838.906    19836837.973    19836846.273    19836845.504   106150923.681   106150912.685    82561859.550    82561858.553          50.500          48.800          49.000          49.700  
R16  21955217.594    21955217.371    21955225.668    21955226.391   117280821.615   117280779.628    91218370.362    91218377.366          46.900          45.700          45.900          47.200  
R24  23134044.211    23134043.043    23134057.246    23134057.023   123708077.148   123708124.143    96217447.965    96217423.969          38.800          36.600          40.900          41.300  
R03  21584045.523    21584044.852    21584055.527    21584055.172   115541162.268   115541087.272    89865324.974    89865335.984          45.600          44.300          46.000          46.500  
E03  26089813.219    26089823.313    26089820.219    26089823.465   137102927.214   102382070.147   105052899.912   103717505.638          43.300          43.200          44.500          49.600  
E13  25188780.875    25188790.063    25188787.813    25188790.094   132367967.056    98846205.992   101424796.219   100135512.713          44.900          46.300          47.600          53.000  
E30  27780143.289    27780161.633    27780158.867    27780161.438   145985551.463   109015201.991   111859085.052   110437156.128          39.100          36.800          38.100          42.700  
E15  23545193.859    23545201.219    23545199.016    23545201.383   123730828.968    92396377.722    94806718.441    93601551.692          49.200          48.200          48.700          55.100  
E21  25847354.758    25847362.344    25847359.902    25847362.492   135828777.491   101430575.881   104076590.724   102753601.908          44.600          45.000          45.600          51.200  
E05  25224986.625    25224996.313    25224995.188    25224996.566   132558205.174    98988288.674   101570579.383   100279442.635          44.100          39.500          43.700          47.100  
E27  25021658.250    25021666.586    25021664.895    25021667.074   131489683.626    98190344.854   100751813.558    99471084.315          46.800          46.400          48.300          53.500  
C04  38452922.000    38452921.922   200234504.905   154833980.685          36.300          40.900  
C03  37442576.758    37442576.809   194973356.516   150765734.497          39.000          42.100  
C02  38910330.063    38910330.059   202616349.851   156675770.122          34.800          40.700  
C30  22755369.602                   118493163.495                          47.300                  
C29  21667067.578                   112826105.336                          49.500                  
C19  25924658.805                   134996523.771                          38.000                  
C20  22825323.477                   118857500.182                          48.200                  
C13  38316039.461    38316045.773   199521714.944   154282850.190          41.000          41.000  
> 2025 04 10 07 25 25.0000000  0 32
G17  21580154.102                    21580162.332   113404464.995                    88367149.877          45.100                          45.400  
G11  22134011.633                    22134018.641   116315077.467                    90635107.760          44.500                          47.300  
G20  23129096.086    23129105.160                   121544334.228    94709831.006                          41.100          25.900                  
G22  23711028.102    23711038.938                   124602231.101    97092715.523                          41.800          24.100                  
G19  19805152.898    19805157.066                   104076768.886    81098809.723                          48.300          42.300                  
G06  20621697.555                    20621707.188   108367774.856                    84442442.967          48.900                          49.100  
G09  22338312.250                    22338323.195   117388699.787                    91471703.596          42.200                          44.800  
G04  22841676.875                    22841686.105   120033847.904                    93532886.507          41.800                          43.600  
G12  22984247.305                    22984254.531   120783051.380                    94116680.996          42.200                          41.300  
R01  22235848.117    22235847.656                                   118863338.463   118863321.461                                          43.000          41.500                                  
R02  20066549.469    20066547.328    20066555.805    20066555.375   107078979.714   107078968.707    83283650.670    83283657.680          51.500          49.500          48.200          48.200  
R18  20474370.328    20474370.074    20474378.191    20474378.336   109293602.330   109293579.360    85006124.496    85006134.501          46.800          46.600          47.800          49.500  
R17  19836160.109    19836159.293    19836167.414    19836167.125   106147293.317   106147282.321    82559035.927    82559034.929          50.500          49.100          49.200          49.800  
R16  21955762.859    21955762.637    21955771.805    21955772.176   117283740.469   117283698.467    91220640.564    91220647.568          47.600          46.200          46.600          47.200  
R24  23135401.031    23135399.039    23135412.781    23135412.688   123715327.789   123715374.815    96223087.313    96223063.317          42.000          39.500          40.500          40.700  
R03  21578994.586    21578994.387    21579005.254    21579005.355   115514125.059   115514050.085    89844296.042    89844307.045          45.400          45.100          46.400          47.300  
R09  23203683.492    23203680.707    23203691.309    23203690.883   123906384.589   123906357.602    96371650.226    96371643.258          36.700          34.200          36.700          38.300  
E03  26086499.555    26086509.141    26086506.141    26086509.445   137085512.076   102369065.364   105039555.865   103704331.221          44.600          43.600          45.200          50.100  
E13  25185969.063    25185977.930    25185975.863    25185977.969   132353190.425    98835171.498   101413473.861   100124334.287          45.300          46.900          47.600          53.100  
E30  27781835.156    27781853.746    27781850.602    27781853.340   145994441.234   109021840.349   111865896.595   110443881.081          39.600          36.900          38.400          42.800  
E15  23544253.820    23544261.020    23544258.863    23544261.281   123725888.631    92392688.514    94802932.991    93597814.358          49.500          47.900          48.800          55.100  
E21  25845317.555    25845325.168    25845322.730    25845325.398   135818071.865   101422581.415   104068387.702   102745503.168          45.100          44.700          45.900          51.400  
E05  25223835.242    25223844.984    25223843.203    25223845.000   132552153.198    98983769.334   101565942.177   100274864.359          44.100          39.800          42.600          46.800  
E27  25022191.828    25022199.707    25022198.113    25022200.156   131492484.612    98192436.485   100753959.758    99473203.226          47.100          46.800          48.000          53.800  
C04  38451557.930    38451557.367   200227396.693   154828484.136          36.500          41.700  
C03  37441229.211    37441228.762   194966338.535   150760307.760          39.000          42.200  
C02  38908954.789    38908954.148   202609187.680   156670231.879          35.900          40.800  
C30  22755710.836                   118494939.820                          47.300                  
C29  21664828.844                   112814447.783                          49.500                  
C19  25919964.008                   134972079.848                          37.100                  
C20  22821972.555                   118840053.241                          48.100                  
C13  38313856.578    38313862.988   199510346.475   154274059.368          41.800          40.800  
> 2025 04 10 07 25 30.0000000  0 32
G17  21580871.258                    21580879.188   113408232.949                    88370085.946          45.800                          45.000  
G11  22130753.805                    22130761.184   116297958.885                    90621768.613          44.600                          46.900  
G20  23124829.070    23124837.352                   121521908.671    94692356.563                          41.400          27.400                  
G22  23712846.781    23712857.621                   124611787.455    97100161.977                          41.700          25.500                  
G19  19804494.258    19804498.262                   104073306.123    81096111.472                          48.800          42.900                  
G06  20619981.297                    20619990.418   108358754.072                    84435413.792          49.100                          48.000  
G09  22335015.250                    22335025.945   117371372.938                    91458202.140          41.800                          45.500  
G04  22839988.375                    22839998.422   120024979.977                    93525976.415          41.800                          44.100  
G12  22981718.594                    22981726.633   120769763.709                    94106326.953          41.800                          40.600  
R01  22237541.031    22237541.039                                   118872386.737   118872369.758                                          42.700          40.800                                  
R02  20064789.234    20064788.383    20064796.727    20064796.344   107069590.219   107069579.219    83276347.744    83276354.747          51.200          49.400          47.500          48.600  
R18  20471279.102    20471278.496    20471286.578    20471285.863   109277101.001   109277077.987    84993290.135    84993300.131          47.700          47.100          47.700          49.400  
R17  19835484.133    19835482.609    19835490.664    19835490.527   106143671.729   106143660.739    82556219.140    82556218.143          50.300          49.100          48.600          49.400  
R16  21956313.453    21956313.230    21956322.715    21956322.695   117286677.421   117286635.410    91222924.856    91222931.854          46.000          44.700          46.400          47.200  
R24  23136758.695    23136756.234    23136769.539    23136770.566   123722582.472   123722629.475    96228729.879    96228705.873          41.100          39.000          39.200          40.400  
R03  21573945.008    21573944.574    21573955.637    21573955.605   115487097.512   115487022.539    89823274.640    89823285.650          45.100          43.700          46.600          47.600  
R09  23201016.938    23201012.625    23201021.895    23201021.793   123892138.450   123892111.400    96360569.890    96360562.862          36.900          33.400          35.600          37.100  
E03  26083186.641    26083195.984    26083194.016    26083196.891   137068104.240   102356066.007   105026217.413   103691162.316          44.600          43.600          45.300          50.600  
E13  25183157.477    25183166.699    25183164.543    25183166.605   132338416.773    98824139.237   101402153.804   100113158.125          44.900          46.000          47.300          52.700  
E30  27783526.703    27783545.746    27783542.277    27783545.211   146003331.167   109028478.769   111872708.208   110450606.098          39.900          38.600          38.900          44.000  
E15  23543314.258    23543321.668    23543319.559    23543321.945   123720952.028    92389002.085    94799150.396    93594079.848          48.800          48.200          49.100          55.300  
E21  25843282.617    25843289.949    25843288.027    25843290.398   135807378.026   101414595.772   104060193.729   102737413.360          45.000          45.000          46.000          51.200  
E05  25222686.055    25222695.855    25222694.027    25222695.668   132546113.178    98979258.932   101561314.119   100270295.133          43.500          40.200          42.800          47.400  
E27  25022726.219    25022734.379    25022732.504    25022734.805   131495294.775    98194534.976   100756112.992    99475329.088          46.500          47.600          48.400          54.000  
C04  38450192.656    38450192.395   200220288.567   154822987.696          36.900          40.400  
C03  37439880.844    37439880.875   194959320.659   150754881.103          38.800          42.000  
C02  38907579.133    38907578.391   202602025.555   156664693.666          35.200          40.300  
C30  22756053.086                   118496722.665                          46.800                  
C29  21662591.367                   112802796.925                          49.200                  
C19  25915270.375                   134947637.401                          39.600                  
C20  22818624.211                   118822617.796                          47.900                  
C13  38311673.719    38311680.180   199498980.955   154265270.861          41.900          41.000  
> 2025 04 10 07 25 35.0000000  0 32
G17  21581590.914                    21581598.172   113412010.614                    88373029.565          46.700                          44.900  
G11  22127496.672                    22127504.180   116280845.621                    90608433.608          44.500                          46.600  
G20  23120562.125    23120571.582                   121499489.464    94674887.072                          40.800          27.000                  
G22  23714665.953    23714677.043                   124621346.791    97107610.758                          41.800          24.300                  
G19  19803837.703    19803841.750                   104069858.108    81093424.689                          48.800          42.500                  
G06  20618265.844                    20618274.770   108349740.769                    84428390.436          49.300                          48.100  
G09  22331721.180                    22331731.488   117354058.176                    91444710.139          43.200                          46.100  
G04  22838304.641                    22838313.926   120016127.715                    93519078.562          42.300                          44.600  
G12  22979193.969                    22979200.668   120756492.544                    94095985.788          41.800                          41.300  
R01  22239236.391    22239235.930                                   118881449.683   118881432.694                                          42.200          40.600                                  
R02  20063034.195    20063032.641    20063040.695    20063040.160   107060223.955   107060212.956    83269062.873    83269069.891          51.300          49.400          47.600          48.100  
R18  20468188.961    20468187.770    20468196.078    20468195.563   109260605.126   109260582.134    84980460.020    84980470.016          47.900          45.500          47.400          48.800  
R17  19834808.148    19834807.684    19834814.922    19834814.777   106140059.172   106140048.190    82553409.367    82553408.363          50.800          49.500          48.200          49.000  
R16  21956866.336    21956865.645    21956875.594    21956875.441   117289632.266   117289590.272    91225223.063    91225230.067          46.100          44.700          46.000          47.000  
R24  23138115.047    23138114.230    23138127.813    23138127.977   123729841.470   123729888.490    96234375.685    96234351.674          40.900          38.600          39.300          40.600  
R03  21568898.070    21568897.047    21568908.594    21568909.031   115460079.733   115460004.738    89802260.846    89802271.856          44.800          43.900          47.400          47.700  
R09  23198349.586    23198350.906    23198358.121    23198358.395   123877911.925   123877884.897    96349504.912    96349497.905          33.200          34.700          36.900          38.000  
E03  26079875.117    26079884.895    26079882.875    26079885.797   137050703.948   102343072.287   105012884.720   103677999.108          43.800          43.600          44.800          50.100  
E13  25180346.883    25180355.965    25180353.715    25180355.992   132323646.250    98813109.299   101390836.116   100101984.316          44.600          46.400          47.100          52.800  
E30  27785218.797    27785237.352    27785234.258    27785237.000   146012221.169   109035117.259   111879519.899   110457331.186          39.900          37.800          38.500          43.500  
E15  23542375.633    23542383.211    23542380.867    23542383.320   123716019.377    92385318.613    94795370.823    93590348.325          48.900          47.500          49.100          55.100  
E21  25841250.047    25841256.879    25841255.000    25841257.563   135796696.101   101406618.997   104052008.869   102729332.541          45.400          44.600          45.100          51.000  
E05  25221538.688    25221548.844    25221547.105    25221548.758   132540085.244    98974757.587   101556695.346   100265735.068          42.400          41.200          42.800          47.800  
E27  25023262.688    25023271.031    25023269.203    25023271.281   131498114.267    98196640.432   100758273.379    99477462.014          46.500          46.500          47.600          53.300  
C04  38448828.086    38448826.891   200213180.802   154817491.527          36.600          40.500  
C03  37438533.938    37438533.566   194952303.055   150749454.644          38.700          41.700  
C02  38906203.484    38906203.660   202594863.563   156659155.542          34.400          40.800  
C30  22756396.711                   118498512.235                          47.200                  
C29  21660355.516                   112791153.009                          49.600                  
C19  25910576.320                   134923196.482                          40.200                  
C20  22815278.273                   118805193.970                          47.600                  
C13  38309491.438    38309498.613   199487618.521   154256484.724          41.300          40.900  
> 2025 04 10 07 25 40.0000000  0 32
G17  21582311.281                    21582318.672   113415796.851                    88375979.895          46.700                          44.500  
G11  22124240.734                    22124248.699   116263736.498                    90595101.828          44.400                          46.700  
G20  23116297.141    23116306.320                   121477075.516    94657421.678                          41.900          27.800                  
G22  23716484.805    23716495.605                   124630907.937    97115060.955                          41.300          23.200                  
G19  19803184.109    19803188.414                   104066423.643    81090748.483                          47.700          42.100                  
G06  20616552.148                    20616561.223   108340733.730                    84421371.966          48.800                          48.800  
G09  22328428.648                    22328438.859   117336754.256                    91431226.575          43.000                          45.300  
G04  22836622.758                    22836631.820   120007289.889                    93512191.930          42.000                          44.000  
G12  22976670.789                    22976679.012   120743236.812                    94085656.634          42.400                          41.400  
R01  22240934.391    22240933.461                                   118890526.216   118890509.205                                          42.700          40.400                                  
R02  20061283.016    20061282.281    20061289.785    20061290.230   107050879.543   107050868.536    83261795.010    83261802.020          52.200          49.800          47.800          47.800  
R18  20465098.516    20465098.262    20465106.125    20465106.117   109244113.460   109244090.446    84967633.160    84967643.172          47.200          46.200          47.600          48.300  
R17  19834134.789    19834134.090    19834141.789    19834141.633   106136454.378   106136443.388    82550605.644    82550604.640          50.400          49.100          48.900          49.000  
R16  21957422.906    21957422.332    21957431.746    21957431.617   117292603.939   117292561.950    91227534.351    91227541.353          46.500          45.000          45.300          46.200  
R24  23139473.922    23139472.047    23139486.324    23139485.762   123737103.560   123737150.589    96240023.972    96239999.976          41.100          39.700          38.300          40.300  
R03  21563851.922    21563851.840    21563862.871    21563863.418   115433070.665   115432995.678    89781253.832    89781264.843          46.400          44.700          46.800          47.900  
R09  23195692.094    23195687.664    23195698.160    23195697.773   123863703.716   123863676.731    96338454.068    96338447.092          36.400          33.700          37.100          38.700  
E03  26076565.516    26076575.098    26076573.313    26076575.934   137033309.946   102330083.277   104999556.861   103664840.677          43.900          43.300          44.900          49.700  
E13  25177536.531    25177545.340    25177543.418    25177545.563   132308877.671    98802080.823   101379519.938   100090811.988          44.000          45.600          47.500          52.300  
E30  27786910.664    27786928.992    27786925.805    27786928.559   146021110.171   109041755.025   111886330.836   110464055.540          39.900          38.000          38.700          43.500  
E15  23541437.531    23541444.664    23541442.742    23541445.000   123711089.447    92381637.172    94791593.348    93586618.866          48.700          48.200          48.600          55.100  
E21  25839219.078    25839226.195    25839224.367    25839226.832   135786024.938   101398650.260   104043832.252   102721259.861          45.600          44.500          45.900          51.200  
E05  25220393.961    25220404.223    25220401.785    25220403.668   132534068.241    98970264.354   101552084.896   100261183.234          42.600          41.900          43.600          48.300  
E27  25023800.898    25023809.316    25023807.254    25023809.543   131500941.884    98198751.943   100760439.984    99479601.072          46.000          47.100          48.300          53.800  
C04  38447462.031    38447461.672   200206072.200   154811994.702          36.000          40.600  
C03  37437185.758    37437186.176   194945284.554   150744027.502          38.900          41.800  
C02  38904827.680    38904827.715   202587700.541   156653616.657          35.300          40.400  
C30  22756741.531                   118500307.354                          47.200                  
C29  21658120.320                   112779514.816                          49.100                  
C19  25905882.664                   134898756.035                          40.400                  
C20  22811934.352                   118787780.552                          47.900                  
C13  38307310.055    38307317.164   199476258.224   154247700.234          41.600          40.400  
