     3.04           OBSERVATION DATA    M (MIXED)           RINEX VERSION / TYPE
BLANK OR G = GPS, R = GLONASS, C = BDS, E = GAL, J = QZSS, M = MIXEDCOMMENT             
HGO                 HITARGET            20250511 081820 UTC PGM / RUN BY / DATE 
3333                                                        MARKER NAME         
                                                            MARKER NUMBER       
whoever             HITARGET                                OBSERVER / AGENCY   
10020541            iRTK2                                   REC # / TYPE / VERS 
1                   HITIRTK2-2                              ANT # / TYPE        
 -2623864.5572  3976998.0927  4226091.6081                  APPROX POSITION XYZ 
------------------------------------------------------------COMMENT             
*** Antenna height is from mark to ANTENNA Phase Center.    COMMENT             
------------------------------------------------------------COMMENT             
        1.5097        0.0000        0.0000                  ANTENNA: DELTA H/E/N
G    9 C1C C2W C2X L1C L2W L2X S1C S2W S2X                  SYS / # / OBS TYPES 
R   12 C1C C1P C2P C2C L1C L1P L2P L2C S1C S1P S2P S2C      SYS / # / OBS TYPES 
E   12 C1X C5X C7X C8X L1X L5X L7X L8X S1X S5X S7X S8X      SYS / # / OBS TYPES 
C    6 C2I C7I L2I L7I S2I S7I                              SYS / # / OBS TYPES 
     5.000                                                  INTERVAL            
  2025     4    10     6    33   30.0000000     GPS         TIME OF FIRST OBS   
  2025     4    10     7    40   50.0000000     GPS         TIME OF LAST OBS    
     0                                                      RCV CLOCK OFFS APPL 
    18                                                      LEAP SECONDS        
                                                            END OF HEADER       
> 2025 04 10 06 33 30.0000000  0 32
G11  23464944.063                    23464953.211   123309114.637                    96085057.779          41.000                          43.500  
G17  20621716.750                    20621722.957   108367848.235                    84442502.274          47.000                          47.000  
G22  21900216.758    21900224.070                   115086410.771    89677747.794                          45.100          34.000                  
G03  22195925.195                    22195934.566   116640366.832                    90888637.346          42.200                          43.700  
G06  21087237.133                    21087246.637   110814179.213                    86348752.168          47.500                          47.500  
G19  19846587.602    19846591.113                   104294519.956    81268471.316                          47.200          41.700                  
G04  23532336.109                    23532348.418   123663269.128                    96361043.949          38.600                          42.400  
G14  22771472.039                    22771482.777   119664882.433                    93245384.071          41.700                          44.000  
G12  24224937.445                    24224947.328   127302914.729                    99197107.219          36.200                          35.400  
G09  23847253.773                    23847269.953   125318202.949                    97650588.026          40.900                          42.400  
R01  20954601.148    20954600.922                                   112014524.008   112014339.004                                          45.300          43.200                                  
R02  21060913.367    21060911.695    21060921.438    21060921.355   112385074.853   112385061.840    87410602.594    87410608.598          47.200          45.800          46.100          45.700  
R18  21683056.477    21683055.637    21683064.922    21683064.250   115745631.959   115745624.979    90024376.813    90024381.809          44.200          42.000          45.900          46.200  
R15  21361429.305    21361429.891    21361439.832    21361439.844   114148846.883   114148989.891    88782541.717    88782546.727          45.600          44.100          45.400          45.800  
R16  21475256.500    21475255.223    21475262.586    21475262.727   114717123.151   114716946.149    89224288.974    89224294.962          47.000          44.700          46.200          47.300  
R17  19678446.398    19678444.406    19678451.863    19678451.738   105303331.327   105303323.319    81902586.910    81902590.912          50.800          49.600          49.200          49.800  
R24  21563953.391    21563951.750    21563960.344    21563959.586   115312155.419   115312124.429    89687208.398    89687214.395          47.200          44.800          45.000          45.300  
E13  26174791.805    26174802.137    26174799.934    26174802.621   137549462.039   102715493.038   105395027.192   104055249.224          42.600          43.200          45.500          50.200  
E15  23403862.750    23403871.016    23403869.094    23403871.504   122988129.536    91841812.089    94237676.730    93039769.018          48.400          48.800          50.300          55.400  
E21  26635289.531    26635298.934    26635296.543    26635298.387   139969388.858   104522631.500   107249297.971   105885973.347          42.100          42.600          43.100          48.200  
E27  24194262.195    24194270.289    24194268.133    24194270.629   127141703.853    94943464.366    97420250.817    96181851.199          47.700          48.200          49.300          54.900  
E30  25912772.523    25912783.785    25912781.770    25912783.895   136172531.920   101687312.193   104340013.272   103013677.845          44.900          45.400          46.800          52.000  
E05  25488274.055    25488287.641    25488284.449    25488286.777   133941791.477   100021465.667   102630721.619   101326072.251          41.100          44.200          43.300          49.400  
C20  24384755.883                   126977834.292                          43.000                  
C13  38905302.773    38905312.461   202590125.391   156655520.146          40.500          40.600  
C04  38428315.547    38428316.484   200106331.448   154734904.987          35.800          41.800  
C03  37405154.102    37405154.551   194778452.159   150615053.123          39.200          41.800  
C02  38885960.508    38885962.543   202489494.391   156577654.706          34.800          41.100  
C01  37960455.211    37960456.805   197670050.346   152851024.181          38.700          41.800  
C30  21905838.109                   114069444.839                          49.000                  
C29  22397330.711                   116628776.641                          47.700                  
C27  25345009.117                   131978102.641                          41.100                  
> 2025 04 10 06 33 35.0000000  0 32
G11  23461792.648                    23461801.898   123292556.888                    96072155.663          41.900                          43.200  
G17  20621922.406                    20621928.430   108368928.531                    84443344.057          47.300                          47.000  
G22  21901913.695    21901920.402                   115095328.645    89684696.769                          45.200          34.000                  
G03  22198070.273                    22198080.426   116651642.336                    90897423.444          41.700                          43.700  
G06  21085299.148                    21085308.977   110803995.173                    86340816.552          47.000                          47.500  
G19  19845028.758    19845032.527                   104286329.125    81262088.845                          47.200          42.400                  
G04  23529772.125                    23529783.508   123649792.287                    96350542.588          39.000                          41.100  
G14  22774195.609                    22774206.422   119679195.220                    93256536.835          41.700                          43.600  
G12  24221462.242                    24221469.289   127284638.149                    99182865.716          37.600                          35.500  
G09  23843731.406                    23843747.934   125299693.615                    97636165.296          42.300                          41.100  
R01  20954715.000    20954714.422                                   112015133.235   112014948.240                                          44.300          43.400                                  
R02  21057483.906    21057482.703    21057491.895    21057492.324   112366773.442   112366760.444    87396368.203    87396374.207          47.800          45.500          46.000          46.400  
R18  21680151.500    21680150.777    21680160.418    21680159.922   115730125.285   115730118.304    90012316.070    90012321.073          43.300          42.300          46.100          46.400  
R15  21363626.875    21363626.051    21363635.895    21363635.676   114160582.155   114160725.142    88791669.116    88791674.135          45.200          44.100          45.400          45.800  
R16  21474012.906    21474011.629    21474019.598    21474019.883   114710480.973   114710303.993    89219122.825    89219128.821          47.500          44.700          47.300          47.700  
R17  19677506.508    19677505.340    19677512.348    19677511.805   105298304.044   105298296.043    81898676.823    81898680.827          51.200          49.400          49.700          50.100  
R24  21565485.852    21565484.566    21565492.926    21565493.031   115320352.847   115320321.863    89693584.169    89693590.179          46.400          44.700          45.500          46.200  
E13  26172266.914    26172277.656    26172275.219    26172278.324   137536196.047   102705586.633   105384862.354   104045213.602          42.300          43.700          45.200          50.100  
E15  23403074.719    23403082.785    23403080.910    23403083.176   122983987.001    91838718.637    94234502.570    93036635.214          48.500          48.900          50.200          55.400  
E21  26632707.523    26632716.770    26632714.047    26632716.250   139955819.226   104512498.319   107238900.448   105875707.991          42.100          42.200          43.000          48.000  
E27  24194180.492    24194188.262    24194186.293    24194188.688   127141274.542    94943143.775    97419921.856    96181526.423          47.700          48.000          49.400          54.900  
E30  25914827.320    25914838.879    25914836.676    25914838.871   136183330.590   101695376.119   104348287.555   103021846.942          44.400          45.300          47.000          51.800  
E05  25486467.258    25486479.902    25486477.418    25486479.547   133932294.213   100014373.560   102623444.496   101318887.636          41.400          42.900          44.500          49.300  
C20  24381063.734                   126958607.896                          43.800                  
C13  38903439.211    38903448.371   202580420.924   156648016.050          41.100          40.800  
C04  38427604.117    38427604.805   200102625.754   154732039.524          35.900          41.100  
C03  37404466.313    37404466.754   194774870.040   150612283.198          39.200          42.300  
C02  38885258.891    38885260.148   202485839.216   156574828.273          34.100          42.000  
C01  37959774.227    37959775.996   197666505.805   152848283.311          38.300          42.100  
C30  21906080.633                   114070705.880                          49.100                  
C29  22395114.930                   116617240.922                          47.600                  
C27  25346756.922                   131987205.045                          40.000                  
> 2025 04 10 06 33 40.0000000  0 32
G11  23458644.273                    23458653.156   123276009.465                    96059261.585          42.600                          43.400  
G17  20622131.250                    20622137.016   108370024.668                    84444198.191          47.100                          46.900  
G22  21903614.063    21903620.680                   115104262.780    89691658.424                          45.300          33.400                  
G03  22200219.359                    22200229.434   116662933.854                    90906222.003          41.800                          43.900  
G06  21083363.961                    21083373.324   110793824.924                    86332891.693          47.000                          47.600  
G19  19843473.664    19843477.441                   104278155.637    81255719.888                          47.400          41.300                  
G04  23527210.164                    23527222.082   123636331.268                    96340053.457          38.400                          41.300  
G14  22776921.094                    22776931.961   119693519.011                    93267698.201          42.000                          43.400  
G12  24217985.648                    24217994.023   127266377.892                    99168636.985          37.600                          35.500  
G09  23840211.313                    23840227.023   125281193.341                    97621749.633          40.400                          40.900  
R01  20954835.813    20954833.945                                   112015771.224   112015586.258                                          45.900          43.700                                  
R02  21054058.656    21054056.281    21054065.363    21054066.223   112348493.646   112348480.634    87382150.599    87382156.603          48.100          45.800          45.600          45.500  
R18  21677249.773    21677247.762    21677257.270    21677256.719   115714628.201   115714621.199    90000262.781    90000267.792          43.800          42.000          46.100          45.700  
R15  21365827.500    21365827.027    21365835.746    21365835.895   114172337.717   114172480.739    88800812.305    88800817.309          46.400          44.700          45.900          46.700  
R16  21472773.867    21472773.293    21472781.465    21472781.520   114703867.218   114703690.201    89213978.791    89213984.801          45.300          45.300          46.300          47.500  
R17  19676568.766    19676567.008    19676574.512    19676573.988   105293290.259   105293282.265    81894777.212    81894781.217          51.000          49.200          49.200          50.200  
R24  21567019.484    21567019.488    21567028.379    21567028.273   115328560.832   115328529.833    89699968.148    89699974.159          45.300          43.800          45.800          46.200  
E13  26169744.625    26169754.688    26169752.203    26169755.438   137522939.549   102695687.314   105374704.780   104035185.156          43.000          43.300          45.200          50.100  
E15  23402288.422    23402296.496    23402294.809    23402296.969   122979855.606    91835633.505    94231336.959    93033509.837          48.400          48.300          50.400          55.400  
E21  26630127.586    26630137.008    26630134.664    26630136.766   139942263.964   104502375.883   107228513.952   105865453.521          41.900          41.700          42.900          47.700  
E27  24194102.461    24194110.457    24194108.207    24194110.641   127140863.166    94942836.569    97419606.646    96181215.214          47.200          48.000          49.500          54.900  
E30  25916884.773    25916895.523    25916893.555    25916895.777   136194140.440   101703448.388   104356570.412   103030024.508          43.900          44.900          46.900          51.900  
E05  25484663.602    25484675.273    25484673.066    25484675.117   133922812.854   100007293.349   102616179.582   101311715.073          41.600          42.700          44.100          49.400  
C20  24377373.617                   126939392.652                          43.200                  
C13  38901577.922    38901586.426   202570725.188   156640518.705          40.600          41.000  
C04  38426893.266    38426894.320   200098926.212   154729178.806          35.900          40.900  
C03  37403779.180    37403779.996   194771293.964   150609517.951          39.200          42.300  
C02  38884557.859    38884559.387   202482189.874   156572006.385          34.100          41.700  
C01  37959095.070    37959096.332   197662967.352   152845547.164          38.300          42.900  
C30  21906324.734                   114071979.113                          48.800                  
C29  22392901.391                   116605715.419                          46.600                  
C27  25348506.336                   131996315.684                          40.300                  
> 2025 04 10 06 33 45.0000000  0 32
G11  23455497.023                    23455506.324   123259472.462                    96046375.632          42.200                          43.700  
G17  20622342.523                    20622349.020   108371136.718                    84445064.717          47.400                          47.100  
G22  21905317.461    21905323.969                   115113213.240    89698632.788                          46.200          34.100                  
G03  22202370.508                    22202380.949   116674241.447                    90915033.105          41.500                          43.900  
G06  21081431.586                    21081440.813   110783668.466                    86324977.572          47.500                          47.700  
G19  19841921.945    19841925.176                   104269999.568    81249364.512                          47.500          42.000                  
G04  23524651.852                    23524663.332   123622886.017                    96329576.734          37.300                          40.300  
G14  22779648.516                    22779660.215   119707853.852                    93278868.153          41.100                          43.900  
G12  24214515.023                    24214523.277   127248133.770                    99154420.761          38.100                          36.500  
G09  23836692.414                    23836708.672   125262702.294                    97607341.122          40.300                          44.300  
R01  20954960.563    20954958.695                                   112016437.837   112016252.855                                          44.600          43.400                                  
R02  21050637.102    21050635.898    21050644.516    21050644.863   112330235.353   112330222.361    87367949.714    87367955.718          47.900          46.800          45.600          46.000  
R18  21674348.633    21674345.680    21674355.453    21674355.176   115699140.667   115699133.673    89988216.939    89988221.950          44.600          42.400          46.100          46.300  
R15  21368031.328    21368031.563    21368039.910    21368039.453   114184113.627   114184256.642    88809971.335    88809976.323          47.200          45.500          45.600          46.700  
R16  21471541.102    21471541.230    21471549.066    21471549.168   114697282.052   114697105.049    89208856.988    89208862.985          45.400          44.900          46.800          47.700  
R17  19675634.953    19675633.313    19675640.688    19675640.301   105288290.080   105288282.100    81890888.188    81890892.191          51.400          49.800          49.700          50.400  
R24  21568556.367    21568555.668    21568565.383    21568564.395   115336779.367   115336748.368    89706360.324    89706366.327          46.300          44.300          45.300          45.500  
E13  26167223.648    26167233.992    26167230.945    26167234.668   137509692.601   102685795.116   105364554.528   104025163.935          41.900          43.800          45.200          50.200  
E15  23401504.398    23401512.457    23401510.629    23401512.832   122975735.411    91832556.732    94228179.926    93030392.942          47.400          48.300          50.300          55.500  
E21  26627551.023    26627560.102    26627557.707    26627559.797   139928723.038   104492264.175   107218138.447   105855209.922          42.100          41.800          42.600          47.700  
E27  24194027.336    24194035.301    24194033.238    24194035.555   127140469.774    94942542.797    97419305.207    96180917.606          47.400          48.100          49.500          54.900  
E30  25918944.109    25918955.027    25918952.727    25918955.109   136204961.451   101711528.993   104364861.814   103038210.516          43.900          45.300          47.200          52.100  
E05  25482861.109    25482874.215    25482871.543    25482873.934   133913347.352   100000225.000   102608926.829   101304554.522          40.400          42.200          43.500          48.300  
C20  24373685.953                   126920188.526                          44.200                  
C13  38899717.156    38899726.797   202561038.283   156633028.186          41.600          41.000  
C04  38426184.234    38426184.988   200095232.761   154726322.785          35.800          40.600  
C03  37403094.102    37403094.508   194767723.944   150606757.399          39.600          42.300  
C02  38883858.781    38883859.738   202478546.596   156569189.174          34.300          41.300  
C01  37958416.711    37958418.039   197659434.970   152842815.704          38.800          43.100  
C30  21906571.367                   114073264.588                          49.500                  
C29  22390690.188                   116594200.197                          46.500                  
C27  25350257.906                   132005434.527                          40.200                  
> 2025 04 10 06 33 50.0000000  0 32
G11  23452353.211                    23452361.262   123242946.508                    96033498.273          42.300                          44.300  
G17  20622557.422                    20622564.203   108372265.257                    84445944.103          47.100                          47.300  
G22  21907023.414    21907030.434                   115122180.589    89705620.335                          45.800          33.400                  
G03  22204526.250                    22204536.043   116685565.606                    90923857.104          42.800                          43.900  
G06  21079500.945                    21079510.773   110773526.454                    86317074.708          47.000                          47.600  
G19  19840373.039    19840376.516                   104261861.503    81243023.169                          47.500          41.800                  
G04  23522095.875                    23522108.152   123609457.248                    96319112.780          37.000                          39.900  
G14  22782379.172                    22782390.070   119722200.297                    93290047.168          41.100                          43.700  
G12  24211045.352                    24211054.719   127229906.582                    99140217.781          36.900                          36.800  
G09  23833175.195                    23833191.449   125244220.898                    97592940.135          40.200                          42.000  
R01  20955090.063    20955089.484                                   112017133.872   112016948.892                                          44.700          43.200                                  
R02  21047219.563    21047218.125    21047227.207    21047227.723   112311999.320   112311986.315    87353766.158    87353772.154          47.600          45.900          46.100          46.500  
R18  21671447.703    21671447.098    21671455.980    21671455.051   115683663.352   115683656.364    89976179.052    89976184.055          43.700          42.700          46.200          46.700  
R15  21370238.563    21370238.914    21370247.309    21370247.203   114195910.604   114196053.619    88819146.738    88819151.734          47.000          45.900          46.000          47.100  
R16  21470314.398    21470313.004    21470321.844    21470321.629   114690726.100   114690549.097    89203757.912    89203763.908          47.000          45.400          46.400          47.300  
R17  19674703.328    19674701.688    19674709.246    19674708.633   105283304.087   105283296.072    81887010.185    81887014.187          51.000          49.500          49.800          49.900  
R24  21570095.703    21570095.004    21570104.473    21570104.035   115345009.012   115344978.043    89712761.136    89712767.139          45.000          43.400          45.600          46.100  
E13  26164704.305    26164714.977    26164712.633    26164715.832   137496455.759   102675910.463   105354412.020   104015150.353          41.000          44.000          45.500          50.400  
E15  23400722.836    23400730.762    23400728.699    23400730.945   122971626.984    91829488.754    94225031.913    93027284.940          48.400          48.600          50.500          55.300  
E21  26624977.570    26624986.148    26624984.367    26624986.109   139915197.207   104482163.704   107207774.489   105844977.701          41.600          41.200          43.300          47.700  
E27  24193956.094    24193964.117    24193962.055    24193964.309   127140095.006    94942262.938    97419018.040    96180634.100          47.900          47.800          49.300          54.700  
E30  25921005.992    25921016.355    25921013.824    25921016.602   136215794.243   101719618.412   104373162.261   103046405.448          44.300          44.800          46.200          51.400  
E05  25481063.281    25481075.984    25481073.922    25481075.820   133903898.313    99993168.972   102601686.730   101297406.455          39.800          39.700          42.700          46.800  
C20  24370000.258                   126900996.221                          44.300                  
C13  38897858.906    38897867.742   202551360.750   156625544.915          41.100          39.900  
C04  38425476.383    38425476.863   200091546.066   154723471.994          35.900          41.300  
C03  37402410.281    37402409.992   194764160.624   150604002.025          39.400          42.100  
C02  38883159.742    38883161.043   202474909.815   156566376.993          35.000          40.900  
C01  37957739.195    37957740.898   197655909.271   152840089.415          38.700          42.300  
C30  21906821.141                   114074562.889                          48.900                  
C29  22388481.289                   116582695.828                          47.000                  
C27  25352010.484                   132014562.210                          40.000                  
> 2025 04 10 06 33 55.0000000  0 32
G11  23449209.391                    23449217.938   123226430.635                    96020628.764          42.200                          44.100  
G17  20622775.195                    20622781.488   108373409.314                    84446835.564          47.000                          47.800  
G22  21908733.172    21908740.047                   115131163.853    89712620.264                          45.000          33.600                  
G03  22206684.266                    22206693.820   116696905.407                    90932693.312          42.600                          43.700  
G06  21077574.453                    21077583.527   110763397.862                    86309182.320          47.300                          47.500  
G19  19838827.852    19838831.047                   104253740.459    81236695.084                          47.400          41.700                  
G04  23519543.805                    23519555.512   123596043.908                    96308660.857          37.200                          39.800  
G14  22785110.859                    22785122.367   119736557.382                    93301234.433          41.700                          44.400  
G12  24207580.453                    24207588.480   127211695.249                    99126027.145          36.900                          35.800  
G09  23829659.766                    23829676.316   125225748.366                    97578546.064          38.800                          41.800  
R01  20955225.180    20955224.484                                   112017858.198   112017673.209                                          44.500          42.800                                  
R02  21043805.930    21043804.961    21043814.781    21043814.852   112293784.576   112293771.570    87339599.166    87339605.170          47.700          46.300          44.900          46.400  
R18  21668550.516    21668549.910    21668558.375    21668557.805   115668195.286   115668188.292    89964148.329    89964153.332          43.800          42.800          46.000          46.600  
R15  21372451.242    21372450.418    21372459.496    21372458.801   114207727.469   114207870.479    88828337.611    88828342.614          48.500          45.900          45.300          45.300  
R16  21469091.336    21469090.645    21469098.910    21469099.129   114684198.141   114684021.161    89198680.606    89198686.608          45.100          43.700          46.300          46.900  
R17  19673773.367    19673772.434    19673779.840    19673779.195   105278331.295   105278323.311    81883142.460    81883146.464          50.800          49.300          49.500          50.200  
R24  21571636.297    21571636.535    21571645.039    21571644.664   115353248.805   115353217.822    89719169.854    89719175.863          44.900          44.100          46.300          46.000  
E13  26162187.023    26162198.008    26162195.664    26162198.645   137483228.084   102666032.658   105344276.536   104005143.706          41.100          44.600          45.600          51.200  
E15  23399943.063    23399950.980    23399948.918    23399951.258   122967529.367    91826428.845    94221892.181    93024185.119          48.800          47.700          49.200          55.400  
E21  26622406.148    26622414.465    26622413.430    26622414.836   139901685.390   104472073.714   107197421.299   105834756.110          42.900          41.600          43.600          48.700  
E27  24193887.984    24193896.117    24193894.102    24193896.391   127139737.828    94941996.204    97418744.358    96180363.892          47.600          48.000          48.200          55.300  
E30  25923069.305    25923079.691    25923077.582    25923079.930   136226637.849   101727715.882   104381470.975   103054608.536          44.400          44.400          46.000          51.800  
E05  25479268.328    25479280.844    25479278.594    25479280.551   133894464.886    99986124.556   102594458.543   101290270.157          39.500          39.900          41.500          46.300  
C20  24366316.734                   126881814.734                          42.200                  
C13  38896001.813    38896011.504   202541691.600   156618068.135          39.000          39.200  
C04  38424769.594    38424769.922   200087865.093   154720625.620          36.100          40.800  
C03  37401726.734    37401726.824   194760603.016   150601251.037          39.500          41.800  
C02  38882462.547    38882462.883   202471277.611   156563569.076          33.600          37.900  
C01  37957063.516    37957065.145   197652389.288   152837367.537          38.100          41.100  
C30  21907072.703                   114075873.062                          48.900                  
C29  22386273.781                   116571201.372                          47.000                  
C27  25353764.156                   132023697.742                          38.900                  
> 2025 04 10 06 34  0.0000000  0 32
G11  23446068.852                    23446077.387   123209925.870                    96007767.935          42.500                          44.200  
G17  20622995.969                    20623001.863   108374570.055                    84447740.028          47.300                          47.000  
G22  21910446.148    21910452.414                   115140164.199    89719633.510                          45.600          33.100                  
G03  22208844.820                    22208854.938   116708262.017                    90941542.604          42.300                          43.700  
G06  21075649.867                    21075659.207   110753283.888                    86301301.280          47.600                          47.800  
G19  19837286.000    19837289.543                   104245637.664    81230381.209                          47.900          41.400                  
G04  23516993.906                    23517005.797   123582647.250                    96298221.938          37.700                          39.700  
G14  22787845.055                    22787856.449   119750926.207                    93312430.916          41.600                          43.600  
G12  24204118.828                    24204127.078   127193500.960                    99111849.832          33.900                          34.800  
G09  23826146.820                    23826163.102   125207285.766                    97564159.703          39.200                          40.700  
R01  20955367.016    20955364.914                                   112018612.103   112018427.121                                          44.500          43.000                                  
R02  21040396.641    21040395.438    21040404.867    21040405.086   112275592.250   112275579.252    87325449.601    87325455.604          47.200          45.500          45.100          46.000  
R18  21665655.586    21665654.863    21665663.043    21665662.543   115652737.611   115652730.617    89952125.716    89952130.719          44.500          43.200          44.900          45.800  
R15  21374665.289    21374664.699    21374673.891    21374673.309   114219565.396   114219708.404    88837544.882    88837549.885          47.400          45.300          45.600          45.300  
R16  21467876.406    21467874.426    21467883.469    21467883.695   114677699.608   114677522.628    89193626.231    89193632.242          45.600          42.700          44.900          46.700  
R17  19672846.766    19672846.066    19672852.973    19672853.160   105273372.957   105273364.973    81879285.972    81879289.976          50.800          49.200          48.900          50.600  
R24  21573179.977    21573179.746    21573187.930    21573187.773   115361499.941   115361468.951    89725587.403    89725593.414          46.600          44.500          46.000          45.700  
E13  26159671.672    26159683.387    26159680.809    26159683.480   137470010.671   102656162.553   105334148.935   103995144.853          39.800          44.100          44.700          50.500  
E15  23399165.555    23399173.867    23399171.664    23399174.004   122963443.702    91823377.869    94218761.614    93021094.346          48.300          47.400          48.900          55.400  
E21  26619837.359    26619846.652    26619843.605    26619846.688   139888188.766   104461995.095   107187079.753   105824546.032          39.600          40.200          41.100          46.000  
E27  24193824.086    24193831.938    24193830.203    24193832.184   127139399.396    94941743.477    97418485.034    96180107.866          47.700          47.400          48.700          55.300  
E30  25925134.805    25925145.375    25925142.891    25925145.637   136237493.426   101735822.322   104389788.889   103062820.714          43.000          44.200          45.300          51.400  
E05  25477475.680    25477488.398    25477487.086    25477488.660   133885048.143    99979092.576   102587243.120   101283146.452          40.400          38.600          41.300          45.900  
C20  24362635.172                   126862645.216                          42.500                  
C13  38894147.148    38894156.215   202532032.067   156610598.782          41.200          40.000  
C04  38424063.820    38424064.805   200084191.055   154717784.646          36.200          40.800  
C03  37401044.758    37401044.750   194757052.248   150598505.371          39.300          42.200  
C02  38881766.148    38881768.332   202467653.145   156560766.453          32.900          40.900  
C01  37956389.328    37956390.578   197648876.151   152834650.948          38.400          41.400  
C30  21907326.563                   114077196.244                          48.100                  
C29  22384069.250                   116559717.984                          48.100                  
C27  25355520.813                   132032842.305                          39.500                  
> 2025 04 10 06 34  5.0000000  0 32
G11  23442929.602                    23442938.879   123193431.832                    95994915.487          41.900                          44.500  
G17  20623219.914                    20623226.508   108375746.948                    84448657.099          47.400                          47.100  
G22  21912161.656    21912168.000                   115149181.047    89726659.597                          45.100          32.300                  
G03  22211009.156                    22211019.426   116719634.916                    90950404.590          42.300                          43.900  
G06  21073727.156                    21073736.941   110743184.002                    86293431.251          47.000                          47.900  
G19  19835747.602    19835750.727                   104237552.556    81224081.124                          48.200          41.600                  
G04  23514448.734                    23514460.402   123569266.760                    96287795.605          37.500                          39.300  
G14  22790580.938                    22790592.883   119765306.322                    93323636.135          40.000                          43.500  
G12  24200658.102                    24200667.273   127175323.305                    99097685.350          36.200                          35.200  
G09  23822635.039                    23822651.016   125188832.705                    97549780.786          39.500                          41.000  
R01  20955513.203    20955511.688                                   112019394.937   112019209.956                                          43.700          42.600                                  
R02  21036991.688    21036990.250    21036999.715    21036999.387   112257421.686   112257408.674    87311316.962    87311322.966          47.600          45.600          44.800          46.000  
R18  21662761.281    21662759.855    21662768.926    21662768.121   115637289.832   115637282.837    89940110.777    89940115.773          44.100          43.200          45.800          46.800  
R15  21376883.641    21376883.406    21376893.098    21376892.953   114231423.873   114231566.873    88846768.113    88846773.123          46.700          44.900          46.000          45.400  
R16  21466664.523    21466663.363    21466671.691    21466671.969   114671229.829   114671052.828    89188594.164    89188600.161          46.800          45.000          46.800          47.700  
R17  19671923.164    19671922.465    19671929.559    19671929.090   105268428.441   105268420.440    81875440.242    81875444.239          51.200          49.200          49.900          50.300  
R24  21574725.883    21574724.242    21574732.789    21574732.191   115369761.840   115369730.850    89732013.316    89732019.319          47.200          45.600          45.700          46.000  
E13  26157158.648    26157169.605    26157167.262    26157170.023   137456803.054   102646299.754   105324028.837   103985153.403          40.900          44.300          45.900          51.000  
E15  23398390.484    23398398.293    23398396.277    23398398.445   122959369.523    91820335.454    94215639.832    93018012.252          48.300          48.600          50.000          55.300  
E21  26617272.266    26617280.180    26617278.586    26617280.852   139874706.818   104451927.391   107176749.405   105814347.002          43.800          41.500          43.400          47.700  
E27  24193762.984    24193770.668    24193769.168    24193771.176   127139079.278    94941504.432    97418239.751    96179865.702          47.800          47.500          49.100          54.800  
E30  25927202.867    25927212.988    25927210.926    25927213.625   136248360.412   101743937.243   104398115.500   103071041.481          43.300          44.600          46.900          51.500  
E05  25475686.906    25475699.531    25475698.219    25475699.914   133875647.573    99972072.694   102580040.115   101276035.009          39.300          39.300          41.400          45.900  
C20  24358955.914                   126843487.239                          42.900                  
C13  38892293.680    38892302.414   202522381.603   156603136.448          41.000          40.600  
C04  38423359.539    38423360.301   200080523.374   154714948.563          35.900          41.100  
C03  37400363.445    37400364.082   194753507.866   150595764.622          39.000          41.600  
C02  38881071.078    38881072.984   202464033.940   156557967.617          33.900          40.400  
C01  37955715.258    37955717.102   197645369.370   152831939.284          38.200          41.600  
C30  21907583.383                   114078531.941                          48.500                  
C29  22381865.563                   116548245.146                          47.300                  
C27  25357278.516                   132041995.367                          39.700                  
> 2025 04 10 06 34 10.0000000  0 32
G11  23439794.094                    23439802.309   123176948.151                    95982071.070          42.500                          44.100  
G17  20623446.773                    20623453.156   108376939.718                    84449586.521          47.400                          47.000  
G22  21913880.719    21913887.258                   115158214.154    89733698.373                          45.100          33.100                  
G03  22213176.422                    22213186.297   116731023.734                    90959278.990          41.800                          44.100  
G06  21071808.289                    21071817.492   110733097.870                    86285571.943          47.800                          48.700  
G19  19834211.797    19834215.539                   104229484.852    81217794.607                          47.600          41.800                  
G04  23511904.977                    23511916.891   123555902.140                    96277381.617          35.500                          40.800  
G14  22793319.703                    22793331.359   119779697.367                    93334849.871          41.400                          43.200  
G12  24197203.609                    24197210.746   127157161.831                    99083533.628          37.700                          35.900  
G09  23819125.320                    23819141.156   125170388.824                    97535409.045          38.400                          38.400  
R01  20955664.594    20955664.602                                   112020206.523   112020021.527                                          43.600          43.100                                  
R02  21033591.047    21033588.789    21033598.633    21033598.590   112239272.812   112239259.807    87297201.155    87297207.152          48.200          46.600          46.000          46.800  
R18  21659869.594    21659868.285    21659876.883    21659876.414   115621851.544   115621844.560    89928103.244    89928108.240          44.100          42.700          45.700          46.300  
R15  21379107.680    21379107.324    21379115.738    21379115.797   114243302.602   114243445.602    88856007.140    88856012.143          46.200          45.600          45.700          46.000  
R16  21465458.469    21465457.777    21465465.840    21465465.688   114664788.543   114664611.541    89183584.278    89183590.267          47.200          46.100          46.500          47.600  
R17  19671001.602    19671000.434    19671007.363    19671007.152   105263497.448   105263489.468    81871605.026    81871609.037          51.200          49.100          49.400          49.600  
R24  21576272.742    21576271.691    21576280.039    21576279.785   115378034.273   115378003.283    89738447.410    89738453.405          47.600          44.300          46.000          46.200  
E13  26154647.063    26154658.250    26154656.000    26154658.418   137443604.958   102636444.041   105313916.031   103975169.144          41.000          44.200          45.300          50.700  
E15  23397617.125    23397625.320    23397623.117    23397625.387   122955306.443    91817301.341    94212526.562    93014938.560          48.200          48.500          50.100          55.300  
E21  26614709.070    26614717.656    26614716.250    26614718.168   139861239.302   104441870.488   107166430.144   105804158.924          42.400          41.000          43.300          47.700  
E27  24193705.500    24193712.965    24193711.512    24193713.523   127138777.098    94941278.765    97418008.206    96179637.091          48.300          48.100          49.600          55.000  
E30  25929272.383    25929283.008    25929280.805    25929283.531   136259238.553   101752060.509   104406450.682   103079270.702          42.800          44.700          46.700          51.400  
E05  25473901.352    25473913.863    25473912.316    25473914.227   133866262.896    99965064.667   102572849.285   101268935.584          38.200          41.300          42.800          47.700  
C20  24355278.586                   126824340.411                          42.100                  
C13  38890442.133    38890450.672   202512739.885   156595680.879          40.800          40.900  
C04  38422655.953    38422657.746   200076861.787   154712117.209          36.400          40.600  
C03  37399684.133    37399684.684   194749969.512   150593028.552          39.300          42.500  
C02  38880377.563    38880379.008   202460421.664   156555174.390          34.200          41.600  
C01  37955042.859    37955044.855   197641868.661   152829232.329          38.300          42.400  
C30  21907841.844                   114079879.830                          48.600                  
C29  22379664.211                   116536782.566                          47.200                  
C27  25359038.273                   132051156.687                          38.300                  
> 2025 04 10 06 34 15.0000000  0 32
G11  23436658.734                    23436667.695   123160475.913                    95969235.584          41.400                          45.200  
G17  20623677.266                    20623683.430   108378149.386                    84450529.110          47.200                          46.900  
G22  21915602.820    21915609.621                   115167264.493    89740750.567                          45.500          33.500                  
G03  22215347.602                    22215356.660   116742429.513                    90968166.604          41.900                          43.800  
G06  21069891.680                    21069901.281   110723026.579                    86277724.184          48.100                          48.400  
G19  19832680.445    19832683.438                   104221435.597    81211522.457                          47.700          41.800                  
G04  23509364.273                    23509376.574   123542554.406                    96266980.851          35.100                          40.200  
G14  22796060.625                    22796072.406   119794100.388                    93346072.951          41.300                          42.800  
G12  24193748.453                    24193758.992   127139017.752                    99069395.334          37.100                          35.800  
G09  23815616.719                    23815633.609   125151955.129                    97521045.264          37.300                          37.900  
R01  20955822.500    20955821.805                                   112021047.719   112020862.723                                          44.300          43.400                                  
R02  21030193.945    21030192.625    21030201.770    21030201.184   112221146.825   112221133.835    87283103.185    87283109.182          48.300          46.600          45.100          46.000  
R18  21656979.266    21656977.371    21656986.578    21656986.094   115606423.920   115606416.917    89916103.984    89916108.979          44.100          42.400          45.000          46.000  
R15  21381334.695    21381334.340    21381343.125    21381342.637   114255202.517   114255345.518    88865262.607    88865267.611          46.800          46.100          46.000          46.800  
R16  21464258.313    21464257.504    21464265.402    21464265.523   114658376.969   114658199.957    89178597.512    89178603.522          46.300          45.200          47.100          47.100  
R17  19670082.992    19670081.824    19670089.113    19670088.625   105258581.093   105258573.101    81867781.187    81867785.195          51.400          49.500          49.400          49.600  
R24  21577821.906    21577820.621    21577829.156    21577829.410   115386318.336   115386287.361    89744890.555    89744896.558          47.300          45.600          45.900          46.600  
E13  26152138.141    26152148.945    26152147.066    26152149.070   137430417.384   102626596.183   105303811.281   103965192.843          42.500          42.900          44.600          50.800  
E15  23396845.969    23396854.027    23396852.383    23396854.383   122951255.559    91814276.325    94209422.634    93011874.089          48.100          47.100          48.500          55.400  
E21  26612149.758    26612157.344    26612156.641    26612158.273   139847787.225   104431825.085   107156122.707   105793982.500          42.800          39.400          43.500          47.400  
E27  24193651.750    24193659.176    24193657.254    24193659.613   127138493.882    94941067.266    97417791.187    96179422.833          48.400          46.700          47.600          54.600  
E30  25931344.586    25931355.645    25931353.395    25931356.098   136270128.798   101760192.801   104414795.118   103087509.068          42.900          43.900          45.100          51.500  
E05  25472119.680    25472130.355    25472129.746    25472131.543   133856895.140    99958069.320   102565671.455   101261848.996          38.500          39.900          42.400          47.300  
C20  24351603.891                   126805205.857                          41.400                  
C13  38888592.313    38888601.223   202503107.891   156588232.827          41.400          40.900  
C04  38421954.336    38421955.820   200073207.379   154709291.386          36.300          40.400  
C03  37399006.555    37399006.531   194746438.234   150590297.949          39.000          41.200  
C02  38879685.734    38879687.035   202456816.251   156552386.469          34.000          40.400  
C01  37954371.727    37954373.703   197638374.993   152826530.791          38.400          41.900  
C30  21908103.320                   114081240.964                          48.000                  
C29  22377465.188                   116525331.258                          47.200                  
C27  25360799.078                   132060327.141                          36.900                  
> 2025 04 10 06 34 20.0000000  0 32
G11  23433525.195                    23433535.055   123144013.371                    95956407.642          40.700                          43.800  
G17  20623909.750                    20623916.094   108379374.201                    84451483.501          47.300                          47.500  
G22  21917328.227    21917334.816                   115176330.309    89747814.818                          45.900          33.800                  
G03  22217520.477                    22217530.145   116753850.480                    90977066.063          42.300                          43.300  
G06  21067977.383                    21067986.844   110712968.329                    86269886.589          47.600                          48.000  
G19  19831151.859    19831155.000                   104213403.059    81205263.329                          48.100          41.100                  
G04  23506828.000                    23506839.762   123529221.902                    96256591.900          35.100                          40.500  
G14  22798803.461                    22798815.637   119808513.556                    93357303.943          39.900                          43.700  
G12  24190301.570                    24190308.781   127120889.160                    99055269.196          38.100                          33.200  
G09  23812110.625                    23812126.559   125133529.952                    97506688.113          37.100                          40.900  
R01  20955985.133    20955984.555                                   112021916.898   112021731.888                                          44.300          43.200                                  
R02  21026800.992    21026799.320    21026809.086    21026809.156   112203041.611   112203028.607    87269021.360    87269027.364          47.700          46.500          46.000          47.100  
R18  21654089.703    21654089.215    21654097.695    21654097.328   115591005.100   115590998.084    89904111.605    89904116.608          44.600          42.800          45.300          45.900  
R15  21383564.578    21383564.461    21383573.676    21383573.344   114267121.931   114267264.918    88874533.269    88874538.271          46.500          45.400          46.200          46.300  
R16  21463062.742    21463062.285    21463070.281    21463070.305   114651992.916   114651815.929    89173632.121    89173638.131          46.000          44.700          45.700          46.900  
R17  19669166.797    19669165.863    19669172.891    19669172.453   105253677.525   105253669.541    81863967.309    81863971.312          50.500          48.900          49.400          49.600  
R24  21579372.859    21579371.926    21579380.867    21579380.484   115394612.151   115394581.176    89751341.284    89751347.295          45.800          44.600          45.800          47.000  
E13  26149629.773    26149641.586    26149639.102    26149641.152   137417238.552   102616754.890   105293713.245   103955223.175          42.200          44.200          45.300          50.800  
E15  23396077.094    23396085.180    23396083.492    23396085.445   122947215.076    91811259.088    94206326.686    93008817.494          47.600          47.900          49.300          55.300  
E21  26609592.227    26609599.898    26609599.148    26609600.871   139834348.870   104421789.976   107145825.782   105783816.483          43.500          39.700          43.400          47.500  
E27  24193600.914    24193608.652    24193607.105    24193609.164   127138227.929    94940868.655    97417587.398    96179221.636          47.900          47.600          49.000          54.900  
E30  25933418.602    25933430.195    25933427.758    25933430.512   136281029.443   101768332.873   104423147.542   103095755.316          43.300          44.800          46.500          51.900  
E05  25470338.570    25470350.656    25470349.531    25470351.730   133847542.626    99951085.261   102558505.196   101254773.836          40.200          39.800          41.900          46.700  
C20  24347931.539                   126786081.792                          40.700                  
C13  38886744.086    38886753.223   202493484.023   156580791.057          42.500          41.100  
C04  38421254.289    38421254.473   200069558.345   154706469.695          36.300          41.100  
C03  37398328.898    37398329.531   194742912.278   150587571.455          39.200          42.200  
C02  38878994.164    38878995.461   202453216.136   156549602.646          34.800          41.300  
C01  37953702.273    37953704.039   197634886.682   152823833.417          38.400          42.100  
C30  21908367.156                   114082613.596                          48.700                  
C29  22375267.820                   116513889.515                          46.900                  
C27  25362561.336                   132069505.073                          34.100                  
> 2025 04 10 06 34 25.0000000  0 32
G11  23430394.938                    23430404.563   123127561.081                    95943587.667          42.500                          44.500  
G17  20624145.875                    20624152.520   108380614.849                    84452450.243          47.200                          47.300  
G22  21919056.742    21919063.246                   115185412.201    89754891.615                          46.300          33.800                  
G03  22219696.914                    22219706.621   116765287.219                    90985977.798          42.500                          43.900  
G06  21066066.055                    21066075.480   110702923.764                    86262059.654          47.000                          48.100  
G19  19829626.867    19829630.125                   104205387.845    81199017.708                          47.900          42.200                  
G04  23504294.273                    23504305.117   123515905.156                    96246215.281          35.400                          41.100  
G14  22801548.422                    22801560.547   119822937.538                    93368543.356          40.700                          43.100  
G12  24186851.469                    24186861.750   127102776.894                    99041155.756          36.200                          36.500  
G09  23808605.430                    23808622.477   125115113.884                    97492337.966          36.600                          41.700  
R01  20956152.906    20956151.391                                   112022814.666   112022629.691                                          44.700          43.000                                  
R02  21023412.039    21023410.250    21023419.531    21023420.371   112184958.057   112184945.052    87254956.396    87254962.400          47.900          46.300          46.700          46.900  
R18  21651203.758    21651202.566    21651211.512    21651211.516   115575595.883   115575588.867    89892126.641    89892131.644          43.000          41.700          45.800          47.800  
R15  21385799.281    21385798.457    21385808.109    21385807.809   114279061.381   114279204.367    88883819.479    88883824.482          46.000          45.100          45.900          46.500  
R16  21461873.531    21461872.488    21461880.379    21461880.641   114645637.422   114645460.420    89168688.939    89168694.936          45.800          44.400          46.400          47.300  
R17  19668253.094    19668251.926    19668258.961    19668258.738   105248787.422   105248779.428    81860163.899    81860167.896          51.100          49.600          49.100          49.800  
R24  21580924.773    21580924.309    21580933.434    21580932.891   115402916.259   115402885.288    89757800.010    89757806.014          45.500          44.500          46.100          47.000  
E13  26147123.938    26147135.141    26147132.750    26147134.914   137404069.088   102606920.567   105283622.352   103945260.567          42.600          44.500          45.300          50.800  
E15  23395310.398    23395318.629    23395316.613    23395318.781   122943185.629    91808250.086    94203239.188    93005769.246          48.000          48.000          49.400          55.400  
E21  26607038.133    26607045.520    26607045.145    26607046.629   139820924.792   104411765.478   107135539.817   105773661.255          43.600          40.400          44.300          48.300  
E27  24193553.508    24193561.445    24193559.711    24193561.914   127137979.779    94940683.352    97417397.257    96179033.913          47.600          48.300          48.900          54.800  
E30  25935495.625    25935506.441    25935504.566    25935506.848   136291941.067   101776481.149   104431508.388   103104009.874          44.900          45.200          46.800          51.800  
E05  25468561.984    25468573.828    25468572.750    25468575.031   133838205.915    99944113.086   102551351.130   101247710.713          41.000          40.500          42.700          46.900  
C20  24344261.531                   126766968.833                          42.700                  
C13  38884897.336    38884906.555   202483868.801   156573355.962          40.600          40.100  
C04  38420554.391    38420554.680   200065915.282   154703652.655          36.500          40.700  
C03  37397652.930    37397653.355   194739392.320   150584849.608          38.800          42.700  
C02  38878304.414    38878304.965   202449621.802   156546823.271          34.800          41.800  
C01  37953033.547    37953035.105   197631404.338   152821140.633          38.200          41.400  
C30  21908633.258                   114083998.317                          48.600                  
C29  22373072.539                   116502457.940                          47.000                  
C27  25364325.578                   132078691.144                          34.300                  
> 2025 04 10 06 34 30.0000000  0 32
G11  23427266.547                    23427275.363   123111119.089                    95930775.759          41.500                          44.600  
G17  20624385.750                    20624391.578   108381871.239                    84453429.266          47.300                          47.100  
G22  21920787.813    21920794.762                   115194510.153    89761980.919                          44.900          32.700                  
G03  22221875.859                    22221886.074   116776739.785                    90994901.863          42.300                          44.400  
G06  21064157.734                    21064167.434   110692892.833                    86254243.344          46.900                          47.900  
G19  19828104.578    19828107.656                   104197389.946    81192785.582                          47.600          42.000                  
G04  23501762.727                    23501774.457   123502604.156                    96235850.836          35.300                          40.100  
G14  22804295.500                    22804307.086   119837372.238                    93379791.149          40.500                          42.800  
G12  24183412.906                    24183418.617   127084680.714                    99027054.798          37.600                          34.400  
G09  23805103.813                    23805119.891   125096706.942                    97477995.031          36.900                          40.900  
R01  20956325.461    20956324.883                                   112023740.998   112023556.024                                          44.900          44.000                                  
R02  21020027.211    21020025.773    21020034.504    21020034.941   112166895.982   112166882.999    87240908.144    87240914.148          48.000          46.800          46.500          46.600  
R18  21648319.094    21648317.902    21648326.293    21648325.945   115560196.040   115560189.041    89880148.986    89880153.996          43.400          42.600          45.900          46.600  
R15  21388037.359    21388037.004    21388046.320    21388045.906   114291020.886   114291163.880    88893121.297    88893126.308          46.300          44.500          45.600          46.400  
R16  21460689.172    21460688.012    21460695.988    21460696.098   114639310.300   114639133.304    89163767.856    89163773.867          46.700          45.400          46.200          47.400  
R17  19667341.422    19667340.371    19667347.164    19667346.871   105243910.787   105243902.780    81856370.956    81856374.953          50.700          49.300          49.200          49.700  
R24  21582479.367    21582479.605    21582487.965    21582487.637   115411230.757   115411199.774    89764266.834    89764272.836          45.800          44.300          46.100          46.300  
E13  26144619.703    26144630.730    26144628.902    26144630.742   137390909.008   102597093.257   105273538.674   103935305.070          41.900          43.500          45.100          50.000  
E15  23394545.797    23394553.934    23394552.059    23394554.059   122939167.155    91805249.271    94200160.101    93002729.293          48.300          48.200          49.900          55.400  
E21  26604486.023    26604494.027    26604493.324    26604494.910   139807515.049   104401751.716   107125264.820   105763516.875          43.900          40.400          44.600          48.300  
E27  24193509.703    24193517.605    24193515.867    24193518.059   127137749.475    94940511.362    97417220.783    96178859.680          48.200          47.700          49.100          54.700  
E30  25937574.406    25937584.941    25937583.250    25937585.348   136302863.674   101784637.620   104439877.638   103112272.738          44.700          44.900          46.800          51.700  
E05  25466788.773    25466799.898    25466799.004    25466801.242   133828884.982    99937152.678   102544209.135   101240659.510          40.800          40.000          43.100          47.400  
C20  24340593.297                   126747867.043                          43.300                  
C13  38883052.375    38883061.488   202474262.228   156565927.573          40.100          41.000  
C04  38419855.375    38419856.480   200062278.200   154700840.240          36.800          40.800  
C03  37396977.680    37396978.625   194735878.246   150582132.291          38.400          42.000  
C02  38877615.922    38877616.316   202446033.264   156544048.409          35.000          42.100  
C01  37952366.078    37952367.301   197627927.918   152818452.454          38.500          42.000  
C30  21908901.680                   114085395.140                          48.700                  
C29  22370879.156                   116491036.530                          47.100                  
C27  25366090.914                   132087885.368                          31.600                  
> 2025 04 10 06 34 35.0000000  0 32
G11  23424139.750                    23424148.578   123094687.854                    95917972.205          43.000                          45.100  
G17  20624627.375                    20624633.793   108383143.850                    84454420.894          47.000                          46.800  
G22  21922522.070    21922528.691                   115203624.606    89769083.086                          45.500          32.800                  
G03  22224058.078                    22224068.477   116788208.530                    91003838.521          42.300                          44.500  
G06  21062251.250                    21062260.484   110682876.059                    86246438.083          47.000                          47.900  
G19  19826586.359    19826589.230                   104189409.868    81186567.341                          48.000          41.800                  
G04  23499233.930                    23499246.363   123489319.503                    96225499.194          37.100                          40.200  
G14  22807044.547                    22807056.141   119851818.176                    93391047.672          41.400                          42.900  
G12  24179965.164                    24179977.926   127066601.239                    99012966.980          35.400                          36.200  
G09  23801602.000                    23801618.832   125078309.576                    97463659.533          37.400                          42.600  
R01  20956505.078    20956503.680                                   112024696.210   112024511.228                                          44.300          43.200                                  
R02  21016646.531    21016644.859    21016653.898    21016654.629   112148855.990   112148842.993    87226877.065    87226883.063          48.000          45.500          46.300          46.000  
R18  21645435.266    21645435.012    21645443.508    21645442.840   115544806.104   115544799.114    89868179.066    89868184.063          43.900          43.200          46.400          46.500  
R15  21390279.469    21390279.469    21390287.910    21390287.531   114303001.015   114303144.023    88902439.127    88902444.146          47.600          46.000          45.600          45.700  
R16  21459510.109    21459509.418    21459517.164    21459517.215   114633011.897   114632834.896    89158869.131    89158875.127          48.000          46.200          46.900          47.000  
R17  19666432.984    19666431.227    19666438.215    19666437.902   105239048.079   105239040.078    81852588.842    81852592.838          50.800          49.100          49.900          49.300  
R24  21584036.945    21584035.777    21584044.496    21584044.566   115419556.015   115419525.024    89770742.017    89770748.020          46.400          44.300          46.300          46.700  
E13  26142117.297    26142128.160    26142126.098    26142128.273   137377758.748   102587273.264   105263462.511   103925356.992          41.400          44.600          46.400          51.100  
E15  23393783.258    23393791.293    23393789.652    23393791.539   122935160.187    91802257.068    94197089.827    92999698.055          48.100          48.300          50.200          55.600  
E21  26601937.336    26601944.824    26601944.449    26601945.996   139794120.140   104391749.024   107115001.178   105753383.709          43.700          39.800          44.900          47.900  
E27  24193469.492    24193477.406    24193475.438    24193477.695   127137537.457    94940353.045    97417058.328    96178699.293          48.000          48.000          49.200          54.700  
E30  25939655.102    25939665.793    25939663.824    25939665.836   136313797.692   101792802.613   104448255.625   103120544.223          45.700          44.900          46.300          51.700  
E05  25465017.953    25465029.293    25465028.496    25465030.543   133819580.302    99930204.391   102537079.593   101233620.599          40.800          39.700          42.700          46.600  
C20  24336927.570                   126728776.811                          45.100                  
C13  38881208.750    38881218.941   202464664.729   156558506.187          39.800          41.400  
C04  38419158.367    38419159.570   200058647.598   154698032.824          36.700          40.900  
C03  37396304.344    37396304.734   194732370.561   150579419.952          38.600          42.400  
C02  38876927.063                   202442451.104                          33.700                  
C01  37951699.570    37951700.770   197624457.860   152815769.199          38.900          41.600  
C30  21909172.250                   114086804.516                          48.800                  
C29  22368687.875                   116479625.703                          46.800                  
C27  25367858.883                   132097087.973                          33.400                  
> 2025 04 10 06 34 40.0000000  0 32
G11  23421014.328                    23421023.547   123078266.130                    95905176.084          42.300                          43.600  
G17  20624872.531                    20624879.203   108384431.436                    84455424.204          46.900                          46.500  
G22  21924259.414    21924265.816                   115212754.387    89776197.176                          46.000          33.100                  
G03  22226243.758                    22226253.906   116799692.229                    91012786.835          42.000                          45.100  
G06  21060347.250                    21060356.543   110672872.160                    86238642.843          46.500                          47.900  
G19  19825070.680    19825074.434                   104181446.373    81180362.006                          48.300          41.800                  
G04  23496710.195                    23496720.980   123476049.795                    96215159.204          38.100                          40.000  
G14  22809795.195                    22809807.066   119866274.023                    93402311.919          41.400                          42.900  
G12  24176533.828                    24176541.418   127048537.253                    98998891.095          37.900                          36.800  
G09  23798103.227                    23798119.512   125059920.586                    97449330.552          38.000                          42.100  
R01  20956688.984    20956687.234                                   112025679.361   112025494.373                                          44.300          42.800                                  
R02  21013269.195    21013267.758    21013276.551    21013277.168   112130836.810   112130823.819    87212862.170    87212868.174          48.200          46.200          46.600          45.900  
R18  21642555.125    21642553.582    21642561.773    21642561.277   115529424.836   115529417.834    89856215.859    89856220.862          44.500          43.400          45.600          45.200  
R15  21392525.188    21392524.832    21392533.270    21392533.168   114315000.159   114315143.168    88911771.807    88911776.817          47.200          45.600          44.600          45.200  
R16  21458336.766    21458335.371    21458343.383    21458343.781   114626741.326   114626564.317    89153992.008    89153998.012          47.600          45.900          46.500          47.200  
R17  19665526.203    19665524.797    19665532.078    19665531.641   105234198.012   105234190.002    81848816.573    81848820.563          51.500          49.100          49.000          49.700  
R24  21585594.695    21585594.348    21585603.637    21585603.648   115427890.921   115427859.940    89777224.725    89777230.721          45.900          44.100          45.900          46.600  
E13  26139616.766    26139627.445    26139625.289    26139627.434   137364617.090   102577459.715   105253392.948   103915415.439          41.600          44.800          46.300          51.000  
E15  23393022.555    23393030.996    23393029.027    23393031.082   122931163.457    91799272.492    94194027.401    92996674.552          48.300          48.000          49.900          55.400  
E21  26599390.961    26599398.043    26599397.902    26599399.383   139780738.690   104381756.383   107104747.860   105743260.726          43.400          40.000          44.100          47.700  
E27  24193432.172    24193440.305    24193438.289    24193440.566   127137342.481    94940207.442    97416908.930    96178551.793          47.000          48.600          49.000          54.800  
E30  25941737.844    25941748.570    25941746.695    25941748.754   136324741.915   101800975.227   104456641.442   103128823.443          45.200          45.800          46.400          51.900  
E05  25463250.422    25463261.449    25463260.699    25463262.844   133810290.638    99923267.322   102529961.560   101226593.048          40.800          39.400          42.100          46.700  
C20  24333262.711                   126709696.964                          43.900                  
C13  38879367.164    38879377.008   202455075.136   156551090.926          38.100          40.400  
C04  38418461.930    38418462.941   200055022.173   154695229.414          36.500          41.300  
C03  37395631.648    37395632.277   194728868.033   150576711.566          38.800          42.200  
C02  38876239.570    38876241.227   202438873.898   156538512.301          34.000          42.000  
C01  37951034.406    37951036.102   197620992.981   152813089.931          38.800          42.100  
C30  21909444.656                   114088225.215                          49.200                  
C29  22366498.359                   116468224.266                          47.000                  
C27  25369628.047                   132106297.996                          35.900                  
> 2025 04 10 06 34 45.0000000  0 32
G11  23417891.398                    23417900.816   123061854.173                    95892387.565          41.500                          44.500  
G17  20625120.633                    20625127.027   108385734.273                    84456439.398          46.900                          47.000  
G22  21926000.000    21926006.301                   115221899.692    89783323.363                          46.300          33.700                  
G03  22228432.219                    22228442.324   116811191.229                    91021747.072          41.900                          45.000  
G06  21058446.297                    21058455.609   110662881.411                    86230857.849          46.900                          47.300  
G19  19823558.180    19823562.211                   104173499.678    81174169.784                          47.500          42.400                  
G04  23494187.516                    23494198.914   123462795.549                    96204831.249          37.600                          40.600  
G14  22812548.477                    22812559.434   119880740.116                    93413584.152          42.000                          43.200  
G12  24173096.273                    24173106.262   127030489.051                    98984827.587          37.100                          36.600  
G09  23794605.797                    23794621.496   125041540.323                    97435008.398          37.800                          40.600  
R01  20956877.930    20956876.180                                   112026690.430   112026505.440                                          43.600          42.600                                  
R02  21009897.008    21009895.805    21009904.113    21009905.199   112112838.832   112112825.841    87198863.769    87198869.773          47.700          46.300          46.200          46.300  
R18  21639674.945    21639673.520    21639681.758    21639681.695   115514052.517   115514045.498    89844259.617    89844264.620          43.300          41.800          45.900          45.700  
R15  21394772.383    21394772.969    21394782.465    21394782.609   114327018.765   114327161.786    88921119.605    88921124.607          46.900          45.100          45.100          45.800  
R16  21457167.781    21457166.621    21457174.164    21457174.605   114620498.517   114620321.528    89149136.483    89149142.488          48.000          45.700          46.300          47.400  
R17  19664622.742    19664620.984    19664628.242    19664628.395   105229360.925   105229352.923    81845054.403    81845058.398          51.400          49.300          48.500          49.500  
R24  21587156.250    21587155.316    21587164.578    21587164.152   115436235.773   115436204.784    89783715.121    89783721.124          45.800          44.000          46.600          46.600  
E13  26137117.422    26137128.152    26137126.230    26137128.371   137351484.306   102567652.780   105243330.188   103905480.587          42.300          44.800          45.700          51.200  
E15  23392264.055    23392272.215    23392270.289    23392272.340   122927177.200    91796295.749    94190973.000    92993658.984          48.200          48.200          49.300          55.300  
E21  26596847.320    26596854.570    26596854.336    26596855.934   139767371.119   104371774.101   107094505.178   105733148.243          43.700          40.000          44.200          48.000  
E27  24193398.461    24193406.570    24193404.598    24193406.785   127137164.841    94940074.777    97416772.805    96178417.397          47.600          48.200          49.100          54.600  
E30  25943822.523    25943833.230    25943831.449    25943833.328   136335696.540   101809155.619   104465035.240   103137110.536          44.900          45.100          46.700          52.000  
E05  25461485.328    25461496.902    25461495.355    25461497.910   133801016.352    99916341.741   102522855.296   101219577.124          41.400          40.400          42.300          47.200  
C20  24329601.195                   126690627.772                          44.100                  
C13  38877527.500    38877536.734   202445493.715   156543681.997          39.200          40.000  
C04  38417767.156    38417767.762   200051402.248   154692430.253          36.900          40.700  
C03  37394959.398    37394960.664   194725370.985   150574007.415          38.600          41.700  
C02  38875553.516    38875555.785   202435302.043   156535750.346          34.300          41.400  
C01  37950369.102    37950371.316   197617533.563   152810414.901          38.400          42.600  
C30  21909719.859                   114089657.517                          48.400                  
C29  22364310.383                   116456832.477                          46.300                  
C27  25371398.328                   132115515.551                          37.400                  
> 2025 04 10 06 34 50.0000000  0 32
G11  23414770.555                    23414779.328   123045452.474                    95879607.021          41.800                          43.900  
G17  20625371.195                    20625377.969   108387052.921                    84457466.908          47.100                          47.100  
G22  21927742.875    21927749.855                   115231061.021    89790462.058                          45.400          32.700                  
G03  22230623.570                    22230633.383   116822705.895                    91030719.541          42.000                          45.100  
G06  21056548.219                    21056557.309   110652904.356                    86223083.516          47.900                          47.600  
G19  19822049.313    19822053.070                   104165570.412    81167991.131                          48.000          41.800                  
G04  23491668.563                    23491679.965   123449557.026                    96194515.561          39.200                          40.400  
G14  22815303.953                    22815314.727   119895216.964                    93424864.788          42.100                          43.500  
G12  24169667.945                    24169674.445   127012457.112                    98970776.771          38.400                          37.000  
G09  23791109.609                    23791125.523   125023169.196                    97420693.359          37.800                          40.100  
R01  20957072.156    20957070.172                                   112027730.026   112027545.016                                          44.900          43.200                                  
R02  21006528.172    21006526.852    21006535.785    21006536.098   112094862.580   112094849.583    87184882.252    87184888.264          47.000          46.000          45.500          45.700  
R18  21636797.570    21636795.676    21636804.496    21636804.000   115498689.665   115498682.656    89832310.742    89832315.752          45.100          42.700          46.700          46.700  
R15  21397025.438    21397025.672    21397035.563    21397035.254   114339057.483   114339200.490    88930483.054    88930488.049          46.000          45.100          45.500          45.800  
R16  21456002.953    21456002.848    21456010.566    21456011.785   114614284.268   114614107.266    89144303.183    89144309.179          46.500          44.900          45.700          46.600  
R17  19663720.961    19663719.555    19663726.246    19663726.297   105224537.175   105224529.175    81841302.595    81841306.599          50.700          49.300          48.500          50.000  
R24  21588717.938    21588718.059    21588727.324    21588726.516   115444590.989   115444560.015    89790213.632    89790219.636          44.800          43.800          45.300          45.700  
E13  26134619.859    26134630.551    26134628.629    26134631.012   137338360.921   102557852.861   105233274.615   103895552.843          41.400          43.500          44.900          50.100  
E15  23391507.578    23391515.809    23391514.262    23391516.078   122923201.997    91793327.253    94187927.067    92990651.767          48.500          48.000          49.200          55.500  
E21  26594305.734    26594313.773    26594313.305    26594314.879   139754017.948   104361802.584   107084273.550   105723046.674          43.300          40.700          43.600          48.200  
E27  24193368.195    24193376.266    24193374.012    24193376.395   127137005.056    94939955.441    97416650.366    96178296.511          47.600          47.500          48.500          54.900  
E30  25945909.336    25945919.863    25945918.176    25945919.898   136346662.114   101817344.182   104473437.421   103145405.906          44.200          44.700          46.100          51.600  
E05  25459724.023    25459735.168    25459733.387    25459736.211   133791757.916    99909427.985   102515761.210   101212573.205          41.200          41.400          44.300          48.900  
C20  24325941.148                   126671569.799                          43.600                  
C13  38875689.445    38875698.859   202435920.982   156536279.752          40.400          39.500  
C04  38417072.734    38417074.141   200047788.343   154689635.776          36.000          40.400  
C03  37394289.727    37394290.238   194721879.880   150571307.881          39.200          41.800  
C02  38874868.930    38874870.512   202431736.058   156532992.896          34.500          41.000  
C01  37949706.578    37949708.629   197614080.091   152807744.469          38.400          42.200  
C30  21909997.320                   114091101.961                          48.800                  
C29  22362124.891                   116445450.889                          47.300                  
C27  25373169.492                   132124741.217                          41.000                  
> 2025 04 10 06 34 55.0000000  0 32
G11  23411651.039                    23411660.434   123029060.187                    95866833.817          41.800                          44.700  
G17  20625624.977                    20625631.305   108388386.365                    84458505.944          47.000                          47.200  
G22  21929488.961    21929495.965                   115240237.412    89797612.482                          45.600          32.600                  
G03  22232817.117                    22232827.316   116834235.325                    91039703.504          41.600                          44.700  
G06  21054651.250                    21054660.770   110642940.012                    86215319.092          47.000                          47.700  
G19  19820543.727    19820547.039                   104157657.538    81161825.268                          48.000          41.800                  
G04  23489152.117                    23489164.070   123436333.509                    96184211.569          40.100                          40.600  
G14  22818059.836                    22818071.051   119909703.500                    93436152.950          41.700                          43.400  
G12  24166237.039                    24166246.637   126994440.396                    98956737.772          36.400                          37.900  
G09  23787615.188                    23787630.551   125004806.338                    97406384.746          39.000                          40.500  
R01  20957270.727    20957270.500                                   112028797.139   112028612.157                                          43.200          42.600                                  
R02  21003163.125    21003161.570    21003170.973    21003171.105   112076906.989   112076893.992    87170916.828    87170922.847          47.500          46.600          46.000          46.000  
R18  21633920.148    21633919.191    21633928.184    21633927.215   115483335.347   115483328.367    89820368.530    89820373.542          44.000          43.200          46.100          47.200  
R15  21399283.117    21399282.645    21399292.086    21399291.996   114351114.995   114351258.004    88939861.071    88939866.067          46.100          45.000          46.400          47.000  
R16  21454845.797    21454845.223    21454852.359    21454852.676   114608097.413   114607920.411    89139491.179    89139497.176          45.900          44.400          46.100          47.300  
R17  19662822.008    19662820.957    19662827.629    19662827.527   105219725.973   105219717.992    81837560.564    81837564.566          51.200          49.500          49.500          49.900  
R24  21590283.047    21590281.762    21590290.883    21590290.652   115452955.521   115452924.545    89796719.371    89796725.368          45.400          44.300          45.300          46.100  
E13  26132123.875    26132134.871    26132133.465    26132135.328   137325245.944   102548059.227   105223225.488   103885631.465          40.500          44.100          45.900          51.000  
E15  23390753.273    23390761.184    23390759.543    23390761.484   122919236.802    91790366.235    94184888.800    92987652.124          48.600          48.300          50.100          55.400  
E21  26591767.328    26591775.246    26591774.684    26591776.496   139740678.148   104351841.034   107074052.128   105712955.186          43.800          41.100          44.500          48.600  
E27  24193340.828    24193349.023    24193347.008    24193349.266   127136862.108    94939848.693    97416540.832    96178188.371          47.600          47.800          49.100          54.900  
E30  25947997.633    25948008.461    25948006.820    25948008.668   136357637.730   101825540.236   104481847.290   103153708.869          43.000          45.600          46.800          51.800  
E05  25457964.633    25457977.020    25457974.770    25457977.387   133782514.338    99902525.327   102508678.476   101205580.513          41.600          42.400          44.700          49.000  
C20  24322283.188                   126652522.066                          43.500                  
C13  38873852.547    38873861.605   202426355.909   156528883.460          41.100          39.300  
C04  38416380.359    38416380.832   200044179.449   154686845.147          35.800          41.100  
C03  37393621.164    37393620.910   194718393.740   150568612.179          39.400          41.800  
C02  38874185.000    38874186.473   202428174.887   156530239.181          35.300          40.500  
C01  37949044.438    37949045.836   197610631.625   152805077.889          38.600          42.200  
C30  21910276.789                   114092557.534                          49.100                  
C29  22359940.875                   116434078.521                          46.600                  
C27  25374942.883                   132133973.992                          42.100                  
> 2025 04 10 06 35  0.0000000  0 32
G11  23408534.031                    23408542.625   123012678.077                    95854068.563          41.700                          45.100  
G17  20625881.734                    20625887.832   108389735.582                    84459557.281          47.000                          47.300  
G22  21931238.539    21931244.883                   115249429.699    89804775.296                          45.600          32.400                  
G03  22235014.023                    22235024.344   116845780.417                    91048699.658          41.300                          44.600  
G06  21052757.961                    21052767.652   110632989.279                    86207565.284          46.500                          47.200  
G19  19819041.406    19819044.965                   104149761.980    81155672.884                          47.900          42.200                  
G04  23486638.625                    23486650.070   123423125.779                    96173919.860          40.000                          40.500  
G14  22820818.328                    22820829.973   119924200.677                    93447449.401          41.000                          43.100  
G12  24162814.625                    24162821.082   126976439.986                    98942711.457          38.000                          36.900  
G09  23784122.055                    23784137.887   124986452.649                    97392083.233          41.300                          42.300  
R01  20957477.008    20957475.609                                   112029892.756   112029707.759                                          44.900          42.700                                  
R02  20999802.508    20999800.484    20999810.402    20999810.164   112058973.103   112058960.097    87156968.272    87156974.291          46.800          45.100          46.700          46.800  
R18  21631045.664    21631045.527    21631053.887    21631052.844   115467990.431   115467983.423    89808433.627    89808438.631          44.200          43.300          46.100          46.800  
R15  21401543.242    21401543.828    21401552.867    21401552.707   114363192.369   114363335.363    88949254.562    88949259.564          46.200          45.100          45.900          46.500  
R16  21453693.258    21453692.801    21453700.230    21453700.789   114601938.889   114601761.865    89134701.210    89134707.214          45.600          44.600          45.800          46.400  
R17  19661925.758    19661924.000    19661931.035    19661930.707   105214928.188   105214920.201    81833828.947    81833832.951          51.000          50.100          49.100          50.000  
R24  21591848.695    21591847.762    21591856.863    21591856.695   115461330.332   115461299.349    89803233.118    89803239.114          45.500          44.200          45.300          46.000  
E13  26129630.023    26129640.844    26129639.438    26129641.598   137312140.261   102538272.522   105213183.481   103875717.110          40.700          44.100          45.400          50.900  
E15  23390000.719    23390008.629    23390006.941    23390008.988   122915282.590    91787413.408    94181858.953    92984660.788          48.500          47.800          49.800          55.400  
E21  26589231.680    26589239.688    26589238.516    26589240.758   139727352.665   104341890.192   107063841.706   105702874.554          42.800          40.400          43.800          48.100  
E27  24193317.055    24193324.906    24193323.031    24193325.387   127136736.956    94939755.236    97416444.937    96178093.695          48.200          47.700          49.000          54.800  
E30  25950088.320    25950099.387    25950097.230    25950099.313   136368624.164   101833744.368   104490265.451   103162020.021          41.500          44.900          46.200          51.700  
E05  25456208.852    25456221.191    25456218.988    25456221.367   133773286.579    99895634.481   102501607.875   101198599.784          42.300          42.000          44.100          48.900  
C20  24318627.203                   126633485.486                          43.700                  
C13  38872017.242    38872026.551   202416799.456   156521493.814          40.600          39.700  
C04  38415687.875    38415688.867   200040576.508   154684059.121          36.200          41.300  
C03  37392952.445    37392952.531   194714913.509   150565921.044          39.200          41.400  
C02  38873502.172    38873504.293   202424619.519   156527489.950          35.000          41.000  
C01  37948383.586    37948384.941   197607189.061   152802415.868          38.800          41.600  
C30  21910558.625                   114094025.159                          48.400                  
C29  22357758.531                   116422716.281                          47.000                  
C27  25376717.648                   132143214.805                          42.300                  
> 2025 04 10 06 35  5.0000000  0 32
G11  23405418.125                    23405427.211   122996305.937                    95841311.100          42.100                          45.300  
G17  20626141.594                    20626147.656   108391100.178                    84460620.599          47.400                          47.400  
G22  21932990.984    21932997.867                   115258637.637    89811950.302                          45.900          33.300                  
G03  22237213.477                    22237224.055   116857340.860                    91057707.784          41.600                          43.900  
G06  21050867.070                    21050876.582   110623051.825                    86199821.819          47.600                          47.200  
G19  19817542.016    19817545.648                   104141883.469    81149533.784                          47.800          42.300                  
G04  23484127.570                    23484139.500   123409933.603                    96163640.259          39.600                          41.200  
G14  22823579.539                    22823590.887   119938708.201                    93458753.940          41.100                          43.900  
G12  24159390.656                    24159399.086   126958455.489                    98928697.612          37.600                          38.400  
G09  23780631.781                    23780647.141   124968107.914                    97377788.713          40.400                          42.200  
R01  20957686.711    20957685.898                                   112031016.559   112030831.563                                          44.300          42.800                                  
R02  20996444.758    20996444.496    20996453.879    20996453.305   112041060.628   112041047.631    87143036.346    87143042.357          47.000          46.200          46.700          47.100  
R18  21628173.430    21628171.770    21628179.863    21628179.707   115452654.664   115452647.657    89796505.787    89796510.797          45.400          43.200          46.100          45.800  
R15  21403806.891    21403807.125    21403816.156    21403816.086   114375289.405   114375432.406    88958663.341    88958668.352          47.000          45.700          46.000          46.400  
R16  21452545.172    21452544.246    21452552.355    21452552.309   114595808.359   114595631.364    89129933.022    89129939.025          46.100          44.600          46.300          46.500  
R17  19661031.555    19661030.148    19661037.043    19661036.949   105210143.433   105210135.425    81830107.471    81830111.475          51.100          49.500          49.900          49.900  
R24  21593417.211    21593415.809    21593425.004    21593424.453   115469715.300   115469684.309    89809754.749    89809760.753          45.000          43.700          45.400          45.900  
E13  26127138.164    26127148.441    26127146.941    26127149.215   137299043.626   102528492.603   105203148.436   103865809.622          42.100          44.500          45.900          51.300  
E15  23389250.156    23389258.086    23389256.398    23389258.480   122911338.987    91784468.516    94178837.228    92981677.475          48.600          47.700          49.100          55.300  
E21  26586698.641    26586706.832    26586705.566    26586707.664   139714041.164   104331949.787   107053641.988   105692804.492          43.200          41.200          43.700          48.600  
E27  24193296.477    24193304.668    24193302.602    24193304.855   127136629.262    94939674.800    97416362.407    96178012.210          47.600          48.000          49.800          54.900  
E30  25952180.898    25952191.922    25952189.578    25952191.992   136379621.221   101841956.427   104498691.740   103170339.192          42.600          44.700          46.200          51.300  
E05  25454455.656    25454468.473    25454465.750    25454468.336   133764074.258    99888755.173   102494549.104   101191630.745          40.700          42.400          43.800          48.900  
C20  24314973.641                   126614459.761                          43.400                  
C13  38870183.438    38870192.910   202407251.296   156514110.584          40.800          39.400  
C04  38414997.406    38414998.293   200036979.186   154681277.457          35.800          41.300  
C03  37392285.188    37392285.309   194711438.840   150563234.214          39.200          41.100  
C02  38872820.422    38872822.504   202421069.552   156524744.906          34.500          41.100  
C01  37947723.469    37947724.859   197603752.024   152799758.146          38.300          42.200  
C30  21910842.602                   114095504.535                          48.800                  
C29  22355578.398                   116411363.879                          46.500                  
C27  25378493.250                   132152463.351                          42.400                  
> 2025 04 10 06 35 10.0000000  0 32
G11  23402304.711                    23402313.410   122979943.293                    95828561.001          42.400                          44.100  
G17  20626404.109                    20626410.520   108392479.801                    84461695.629          47.100                          47.000  
G22  21934746.406    21934752.695                   115267860.737    89819137.113                          46.300          33.700                  
G03  22239416.719                    22239426.566   116868916.115                    91066727.443          41.600                          43.700  
G06  21048978.070                    21048987.469   110613127.259                    86192088.396          47.300                          47.800  
G19  19816046.273    19816049.578                   104134021.512    81143407.582                          47.600          41.800                  
G04  23481620.789                    23481632.340   123396756.533                    96153372.444          40.400                          40.400  
G14  22826341.813                    22826353.570   119953225.559                    93470066.114          41.400                          43.400  
G12  24155971.344                    24155979.656   126940486.643                    98914695.896          37.500                          37.500  
G09  23777142.328                    23777157.723   124949771.553                    97363500.756          40.300                          42.200  
R01  20957902.672    20957901.859                                   112032168.101   112031983.098                                          44.100          43.200                                  
R02  20993092.234    20993091.383    20993100.527    20993100.328   112023169.090   112023156.085    87129120.722    87129126.726          47.500          45.900          45.900          47.200  
R18  21625301.914    21625300.488    21625309.586    21625308.945   115437327.518   115437320.530    89784584.683    89784589.679          45.000          42.700          46.100          47.200  
R15  21406074.617    21406074.145    21406083.836    21406083.418   114387405.419   114387548.413    88968086.895    88968091.898          47.500          45.900          46.000          46.400  
R16  21451401.859    21451401.520    21451409.930    21451409.523   114589705.482   114589528.482    89125186.356    89125192.353          45.500          44.600          46.500          46.600  
R17  19660139.641    19660139.059    19660145.719    19660145.203   105205371.314   105205363.300    81826395.821    81826399.817          51.600          50.000          49.300          49.300  
R24  21594986.492    21594985.676    21594995.090    21594994.988   115478109.848   115478078.842    89816283.815    89816289.817          45.100          43.500          44.900          45.700  
E13  26124647.766    26124657.902    26124655.887    26124658.750   137285955.516   102518719.019   105193119.896   103855908.563          40.900          44.500          45.900          51.000  
E15  23388501.641    23388509.645    23388507.910    23388510.000   122907405.623    91781531.256    94175823.350    92978701.914          48.000          48.300          49.300          55.500  
E21  26584168.469    26584176.434    26584174.793    26584177.137   139700743.298   104322019.555   107043452.709   105682744.736          43.100          40.800          44.000          48.400  
E27  24193279.391    24193287.270    24193285.723    24193287.664   127136538.599    94939607.101    97416292.938    96177943.623          47.800          48.300          49.100          55.000  
E30  25954274.813    25954286.648    25954284.211    25954286.656   136390628.374   101850176.032   104507125.765   103178666.005          42.300          44.400          46.000          51.200  
E05  25452704.828    25452718.078    25452715.125    25452718.074   133754877.037    99881887.148   102487501.902   101184673.133          40.600          42.500          43.300          48.600  
C20  24311321.727                   126595444.491                          43.400                  
C13  38868351.836    38868361.156   202397711.032   156506733.469          40.500          39.200  
C04  38414306.727    38414308.020   200033387.118   154678499.828          36.600          40.800  
C03  37391619.133    37391619.152   194707969.337   150560551.379          39.600          41.600  
C02  38872140.547    38872141.547   202417524.654   156522003.769          34.600          40.500  
C01  37947064.383    37947065.676   197600320.240   152797104.471          38.500          42.000  
C30  21911129.094                   114096995.249                          48.800                  
C29  22353400.164                   116400020.861                          46.700                  
C27  25380271.047                   132161719.229                          42.300                  
> 2025 04 10 06 35 15.0000000  0 32
G11  23399192.375                    23399201.648   122963591.236                    95815819.139          42.600                          43.700  
G17  20626669.453                    20626675.605   108393875.532                    84462783.205          47.000                          46.700  
G22  21936504.500    21936510.832                   115277100.101    89826336.606                          45.800          34.000                  
G03  22241622.586                    22241632.168   116880507.443                    91075759.637          41.400                          43.900  
G06  21047092.898                    21047101.871   110603216.709                    86184365.883          47.600                          47.600  
G19  19814553.711    19814557.043                   104126177.318    81137295.230                          47.600          42.100                  
G04  23479116.773                    23479128.035   123383595.750                    96143117.303          39.500                          42.000  
G14  22829106.969                    22829117.328   119967753.920                    93481386.870          42.200                          44.700  
G12  24152556.867                    24152563.125   126922534.373                    98900707.122          37.600                          37.600  
G09  23773654.922                    23773670.523   124931444.750                    97349220.231          37.900                          41.400  
R01  20958123.227    20958122.766                                   112033348.283   112033163.309                                          44.700          43.500                                  
R02  20989743.680    20989742.828    20989752.273    20989751.934   112005299.702   112005286.690    87115222.316    87115228.313          47.400          45.500          46.600          47.300  
R18  21622432.086    21622431.480    21622440.340    21622439.656   115422010.222   115422003.206    89772671.253    89772676.263          45.700          43.100          45.900          46.900  
R15  21408345.797    21408345.797    21408354.531    21408354.285   114399541.596   114399684.603    88977526.142    88977531.145          47.500          45.600          45.300          46.300  
R16  21450264.531    21450264.074    21450272.523    21450272.633   114583631.415   114583454.442    89120462.076    89120468.079          45.700          44.100          46.300          46.600  
R17  19659250.164    19659248.879    19659256.129    19659255.516   105200612.936   105200604.935    81822694.863    81822698.859          51.200          49.300          49.600          49.600  
R24  21596558.500    21596557.098    21596566.602    21596566.496   115486515.072   115486484.090    89822821.195    89822827.198          45.500          43.400          46.500          46.200  
E13  26122158.984    26122169.199    26122167.184    26122169.906   137272877.188   102508952.743   105183098.831   103846014.896          42.100          43.800          45.700          50.700  
E15  23387755.469    23387763.164    23387761.570    23387763.695   122903483.543    91778602.439    94172818.125    92975734.890          48.000          48.000          49.300          55.400  
E21  26581640.500    26581648.715    26581646.980    26581649.371   139687460.156   104312100.348   107033274.749   105672696.149          42.200          41.200          44.200          48.300  
E27  24193265.906    24193273.262    24193271.570    24193273.723   127136466.089    94939552.953    97416237.381    96177888.773          48.000          48.500          49.100          55.000  
E30  25956371.922    25956383.563    25956380.797    25956383.523   136401646.783   101858404.027   104515568.423   103187001.331          41.900          45.900          46.600          52.200  
E05  25450958.219    25450970.742    25450967.789    25450970.754   133745695.962    99875031.205   102480467.090   101177727.752          41.200          42.600          43.700          48.700  
C20  24307672.617                   126576440.738                          43.100                  
C13  38866521.055    38866530.246   202388179.792   156499363.329          41.200          39.500  
C04  38413618.805    38413619.801   200029801.300   154675727.076          35.900          41.100  
C03  37390953.773    37390954.152   194704506.135   150557873.415          40.000          42.100  
C02  38871460.320    38871462.461   202413985.938   156519267.396          34.300          41.400  
C01  37946406.531    37946407.875   197596894.618   152794455.578          39.200          42.600  
C30  21911417.555                   114098498.401                          48.300                  
C29  22351224.039                   116388688.354                          46.600                  
C27  25382049.758                   132170983.467                          41.900                  
> 2025 04 10 06 35 20.0000000  0 32
G11  23396082.758                    23396091.859   122947249.113                    95803085.055          42.800                          44.500  
G17  20626938.391                    20626944.496   108395286.604                    84463882.740          47.200                          47.200  
G22  21938265.367    21938272.469                   115286355.042    89833548.224                          45.400          33.700                  
G03  22243831.078                    22243841.133   116892113.954                    91084803.659          41.800                          43.400  
G06  21045209.172                    21045218.363   110593319.383                    86176653.695          47.200                          47.500  
G19  19813064.031    19813067.227                   104118350.111    81131196.096                          48.000          42.400                  
G04  23476614.484                    23476626.223   123370450.479                    96132874.254          39.700                          41.000  
G14  22831873.781                    22831884.855   119982292.456                    93492715.574          40.600                          43.000  
G12  24149140.555                    24149150.102   126904598.083                    98886730.807          37.400                          37.600  
G09  23770168.813                    23770184.375   124913126.825                    97334946.618          37.100                          40.200  
R01  20958350.359    20958348.141                                   112034556.725   112034371.735                                          44.400          43.700                                  
R02  20986399.078    20986397.758    20986407.035    20986407.137   111987451.632   111987438.626    87101340.525    87101346.529          47.500          46.700          45.100          46.700  
R18  21619564.164    21619562.855    21619572.125    21619571.574   115406701.946   115406694.952    89760764.847    89760769.843          45.100          43.000          46.000          46.900  
R15  21410619.625    21410619.035    21410628.676    21410628.586   114411697.207   114411840.207    88986980.495    88986985.491          46.300          45.100          45.600          46.700  
R16  21449133.398    21449132.473    21449140.496    21449140.973   114577585.240   114577408.253    89115759.481    89115765.485          46.500          45.000          46.200          46.300  
R17  19658363.602    19658362.434    19658369.535    19658368.965   105195867.633   105195859.638    81819004.077    81819008.081          51.800          49.600          49.100          49.800  
R24  21598131.703    21598130.652    21598140.066    21598140.047   115494930.191   115494899.188    89829366.271    89829372.275          45.200          43.900          45.500          45.600  
E13  26119671.617    26119682.738    26119680.297    26119683.023   137259807.754   102499193.104   105173084.603   103836127.961          42.200          44.100          46.100          51.000  
E15  23387011.039    23387018.867    23387017.133    23387019.285   122899572.070    91775681.533    94169821.019    92972775.882          47.800          47.700          48.800          55.300  
E21  26579115.414    26579124.199    26579122.043    26579124.484   139674190.989   104302191.549   107023107.449   105662658.110          42.100          41.800          44.100          48.800  
E27  24193255.680    24193263.180    24193261.445    24193263.414   127136410.988    94939511.800    97416195.151    96177847.082          48.300          47.600          48.500          54.900  
E30  25958470.961    25958482.074    25958479.543    25958482.270   136412675.615   101866639.844   104524019.081   103195344.576          42.700          44.600          46.200          51.500  
E05  25449214.391    25449226.543    25449223.871    25449226.633   133736530.373    99868186.802   102473444.138   101170794.081          41.000          42.900          43.300          48.800  
C20  24304025.094                   126557447.846                          42.000                  
C13  38864692.492    38864701.543   202378656.800   156491999.588          40.800          39.900  
C04  38412931.375    38412932.164   200026221.097   154672958.613          36.300          41.100  
C03  37390289.461    37390289.938   194701048.416   150555199.683          39.300          41.700  
C02  38870781.945    38870783.309   202410452.601   156516535.220          34.100          41.600  
C01  37945749.852    37945751.117   197593474.592   152791810.999          38.100          41.100  
C30  21911708.727                   114100013.242                          48.800                  
C29  22349049.953                   116377365.649                          46.500                  
C27  25383830.344                   132180255.402                          41.600                  
> 2025 04 10 06 35 25.0000000  0 32
G11  23392974.922                    23392983.898   122930916.760                    95790358.566          42.900                          44.500  
G17  20627209.633                    20627215.758   108396713.017                    84464994.226          47.900                          47.000  
G22  21940028.953    21940036.273                   115295625.490    89840771.942                          45.600          33.800                  
G03  22246042.547                    22246052.684   116903735.609                    91093859.489          41.600                          44.100  
G06  21043327.883                    21043337.160   110583435.206                    86168951.744          47.400                          47.600  
G19  19811577.461    19811580.758                   104110539.813    81125110.144                          47.600          42.000                  
G04  23474115.773                    23474127.691   123357320.631                    96122643.241          39.900                          42.800  
G14  22834641.781                    22834653.082   119996841.147                    93504052.156          40.800                          44.100  
G12  24145734.641                    24145739.895   126886677.565                    98872766.763          38.700                          37.600  
G09  23766685.328                    23766700.215   124894817.781                    97320679.939          37.700                          40.300  
R01  20958580.688    20958579.758                                   112035793.113   112035608.132                                          44.900          43.100                                  
R02  20983058.586    20983057.266    20983066.145    20983066.578   111969624.749   111969611.736    87087475.186    87087481.189          47.200          46.000          46.700          46.300  
R18  21616697.461    21616697.441    21616705.488    21616705.227   115391402.658   115391395.664    89748865.408    89748870.420          44.600          43.500          46.400          46.400  
R15  21412897.719    21412897.246    21412907.285    21412907.145   114423872.123   114424015.132    88996449.862    88996454.858          47.300          45.100          45.700          46.300  
R16  21448007.125    21448006.668    21448014.457    21448015.438   114571567.025   114571390.053    89111078.672    89111084.676          45.800          44.900          46.500          46.700  
R17  19657479.828    19657478.305    19657485.508    19657485.238   105191135.317   105191127.323    81815323.380    81815327.382          51.400          49.400          49.800          50.200  
R24  21599707.383    21599706.215    21599715.414    21599715.664   115503355.204   115503324.220    89835919.037    89835925.040          44.700          43.600          45.600          45.900  
E13  26117186.211    26117197.516    26117194.938    26117197.641   137246747.220   102489440.125   105163077.198   103826247.771          41.800          43.800          45.600          50.800  
E15  23386268.438    23386276.445    23386274.664    23386276.934   122895671.088    91772768.468    94166831.961    92969824.821          48.300          47.900          49.700          55.300  
E21  26576593.141    26576602.004    26576599.707    26576602.059   139660935.740   104292293.151   107012950.833   105652630.600          42.400          41.800          44.500          48.800  
E27  24193248.070    24193256.063    24193254.188    24193256.176   127136373.221    94939483.592    97416166.210    96177818.508          48.200          48.000          49.100          54.900  
E30  25960571.609    25960582.578    25960580.234    25960582.914   136423714.917   101874883.449   104532477.743   103203695.706          42.200          44.800          46.400          51.700  
E05  25447472.992    25447485.066    25447483.145    25447485.242   133727380.173    99861353.886   102466432.966   101163872.034          40.800          42.800          43.800          49.000  
C20  24300380.039                   126538465.774                          42.800                  
C13  38862865.453    38862874.637   202369141.950   156484642.106          41.200          40.200  
C04  38412244.656    38412245.980   200022646.382   154670194.418          36.000          40.900  
C03  37389626.836    37389627.227   194697596.187   150552530.200          38.900          42.000  
C02  38870104.242    38870106.098   202406924.688   156513807.217          34.000          41.400  
C01  37945094.133    37945095.297   197590060.019   152789170.630          38.300          42.100  
C30  21912001.641                   114101539.718                          48.300                  
C29  22346877.117                   116366052.664                          46.200                  
C27  25385612.602                   132189534.938                          41.200                  
> 2025 04 10 06 35 30.0000000  0 32
G11  23389868.867                    23389877.719   122914594.849                    95777640.204          43.200                          44.000  
G17  20627484.250                    20627490.598   108398155.337                    84466118.109          47.300                          47.400  
G22  21941796.352    21941803.516                   115304912.021    89848008.198                          45.500          33.300                  
G03  22248256.984                    22248266.832   116915372.999                    91102927.564          41.600                          44.500  
G06  21041449.953                    21041458.941   110573564.836                    86161260.552          47.000                          47.000  
G19  19810094.625    19810098.375                   104102747.021    81119037.831                          48.300          41.200                  
G04  23471620.125                    23471632.023   123344206.813                    96112424.697          39.900                          41.100  
G14  22837412.500                    22837424.027   120011400.575                    93515397.124          41.100                          43.300  
G12  24142322.633                    24142333.059   126868773.608                    98858815.670          38.100                          37.400  
G09  23763202.117                    23763218.223   124876518.073                    97306420.523          38.700                          40.700  
R01  20958817.914    20958815.578                                   112037058.135   112036873.131                                          45.500          43.000                                  
R02  20979721.180    20979720.918    20979729.086    20979730.141   111951819.816   111951806.812    87073626.922    87073632.926          46.700          45.500          46.200          45.800  
R18  21613833.656    21613833.520    21613841.109    21613840.828   115376112.964   115376105.948    89736973.434    89736978.437          44.400          43.300          46.000          45.800  
R15  21415180.438    21415178.793    21415188.445    21415188.582   114436067.038   114436210.038    89005934.765    89005939.768          46.700          44.500          45.400          45.500  
R16  21446885.547    21446885.441    21446892.750    21446892.641   114565577.512   114565400.508    89106420.110    89106426.121          45.500          44.300          46.400          47.300  
R17  19656597.367    19656596.199    19656603.785    19656602.977   105186416.562   105186408.568    81811653.238    81811657.235          51.400          49.300          49.800          49.900  
R24  21601285.352    21601283.711    21601292.520    21601292.809   115511790.751   115511759.784    89842480.012    89842486.009          45.400          43.800          44.600          45.500  
E13  26114702.703    26114714.324    26114711.086    26114714.070   137233696.206   102479694.271   105153077.092   103816374.793          41.700          44.500          45.100          50.800  
E15  23385528.461    23385536.316    23385534.582    23385536.832   122891781.205    91769863.677    94163851.400    92966882.144          47.900          48.500          49.500          55.500  
E21  26574073.109    26574082.180    26574079.926    26574082.367   139647694.956   104282405.559   107002805.307   105642614.044          42.100          41.600          44.400          48.800  
E27  24193244.094    24193252.289    24193250.363    24193252.484   127136353.398    94939468.766    97416151.001    96177803.490          48.100          48.200          49.000          54.800  
E30  25962674.531    25962685.066    25962683.332    25962685.676   136434765.157   101883135.242   104540944.804   103212055.137          44.000          44.000          46.100          51.100  
E05  25445734.281    25445746.953    25445745.781    25445747.180   133718245.986    99854532.922   102459434.058   101156962.095          41.200          42.800          44.500          49.400  
C20  24296737.047                   126519495.059                          43.900                  
C13  38861039.328    38861048.691   202359635.915   156477291.464          40.500          39.700  
C04  38411559.227    38411560.219   200019077.778   154667434.955          36.300          40.600  
C03  37388964.703    37388965.125   194694150.009   150549865.401          39.300          42.000  
C02  38869427.109    38869429.500   202403402.669   156511083.780          33.700          41.000  
C01  37944439.578    37944441.063   197586651.503   152786534.939          38.400          41.800  
C30  21912297.148                   114103078.408                          48.500                  
C29  22344706.461                   116354749.950                          46.400                  
C27  25387396.188                   132198822.661                          41.800                  
> 2025 04 10 06 35 35.0000000  0 32
G11  23386765.484                    23386773.930   122898283.129                    95764929.794          43.700                          44.800  
G17  20627761.938                    20627768.008   108399613.348                    84467254.226          47.500                          46.900  
G22  21943566.938    21943573.340                   115314214.351    89855256.733                          44.900          34.100                  
G03  22250474.492                    22250484.746   116927025.871                    91112007.727          41.400                          44.700  
G06  21039574.313                    21039583.645   110563708.005                    86153579.902          47.600                          47.300  
G19  19808614.656    19808618.469                   104094971.594    81112979.063                          48.400          42.100                  
G04  23469128.727                    23469139.926   123331108.897                    96102218.591          39.400                          41.300  
G14  22840184.914                    22840196.582   120025970.444                    93526750.209          40.500                          43.100  
G12  24138924.289                    24138929.781   126850885.854                    98844877.157          38.400                          37.600  
G09  23759721.578                    23759737.012   124858227.690                    97292168.369          39.200                          40.500  
R01  20959059.414    20959057.664                                   112038351.499   112038166.479                                          44.600          43.100                                  
R02  20976388.844    20976387.289    20976396.207    20976396.836   111934036.827   111934023.822    87059795.728    87059801.732          47.700          46.400          46.100          45.900  
R18  21610971.250    21610970.527    21610978.855    21610978.723   115360832.654   115360825.662    89725088.757    89725093.760          45.300          42.900          46.100          46.300  
R15  21417466.766    21417467.117    21417475.766    21417475.859   114448281.594   114448424.594    89015434.949    89015439.959          46.700          45.500          45.700          45.800  
R16  21445770.641    21445769.949    21445777.262    21445777.480   114559616.184   114559439.182    89101783.552    89101789.548          46.800          44.800          46.200          46.300  
R17  19655717.406    19655716.590    19655723.949    19655723.605   105181711.117   105181703.123    81807993.452    81807997.448          50.400          49.100          49.800          50.200  
R24  21602864.336    21602863.051    21602872.059    21602872.375   115520236.474   115520205.476    89849048.874    89849054.870          45.600          44.100          44.600          45.300  
E13  26112221.250    26112232.313    26112229.543    26112232.258   137220654.422   102469955.294   105143084.061   103806508.788          42.400          44.300          44.800          50.900  
E15  23384790.188    23384798.031    23384796.484    23384798.637   122887902.183    91766967.010    94160879.159    92963947.693          47.700          47.900          49.000          55.400  
E21  26571556.305    26571565.559    26571562.793    26571565.543   139634468.562   104272528.699   106992670.788   105632608.349          42.700          41.900          44.400          49.000  
E27  24193243.594    24193251.730    24193249.668    24193252.078   127136351.273    94939467.175    97416149.370    96177801.879          48.300          47.500          48.900          54.900  
E30  25964779.469    25964790.078    25964788.203    25964790.574   136445826.187   101891395.082   104549420.127   103220422.711          44.300          44.000          46.300          51.300  
E05  25443999.672    25444011.805    25444010.680    25444012.070   133709127.565    99847723.724   102452447.227   101150064.081          41.200          42.200          44.200          49.600  
C20  24293096.234                   126500535.537                          44.100                  
C13  38859215.406    38859225.125   202350138.426   156469947.415          40.700          39.600  
C04  38410875.484    38410876.215   200015515.094   154664680.062          35.800          40.800  
C03  37388304.430    37388304.117   194690709.660   150547205.112          39.200          42.000  
C02  38868752.672    38868754.289   202399886.336   156508364.732          33.500          41.000  
C01  37943786.000    37943787.516   197583248.820   152783903.779          38.100          41.500  
C30  21912595.023                   114104629.103                          48.400                  
C29  22342538.492                   116343457.358                          46.700                  
C27  25389181.188                   132208118.409                          40.400                  
> 2025 04 10 06 35 40.0000000  0 32
G11  23383663.656                    23383671.383   122881981.099                    95752226.906          43.700                          43.800  
G17  20628042.117                    20628048.051   108401086.572                    84468402.189          47.100                          46.800  
G22  21945339.453    21945346.160                   115323532.008    89862517.237                          44.100          33.000                  
G03  22252695.211                    22252705.055   116938693.783                    91121099.591          41.600                          43.800  
G06  21037700.641                    21037710.719   110553864.218                    86145909.438          46.400                          47.600  
G19  19807138.305    19807142.074                   104087212.970    81106933.378                          47.900          42.000                  
G04  23466638.625                    23466650.156   123318026.334                    96092024.414          39.900                          41.700  
G14  22842959.609                    22842970.727   120040550.294                    93538111.064          41.000                          43.700  
G12  24135519.000                    24135527.930   126833013.877                    98830950.988          37.600                          38.200  
G09  23756242.844                    23756258.648   124839945.914                    97277922.957          40.800                          40.900  
R01  20959306.211    20959304.930                                   112039672.689   112039487.687                                          43.600          42.200                                  
R02  20973060.711    20973058.688    20973068.273    20973068.102   111916274.951   111916261.969    87045980.962    87045986.966          48.000          46.600          46.200          46.800  
R18  21608111.234    21608109.926    21608118.082    21608118.066   115345561.192   115345554.201    89713210.962    89713215.972          45.800          44.400          46.400          46.500  
R15  21419756.281    21419756.281    21419765.344    21419765.004   114460515.222   114460658.229    89024949.982    89024955.000          47.300          46.000          45.900          46.300  
R16  21444659.500    21444658.340    21444666.477    21444666.871   114553682.616   114553505.629    89097168.562    89097174.563          46.600          45.300          46.800          46.800  
R17  19654841.242    19654840.074    19654847.000    19654846.770   105177018.588   105177010.594    81804343.703    81804347.706          50.600          49.800          50.000          50.100  
R24  21604446.484    21604444.844    21604454.031    21604453.977   115528692.004   115528661.028    89855625.399    89855631.389          46.100          43.900          45.500          46.300  
E13  26109741.477    26109751.840    26109749.262    26109752.125   137207621.345   102460222.822   105133097.692   103796649.366          41.800          43.700          44.900          50.600  
E15  23384053.953    23384061.762    23384060.262    23384062.367   122884033.558    91764078.099    94157914.890    92961021.103          47.900          47.800          49.800          55.400  
E21  26569041.797    26569051.004    26569048.848    26569051.238   139621255.931   104262662.152   106982546.844   105622613.106          42.200          42.100          44.100          48.900  
E27  24193246.547    24193254.656    24193252.406    24193254.949   127136366.335    94939478.418    97416160.904    96177813.270          47.800          47.500          49.200          54.800  
E30  25966885.938    25966896.844    25966894.828    25966897.230   136456897.467   101899662.580   104557903.294   103228798.047          43.700          44.500          46.400          51.700  
E05  25442267.391    25442279.285    25442277.832    25442279.492   133700024.445    99840925.964   102445472.127   101143177.653          41.100          43.300          44.500          49.500  
C20  24289456.375                   126481586.663                          44.100                  
C13  38857393.641    38857403.355   202340648.962   156462609.581          40.000          39.900  
C04  38410191.555    38410193.074   200011957.728   154661929.280          35.800          41.600  
C03  37387644.148    37387644.773   194687274.629   150544548.918          39.200          42.300  
C02  38868078.141    38868079.832   202396375.165   156505649.662          33.500          40.800  
C01  37943133.531    37943135.297   197579851.467   152781276.731          38.100          41.600  
C30  21912895.141                   114106191.306                          48.400                  
C29  22340371.539                   116332174.346                          47.000                  
C27  25390967.844                   132217421.553                          41.100                  
> 2025 04 10 06 35 45.0000000  0 32
G11  23380563.133                    23380570.781   122865688.262                    95739531.222          43.300                          43.400  
G17  20628325.297                    20628331.000   108402574.497                    84469561.590          47.000                          47.000  
G22  21947115.648    21947122.469                   115332864.460    89869789.266                          44.200          32.600                  
G03  22254918.289                    22254928.273   116950376.102                    91130202.686          41.700                          43.600  
G06  21035830.133                    21035840.035   110544033.023                    86138248.771          46.700                          47.800  
G19  19805665.344    19805668.547                   104079470.700    81100900.442                          47.800          42.200                  
G04  23464152.234                    23464162.953   123304958.698                    96081841.871          40.500                          41.200  
G14  22845736.055                    22845747.602   120055139.616                    93549479.339          41.600                          43.000  
G12  24132122.992                    24132130.133   126815157.274                    98817036.732          37.400                          38.400  
G09  23752765.164                    23752780.867   124821672.466                    97263684.014          40.800                          41.100  
R01  20959558.281    20959557.469                                   112041021.255   112040836.267                                          43.900          43.000                                  
R02  20969736.305    20969734.750    20969743.926    20969744.297   111898533.692   111898520.694    87032182.224    87032188.234          48.300          46.800          46.400          46.400  
R18  21605251.711    21605250.402    21605258.535    21605257.840   115330298.107   115330291.108    89701339.687    89701344.690          45.000          44.000          46.700          46.600  
R15  21422049.961    21422048.785    21422058.168    21422057.902   114472767.609   114472910.618    89034479.602    89034484.605          48.200          46.000          45.600          46.100  
R16  21443552.664    21443552.793    21443560.480    21443560.980   114547776.490   114547599.480    89092574.896    89092580.906          45.800          44.900          47.100          47.600  
R17  19653965.930    19653965.699    19653972.441    19653971.785   105172338.387   105172330.400    81800703.549    81800707.552          50.500          49.500          49.900          50.300  
R24  21606028.359    21606027.191    21606036.703    21606036.836   115537156.768   115537125.754    89862209.087    89862215.082          44.500          43.800          44.700          45.700  
E13  26107262.453    26107273.195    26107270.852    26107273.523   137194596.623   102450496.563   105123117.708   103786796.244          42.400          43.600          45.600          50.600  
E15  23383319.719    23383327.535    23383326.082    23383328.172   122880174.809    91761196.563    94154958.183    92958101.979          48.400          47.500          49.800          55.400  
E21  26566530.609    26566539.297    26566537.281    26566539.496   139608056.666   104252805.553   106972433.129   105612627.945          42.000          41.900          44.600          49.000  
E27  24193252.867    24193260.684    24193258.480    24193261.023   127136398.137    94939502.159    97416185.268    96177837.322          47.800          48.000          49.000          54.900  
E30  25968994.547    25969005.797    25969003.918    25969006.156   136467978.521   101907937.364   104566393.941   103237180.759          43.700          44.000          46.400          51.800  
E05  25440536.898    25440550.301    25440547.863    25440550.051   133690936.160    99834139.248   102438508.368   101136302.416          40.100          43.600          44.300          49.700  
C20  24285819.344                   126462648.037                          43.700                  
C13  38855572.695    38855582.098   202331167.155   156455277.677          40.500          40.000  
C04  38409510.148    38409510.859   200008405.339   154659182.351          35.800          41.100  
C03  37386985.859    37386985.918   194683844.464   150541896.511          39.500          42.600  
C02  38867404.703    38867406.914   202392870.817   156502940.292          33.400          37.900  
C01  37942482.141    37942483.578   197576458.949   152778653.435          38.200          42.400  
C30  21913197.359                   114107764.561                          48.300                  
C29  22338206.211                   116320900.475                          47.300                  
C27  25392756.523                   132226731.713                          42.100                  
> 2025 04 10 06 35 50.0000000  0 32
G11  23377464.664                    23377472.234   122849405.675                    95726843.496          43.300                          43.800  
G17  20628611.250                    20628617.379   108404078.135                    84470733.261          47.100                          46.300  
G22  21948894.578    21948901.520                   115342212.729    89877073.625                          44.700          33.600                  
G03  22257143.813                    22257153.695   116962073.941                    91139317.863          41.500                          43.800  
G06  21033961.727                    21033971.281   110534215.358                    86130598.661          46.800                          47.700  
G19  19804195.477    19804198.500                   104071745.820    81094881.059                          48.200          42.200                  
G04  23461668.578                    23461680.059   123291906.940                    96071671.687          38.700                          41.800  
G14  22848514.172                    22848525.484   120069739.408                    93560855.763          42.700                          43.400  
G12  24128726.750                    24128735.359   126797316.919                    98803135.186          37.200                          36.500  
G09  23749289.492                    23749305.605   124803408.248                    97249452.261          39.800                          41.100  
R01  20959815.547    20959814.734                                   112042398.176   112042213.201                                          43.400          42.700                                  
R02  20966415.328    20966413.539    20966423.008    20966423.176   111880814.515   111880801.518    87018400.664    87018406.676          47.600          46.100          45.500          45.800  
R18  21602393.305    21602392.465    21602401.637    21602401.266   115315044.372   115315037.357    89689475.669    89689480.665          43.900          43.000          46.500          46.600  
R15  21424346.398    21424345.574    21424354.734    21424354.520   114485039.473   114485182.488    89044024.361    89044029.364          48.300          46.000          46.100          45.500  
R16  21442453.117    21442452.191    21442460.262    21442460.316   114541898.563   114541721.546    89088003.185    89088009.195          46.300          44.700          47.300          47.400  
R17  19653093.648    19653092.832    19653100.387    19653100.098   105167671.487   105167663.501    81797073.747    81797077.742          50.100          48.900          49.000          50.200  
R24  21607613.797    21607612.863    21607621.465    21607621.516   115545631.816   115545600.818    89868800.742    89868806.746          46.100          43.100          44.100          44.900  
E13  26104785.188    26104796.227    26104793.977    26104796.762   137181581.160   102440777.243   105113144.827   103776950.144          41.200          43.300          44.700          50.400  
E15  23382587.547    23382595.164    23382593.711    23382595.848   122876326.937    91758323.152    94152009.815    92955191.094          48.000          47.300          48.800          55.400  
E21  26564021.422    26564030.152    26564027.852    26564030.496   139594871.708   104242959.653   106962330.375   105602653.618          42.000          41.600          44.200          48.900  
E27  24193262.461    24193269.992    24193267.883    24193270.391   127136447.620    94939539.106    97416223.181    96177874.752          47.600          47.000          48.700          54.900  
E30  25971105.219    25971116.133    25971114.441    25971116.535   136479070.343   101916220.203   104574892.853   103245571.638          42.800          44.000          46.100          51.800  
E05  25438811.266    25438824.141    25438821.750    25438823.711   133681863.624    99827364.349   102431556.728   101129439.144          40.700          42.400          43.600          49.000  
C20  24282184.242                   126443720.612                          43.200                  
C13  38853753.625    38853762.504   202321693.873   156447952.344          40.800          40.200  
C04  38408828.797    38408829.426   200004858.772   154656439.926          35.900          40.900  
C03  37386328.250    37386328.301   194680420.164   150539248.619          39.300          41.400  
C02  38866731.930    38866734.129   202389371.158   156500234.461          33.900          39.600  
C01  37941831.469    37941833.586   197573072.337   152776034.685          37.900          41.600  
C30  21913501.641                   114109349.819                          48.100                  
C29  22336043.414                   116309636.690                          47.200                  
C27  25394545.578                   132236049.854                          39.800                  
> 2025 04 10 06 35 55.0000000  0 32
G11  23374367.078                    23374375.719   122833131.682                    95714162.490          43.000                          43.900  
G17  20628900.016                    20628906.285   108405595.884                    84471915.915          47.000                          46.800  
G22  21950676.352    21950683.625                   115351575.192    89884369.031                          45.000          33.600                  
G03  22259372.617                    22259382.418   116973785.611                    91148443.843          41.600                          43.700  
G06  21032095.992                    21032105.473   110524409.720                    86122957.895          47.000                          47.900  
G19  19802728.383    19802732.094                   104064036.660    81088873.917                          47.600          41.700                  
G04  23459187.844                    23459199.098   123278869.561                    96061512.734          39.500                          41.300  
G14  22851294.344                    22851305.773   120084348.072                    93572239.090          41.400                          43.100  
G12  24125334.859                    24125343.004   126779491.339                    98789245.119          36.800                          37.600  
G09  23745815.156                    23745831.031   124785151.750                    97235226.514          39.200                          40.900  
R01  20960079.023    20960078.094                                   112043801.846   112043616.857                                          44.500          43.200                                  
R02  20963098.313    20963096.992    20963105.895    20963105.934   111863115.404   111863102.399    87004634.701    87004640.713          47.300          46.600          46.000          46.100  
R18  21599538.102    21599536.793    21599545.266    21599545.105   115299798.446   115299791.431    89677617.754    89677622.757          44.700          44.300          46.900          47.000  
R15  21426645.641    21426644.113    21426654.059    21426653.430   114497329.325   114497472.340    89053583.123    89053588.118          46.900          45.300          45.500          46.400  
R16  21441357.961    21441357.387    21441366.270    21441366.285   114536047.476   114535870.468    89083452.338    89083458.327          46.900          44.600          47.200          48.200  
R17  19652223.883    19652223.535    19652230.785    19652230.461   105163016.409   105163008.423    81793453.127    81793457.124          51.000          48.900          49.200          49.900  
R24  21609200.281    21609199.582    21609207.844    21609207.883   115554115.475   115554084.484    89875399.166    89875405.163          45.400          44.000          44.400          44.300  
E13  26102310.102    26102320.754    26102319.020    26102321.367   137168573.373   102431063.649   105103177.828   103767109.845          42.200          42.800          44.700          50.500  
E15  23381857.320    23381864.922    23381863.656    23381865.578   122872488.365    91755456.686    94149068.571    92952287.238          48.100          47.200          48.600          55.400  
E21  26561514.578    26561523.402    26561521.855    26561523.891   139581699.516   104233123.302   106952237.416   105592688.966          41.100          41.500          43.900          49.200  
E27  24193274.680    24193282.492    24193280.477    24193282.914   127136513.271    94939588.128    97416273.477    96177924.409          47.900          47.000          48.200          55.000  
E30  25973217.156    25973228.801    25973226.926    25973228.902   136490171.297   101924509.859   104583398.752   103253969.415          42.100          43.500          45.600          51.700  
E05  25437087.367    25437100.578    25437097.766    25437100.063   133672805.317    99820600.050   102424615.969   101122586.616          40.700          42.300          43.000          48.800  
C20  24278551.367                   126424802.875                          42.700                  
C13  38851935.383    38851944.777   202312227.618   156440632.436          40.600          39.300  
C04  38408148.672    38408149.531   200001316.597   154653700.886          36.200          40.400  
C03  37385671.844    37385671.504   194677000.129   150536604.025          38.900          41.400  
C02  38866061.289    38866063.109   202385875.642   156497530.716          33.400          40.300  
C01  37941181.422    37941183.305   197569689.950   152773419.215          38.300          41.200  
C30  21913808.289                   114110945.504                          48.500                  
C29  22333881.938                   116298381.472                          47.300                  
C27  25396335.859                   132245374.459                          40.200                  
> 2025 04 10 06 36  0.0000000  0 32
G11  23371271.930                    23371280.688   122816866.748                    95701488.525          42.500                          44.100  
G17  20629191.727                    20629197.961   108407128.133                    84473109.871          47.000                          46.900  
G22  21952460.266    21952468.059                   115360952.248    89891675.807                          45.200          33.600                  
G03  22261604.492                    22261613.738   116985511.549                    91157580.930          41.400                          43.200  
G06  21030232.289                    21030241.777   110514616.412                    86115326.755          47.500                          47.600  
G19  19801264.453    19801267.512                   104056343.676    81082879.381                          47.700          42.600                  
G04  23456709.039                    23456720.656   123265846.870                    96051365.194          39.400                          41.000  
G14  22854076.531                    22854087.352   120098965.928                    93583629.596          41.700                          43.100  
G12  24121944.836                    24121953.094   126761680.894                    98775366.847          37.300                          37.100  
G09  23742342.594                    23742357.621   124766903.392                    97221007.092          34.800                          38.000  
R01  20960346.563    20960345.633                                   112045232.658   112045047.669                                          44.100          43.100                                  
R02  20959785.063    20959784.328    20959793.461    20959794.141   111845437.027   111845424.030    86990884.867    86990890.879          46.700          45.800          46.100          46.900  
R18  21596682.742    21596682.020    21596690.402    21596690.250   115284560.728   115284553.727    89665766.207    89665771.204          45.300          43.600          46.300          46.100  
R15  21428948.164    21428948.047    21428957.875    21428957.473   114509637.644   114509780.636    89063156.217    89063161.212          46.300          45.500          45.300          45.800  
R16  21440267.133    21440265.855    21440275.625    21440275.070   114530223.381   114530046.407    89078922.494    89078928.497          45.200          44.100          46.800          48.100  
R17  19651356.500    19651355.566    19651362.625    19651362.262   105158373.535   105158365.551    81789842.001    81789846.005          51.100          49.000          48.900          49.600  
R24  21610787.938    21610787.121    21610795.555    21610795.895   115562608.247   115562577.270    89882004.632    89882010.637          44.700          43.200          45.000          44.800  
E13  26099836.195    26099846.973    26099845.332    26099847.617   137155573.644   102421356.062   105093217.016   103757275.647          41.400          43.600          44.900          50.500  
E15  23381128.594    23381136.426    23381134.973    23381137.039   122868659.438    91752597.428    94146134.720    92949390.682          47.700          47.600          49.700          55.500  
E21  26559010.586    26559019.684    26559017.570    26559019.762   139568540.529   104223296.772   106942154.546   105582734.264          41.500          42.300          44.200          49.100  
E27  24193290.297    24193298.004    24193296.082    24193298.414   127136595.420    94939649.465    97416336.416    96177986.549          48.200          47.700          48.800          54.800  
E30  25975331.969    25975342.938    25975341.344    25975343.223   136501281.819   101932806.654   104591911.996   103262374.435          41.500          44.500          46.100          51.400  
E05  25435365.742    25435378.824    25435376.574    25435379.035   133663761.680    99813846.688   102417686.438   101115745.172          40.600          42.400          43.600          49.300  
C20  24274921.016                   126405895.191                          43.800                  
C13  38850119.219    38850127.953   202302768.767   156433318.264          40.900          39.900  
C04  38407469.305    38407470.508   199997779.079   154650965.467          35.900          41.400  
C03  37385015.031    37385015.746   194673584.777   150533963.077          39.200          41.700  
C02  38865391.000    38865392.395   202382383.679   156494830.451          34.300          41.400  
C01  37940533.719    37940535.008   197566312.228   152770807.345          38.500          42.100  
C30  21914116.547                   114112552.052                          48.700                  
C29  22331721.789                   116287135.208                          48.100                  
C27  25398128.445                   132254705.814                          38.800                  
> 2025 04 10 06 36  5.0000000  0 32
G11  23368178.555                    23368187.508   122800611.831                    95688822.368          42.000                          44.800  
G17  20629486.234                    20629492.531   108408675.908                    84474315.927          47.600                          46.400  
G22  21954248.008    21954255.371                   115370344.871    89898994.722                          45.500          33.900                  
G03  22263839.008                    22263848.473   116997252.760                    91166729.920          41.800                          43.600  
G06  21028371.078                    21028380.496   110504836.470                    86107706.037          47.800                          47.100  
G19  19799803.734    19799806.785                   104048667.852    81076898.220                          47.800          42.100                  
G04  23454234.109                    23454245.574   123252840.010                    96041230.027          38.200                          42.100  
G14  22856859.570                    22856871.160   120113593.990                    93595028.053          41.800                          43.000  
G12  24118559.750                    24118567.535   126743886.603                    98761501.171          37.700                          37.300  
G09  23738870.719                    23738887.098   124748664.119                    97206794.796          34.800                          39.100  
R01  20960620.438    20960619.039                                   112046691.647   112046506.637                                          44.600          43.700                                  
R02  20956476.141    20956475.406    20956484.426    20956484.902   111827780.116   111827767.104    86977151.745    86977157.749          47.500          46.000          45.600          45.900  
R18  21593829.867    21593828.910    21593837.496    21593837.254   115269332.189   115269325.188    89653921.798    89653926.795          44.500          43.100          45.900          46.400  
R15  21431254.922    21431255.156    21431265.051    21431264.168   114521965.230   114522108.238    89072744.338    89072749.342          46.700          45.300          45.300          45.900  
R16  21439181.414    21439181.543    21439189.816    21439189.637   114524427.440   114524250.459    89074414.531    89074420.535          45.400          44.800          47.100          47.100  
R17  19650491.219    19650490.285    19650497.891    19650497.656   105153743.800   105153735.799    81786241.091    81786245.087          50.800          49.400          49.700          50.100  
R24  21612378.211    21612378.332    21612386.715    21612387.359   115571111.058   115571080.073    89888617.911    89888623.906          44.900          44.200          45.300          46.500  
E13  26097364.664    26097374.934    26097373.617    26097375.645   137142583.017   102411655.284   105083263.177   103747448.342          42.500          43.200          45.100          50.800  
E15  23380401.977    23380409.895    23380408.395    23380410.410   122864841.236    91749746.174    94143209.087    92946502.235          47.600          47.200          48.800          55.200  
E21  26556509.180    26556518.027    26556516.289    26556518.270   139555395.705   104213480.845   106932082.554   105572790.303          42.400          41.200          44.300          49.000  
E27  24193309.352    24193317.148    24193315.367    24193317.512   127136695.067    94939723.870    97416412.764    96178061.925          47.600          47.300          48.700          54.900  
E30  25977447.992    25977459.395    25977457.707    25977459.582   136512402.922   101941111.331   104600433.319   103270787.435          42.200          44.400          45.600          51.600  
E05  25433648.172    25433661.547    25433658.074    25433661.137   133654733.630    99807104.979   102410768.861   101108915.529          40.000          42.200          42.900          48.800  
C20  24271291.719                   126386998.568                          43.200                  
C13  38848304.055    38848312.715   202293318.291   156426010.574          40.800          39.800  
C04  38406790.609    38406792.180   199994247.296   154648234.458          35.500          40.800  
C03  37384361.031    37384361.105   194670175.063   150531326.463          38.800          41.200  
C02  38864721.414    38864722.797   202378897.295   156492134.581          34.300          40.700  
C01  37939885.430    37939887.504   197562940.221   152768199.899          38.300          41.700  
C30  21914427.242                   114114170.439                          48.800                  
C29  22329563.969                   116275898.861                          47.300                  
C27  25399921.625                   132264045.006                          37.900                  
> 2025 04 10 06 36 10.0000000  0 32
G11  23365086.984                    23365096.270   122784366.258                    95676163.505          41.600                          45.200  
G17  20629783.664                    20629789.633   108410238.651                    84475533.643          47.300                          47.000  
G22  21956038.609    21956045.508                   115379752.417    89906325.267                          45.800          32.800                  
G03  22266075.703                    22266085.160   117009008.478                    91175890.224          42.500                          43.300  
G06  21026512.859                    21026521.648   110495069.238                    86100095.215          47.800                          47.400  
G19  19798346.539    19798349.891                   104041008.579    81070929.953                          47.600          42.000                  
G04  23451762.055                    23451773.047   123239848.107                    96031106.522          38.800                          41.400  
G14  22859644.875                    22859656.777   120128231.666                    93606433.979          40.800                          43.000  
G12  24115176.844                    24115184.195   126726107.850                    98747647.606          38.200                          37.900  
G09  23735401.523                    23735418.484   124730433.238                    97192588.975          34.200                          39.700  
R01  20960898.344    20960897.648                                   112048178.004   112047993.029                                          45.100          43.500                                  
R02  20953172.398    20953170.727    20953179.465    20953179.836   111810144.396   111810131.397    86963435.075    86963441.072          47.900          45.900          46.000          45.900  
R18  21590979.750    21590977.973    21590986.340    21590986.066   115254112.096   115254105.088    89642083.956    89642088.945          45.100          43.200          45.800          46.000  
R15  21433565.477    21433565.359    21433574.656    21433573.898   114534311.616   114534454.610    89082347.057    89082352.062          47.300          45.800          45.700          46.100  
R16  21438103.320    21438101.223    21438109.254    21438109.387   114518659.195   114518482.171    89069928.110    89069934.113          46.100          44.100          47.000          46.000  
R17  19649629.469    19649628.063    19649635.332    19649634.660   105149126.511   105149118.516    81782649.865    81782653.861          50.800          49.400          49.600          50.100  
R24  21613970.305    21613969.488    21613978.750    21613978.363   115579623.376   115579592.388    89895238.617    89895244.621          46.000          44.000          45.300          46.000  
E13  26094894.102    26094904.867    26094903.367    26094905.398   137129600.792   102401960.793   105073315.786   103737627.398          42.000          43.800          45.100          50.600  
E15  23379677.180    23379685.125    23379683.625    23379685.719   122861033.031    91746902.384    94140291.113    92943621.355          47.400          47.500          49.200          55.400  
E21  26554010.328    26554019.000    26554017.219    26554019.406   139542264.384   104203674.999   106922020.897   105562856.560          41.900          41.800          44.000          49.000  
E27  24193331.438    24193339.281    24193337.172    24193339.555   127136811.608    94939810.893    97416502.056    96178150.083          48.000          47.400          48.600          54.800  
E30  25979566.336    25979577.617    25979575.742    25979577.645   136523533.841   101949423.367   104608962.180   103279207.883          42.700          44.300          45.600          51.500  
E05  25431933.266    25431945.328    25431942.984    25431945.910   133645720.590    99800374.503   102403862.785   101102097.252          41.900          42.400          44.500          49.100  
C20  24267665.102                   126368112.365                          43.400                  
C13  38846490.273    38846499.316   202283875.578   156418708.875          40.900          39.600  
C04  38406113.883    38406114.684   199990720.569   154645507.371          36.300          40.600  
C03  37383706.727    37383706.852   194666770.334   150528693.718          39.200          41.800  
C02  38864052.656    38864053.898   202375415.733   156489442.415          34.800          40.800  
C01  37939239.398    37939240.633   197559573.167   152765596.283          38.500          42.300  
C30  21914740.109                   114115799.970                          48.800                  
C29  22327407.977                   116264671.803                          47.200                  
C27  25401716.703                   132273391.328                          39.400                  
> 2025 04 10 06 36 15.0000000  0 32
G11  23361996.992                    23362006.582   122768130.520                    95663512.298          42.300                          45.400  
G17  20630083.883                    20630089.938   108411816.616                    84476763.227          47.300                          47.200  
G22  21957831.883    21957838.316                   115389175.294    89913667.760                          45.400          33.100                  
G03  22268315.242                    22268325.164   117020779.227                    91185062.224          41.300                          42.900  
G06  21024655.930                    21024665.742   110485315.172                    86092494.637          46.800                          47.300  
G19  19796891.688    19796895.613                   104033366.319    81064974.937                          48.000          41.400                  
G04  23449292.766                    23449303.848   123226871.887                    96020995.199          39.500                          41.700  
G14  22862432.219                    22862444.141   120142879.276                    93617847.646          40.500                          43.800  
G12  24111795.531                    24111804.629   126708345.074                    98733806.511          37.300                          37.700  
G09  23731934.258                    23731950.289   124712211.408                    97178390.261          35.700                          39.900  
R01  20961181.023    20961179.859                                   112049692.329   112049507.349                                          44.800          42.900                                  
R02  20949871.141    20949869.938    20949878.941    20949878.875   111792530.124   111792517.118    86949735.086    86949741.083          48.100          46.300          46.300          46.500  
R18  21588129.422    21588128.582    21588136.719    21588136.602   115238900.984   115238894.005    89630253.085    89630258.082          44.800          43.900          45.700          46.100  
R15  21435880.352    21435880.352    21435889.109    21435888.785   114546676.946   114546819.954    89091964.504    89091969.515          47.200          46.000          45.800          46.500  
R16  21437027.359    21437027.254    21437034.867    21437035.172   114512918.790   114512741.781    89065463.367    89065469.385          45.700          45.100          46.700          47.900  
R17  19648768.523    19648767.824    19648775.070    19648774.727   105144522.300   105144514.306    81779068.817    81779072.820          50.900          49.900          50.000          50.700  
R24  21615563.641    21615563.293    21615572.508    21615572.156   115588145.398   115588114.398    89901866.823    89901872.826          45.000          43.100          45.600          45.800  
E13  26092425.727    26092436.379    26092434.223    26092436.527   137116627.430   102392272.906   105063375.167   103727813.147          42.200          43.900          44.600          50.600  
E15  23378954.688    23378962.223    23378960.676    23378962.758   122857235.292    91744066.409    94137381.156    92940748.392          48.000          47.400          49.100          55.500  
E21  26551514.469    26551522.836    26551521.195    26551523.340   139529147.031   104193879.583   106911969.946   105552933.365          41.700          41.700          43.800          48.800  
E27  24193356.844    24193364.898    24193362.836    24193365.102   127136945.443    94939910.819    97416604.591    96178251.313          47.800          47.100          48.200          54.900  
E30  25981686.195    25981697.770    25981695.895    25981697.863   136534675.081   101957743.093   104617498.946   103287636.125          42.100          44.300          45.400          51.500  
E05  25430221.203    25430232.641    25430231.047    25430233.480   133636722.942    99793655.521   102396968.520   101095290.629          41.500          41.200          43.900          48.400  
C20  24264040.922                   126349237.028                          44.300                  
C13  38844679.133    38844687.969   202274440.973   156411413.464          41.300          39.900  
C04  38405437.359    38405438.434   199987199.299   154642784.513          35.300          40.500  
C03  37383053.992    37383054.184   194663371.059   150526065.188          39.200          41.200  
C02  38863384.328    38863386.273   202371939.528   156486754.398          34.300          41.400  
C01  37938593.414    37938595.254   197556211.575   152762996.886          38.300          42.500  
C30  21915055.180                   114117441.154                          48.800                  
C29  22325253.836                   116253454.462                          47.400                  
C27  25403513.477                   132282745.167                          39.500                  
> 2025 04 10 06 36 20.0000000  0 32
G11  23358910.273                    23358918.715   122751904.620                    95650868.777          42.600                          44.400  
G17  20630386.875                    20630393.254   108413409.959                    84478004.792          47.600                          47.000  
G22  21959627.570    21959634.430                   115398613.569    89921022.246                          45.000          32.800                  
G03  22270558.078                    22270567.723   117032564.966                    91194245.918          41.300                          44.300  
G06  21022802.367                    21022812.363   110475574.301                    86084904.341          46.700                          47.600  
G19  19795440.836    19795444.332                   104025741.098    81059033.210                          47.900          41.900                  
G04  23446825.773                    23446837.363   123213911.275                    96010896.021          40.500                          42.800  
G14  22865221.898                    22865232.996   120157536.902                    93629269.125          41.300                          41.800  
G12  24108419.641                    24108426.762   126690598.340                    98719977.894          37.600                          38.700  
G09  23728468.977                    23728483.926   124693998.466                    97164198.425          37.600                          39.300  
R01  20961469.320    20961468.273                                   112051234.632   112051049.649                                          44.700          43.100                                  
R02  20946573.680    20946572.008    20946581.484    20946581.895   111774937.414   111774924.408    86936051.891    86936057.902          48.400          46.100          46.000          46.000  
R18  21585282.711    21585281.051    21585289.488    21585288.957   115223698.947   115223691.947    89618429.307    89618434.310          45.300          43.900          46.300          47.100  
R15  21438199.219    21438197.926    21438206.969    21438206.219   114559061.584   114559204.569    89101596.966    89101601.969          48.500          45.900          45.600          45.900  
R16  21435957.867    21435958.348    21435966.145    21435966.238   114507206.365   114507029.348    89061020.359    89061026.362          46.200          45.000          46.200          47.200  
R17  19647910.453    19647909.637    19647916.469    19647916.082   105139931.037   105139923.044    81775497.836    81775501.840          51.000          50.200          49.800          50.000  
R24  21617158.453    21617158.809    21617167.770    21617167.949   115596677.476   115596646.495    89908502.863    89908508.866          44.200          42.900          45.100          45.600  
E13  26089957.891    26089969.566    26089967.270    26089969.520   137103662.972   102382591.671   105053441.376   103718005.631          42.600          43.800          44.900          50.800  
E15  23378233.898    23378241.766    23378240.219    23378242.250   122853448.046    91741238.265    94134479.231    92937883.354          48.800          47.400          49.100          55.400  
E21  26549020.969    26549029.301    26549027.613    26549029.941   139516043.724   104184094.651   106901929.754   105543020.811          41.000          42.000          44.000          48.800  
E27  24193385.938    24193393.582    24193391.660    24193393.992   127137096.596    94940023.681    97416720.400    96178365.647          47.800          47.600          48.800          54.900  
E30  25983808.688    25983819.688    25983817.672    25983819.875   136545826.669   101966070.561   104626043.647   103296072.214          43.400          44.600          45.600          51.300  
E05  25428511.141    25428524.168    25428521.824    25428524.438   133627740.820    99786948.090   102390086.124   101088495.717          39.600          41.900          43.600          48.600  
C20  24260417.938                   126330372.639                          44.300                  
C13  38842868.398    38842877.414   202265014.622   156404124.408          41.000          40.200  
C04  38404762.609    38404763.832   199983683.610   154640065.961          36.100          41.100  
C03  37382402.164    37382402.438   194659977.261   150523440.880          38.700          42.100  
C02  38862718.039    38862720.215   202368468.665   156484070.517          34.800          41.800  
C01  37937949.375    37937950.918   197552855.512   152760401.771          38.800          42.400  
C30  21915372.875                   114119094.003                          48.400                  
C29  22323101.313                   116242246.901                          47.300                  
C27  25405310.398                   132292106.669                          39.500                  
> 2025 04 10 06 36 25.0000000  0 32
G11  23355824.016                    23355832.883   122735687.661                    95638232.199          41.900                          43.900  
G17  20630692.867                    20630699.266   108415017.756                    84479257.607          47.100                          46.800  
G22  21961425.664    21961432.840                   115408066.329    89928388.006                          44.100          32.900                  
G03  22272803.391                    22272813.625   117044364.896                    91203440.640          41.100                          43.500  
G06  21020951.602                    21020960.441   110465845.716                    86077323.627          47.100                          47.400  
G19  19793992.820    19793996.410                   104018132.016    81053104.047                          48.000          41.800                  
G04  23444362.375                    23444373.695   123200965.438                    96000808.385          39.500                          42.500  
G14  22868013.102                    22868024.582   120172203.644                    93640697.706          40.800                          43.200  
G12  24105044.320                    24105052.613   126672866.749                    98706161.086          36.600                          38.600  
G09  23725004.938                    23725019.910   124675793.667                    97150013.008          37.900                          39.500  
R01  20961763.258    20961762.445                                   112052804.062   112052619.072                                          44.700          43.200                                  
R02  20943280.383    20943278.594    20943288.219    20943288.500   111757365.201   111757352.210    86922384.647    86922390.658          47.700          45.800          45.800          46.200  
R18  21582435.500    21582434.895    21582443.488    21582442.574   115208505.078   115208498.076    89606611.849    89606616.858          45.500          43.900          46.600          47.500  
R15  21440518.563    21440518.445    21440527.895    21440527.277   114571464.258   114571607.259    89111243.478    89111248.474          47.300          45.900          45.600          45.900  
R16  21434893.953    21434893.965    21434901.883    21434901.906   114501520.962   114501343.974    89056598.392    89056604.381          46.300          45.400          47.200          47.000  
R17  19647054.828    19647053.660    19647060.785    19647060.242   105135351.860   105135343.859    81771936.257    81771940.260          50.800          50.200          49.700          50.600  
R24  21618757.352    21618756.652    21618765.168    21618764.855   115605218.510   115605187.520    89915145.863    89915151.865          44.600          43.800          45.500          45.400  
E13  26087492.352    26087504.098    26087500.535    26087503.684   137090706.547   102372916.431   105043513.729   103708204.191          41.800          43.600          44.300          50.700  
E15  23377514.969    23377522.895    23377521.348    23377523.488   122849670.403    91738417.299    94131584.678    92935025.597          48.000          47.000          48.600          55.400  
E21  26546530.141    26546538.605    26546536.586    26546538.992   139502953.521   104174319.509   106891899.604   105533118.164          41.600          41.600          43.400          48.700  
E27  24193417.648    24193425.664    24193423.602    24193425.863   127137264.227    94940148.854    97416848.838    96178492.455          47.800          46.800          48.000          54.800  
E30  25985932.617    25985943.574    25985941.652    25985943.914   136556987.709   101974405.077   104634595.600   103304515.448          43.000          43.800          45.300          51.200  
E05  25426805.094    25426818.023    25426815.395    25426817.973   133618773.304    99780251.604   102383214.933   101081711.878          40.500          41.800          43.200          48.200  
C20  24256797.211                   126311518.299                          43.900                  
C13  38841060.031    38841068.734   202255595.624   156396841.060          40.400          39.900  
C04  38404087.867    38404088.617   199980172.559   154637350.997          36.000          40.300  
C03  37381750.695    37381751.750   194656588.096   150520820.172          38.800          40.800  
C02  38862052.148    38862054.875   202365002.347   156481390.137          34.600          41.400  
C01  37937305.125    37937306.508   197549503.993   152757810.166          38.300          41.300  
C30  21915692.031                   114120757.616                          47.900                  
C29  22320951.000                   116231048.232                          47.600                  
C27  25407109.641                   132301474.899                          38.600                  
> 2025 04 10 06 36 30.0000000  0 32
G11  23352740.234                    23352748.652   122719479.769                    95625602.691          42.800                          44.300  
G17  20631001.797                    20631007.918   108416640.045                    84480521.733          47.500                          47.200  
G22  21963227.422    21963234.527                   115417533.561    89935765.055                          43.900          31.900                  
G03  22275052.023                    22275062.039   117056178.990                    91212646.424          41.400                          44.600  
G06  21019102.914                    21019112.016   110456129.499                    86069752.553          47.600                          47.200  
G19  19792548.078    19792551.926                   104010539.129    81047187.524                          47.500          42.600                  
G04  23441901.297                    23441912.527   123188034.383                    95990732.292          39.600                          41.900  
G14  22870805.477                    22870817.355   120186879.564                    93652133.440          41.700                          43.200  
G12  24101674.336                    24101681.805   126655150.433                    98692356.167          37.300                          38.700  
G09  23721542.953                    23721557.355   124657597.143                    97135833.975          37.100                          39.900  
R01  20962062.008    20962059.789                                   112054400.582   112054215.586                                          43.700          42.600                                  
R02  20939991.977    20939990.773    20939999.551    20940000.195   111739813.917   111739800.920    86908733.676    86908739.680          49.000          46.700          46.500          46.800  
R18  21579589.898    21579589.762    21579598.223    21579597.680   115193319.367   115193312.352    89594800.753    89594805.755          45.300          44.100          46.100          47.000  
R15  21442842.195    21442842.547    21442851.879    21442851.223   114583885.253   114584028.247    89120904.237    89120909.232          47.000          45.400          46.000          45.900  
R16  21433835.469    21433834.895    21433841.984    21433842.363   114495862.679   114495685.692    89052197.501    89052203.498          46.800          46.000          46.000          46.700  
R17  19646201.156    19646199.750    19646206.758    19646206.453   105130784.899   105130776.899    81768384.168    81768388.171          51.100          49.400          48.800          49.900  
R24  21620355.164    21620354.699    21620364.203    21620363.332   115613768.462   115613737.466    89921795.822    89921801.824          44.700          43.700          45.500          45.100  
E13  26085028.695    26085040.332    26085036.629    26085039.887   137077758.164   102363247.204   105033592.253   103698408.840          42.300          44.800          44.900          50.700  
E15  23376797.875    23376805.855    23376804.309    23376806.414   122845902.437    91735603.566    94128697.534    92932175.159          48.800          48.400          49.600          55.400  
E21  26544041.445    26544049.922    26544047.953    26544050.570   139489876.587   104164554.252   106881879.617   105523225.539          42.000          42.000          44.300          48.600  
E27  24193452.516    24193460.652    24193458.449    24193460.926   127137448.352    94940286.355    97416989.927    96178631.749          47.700          48.100          49.200          54.900  
E30  25988058.570    25988069.328    25988067.125    25988069.742   136568158.220   101982746.678   104643154.813   103312965.850          44.600          44.500          46.200          51.200  
E05  25425102.078    25425113.848    25425111.176    25425114.176   133609820.457    99773566.096   102376355.027   101074939.170          39.100          41.700          42.300          47.900  
C20  24253178.430                   126292674.112                          44.500                  
C13  38839252.883    38839261.348   202246184.063   156389563.455          39.700          39.800  
C04  38403414.703    38403415.629   199976666.205   154634639.671          36.400          40.600  
C03  37381101.297    37381101.797   194653203.588   150518203.058          39.000          42.000  
C02  38861388.000    38861389.047   202361535.523   156478709.162          33.300          38.000  
C01  37936663.039    37936664.348   197546157.169   152755222.197          38.500          41.900  
C30  21916013.922                   114122432.116                          47.300                  
C29  22318802.070                   116219858.522                          47.400                  
C27  25408909.914                   132310849.991                          38.600                  
> 2025 04 10 06 36 35.0000000  0 32
G11  23349657.125                    23349666.473   122703281.309                    95612980.511          42.000                          44.300  
G17  20631313.406                    20631319.637   108418277.234                    84481797.459          47.500                          47.000  
G22  21965031.922    21965038.922                   115427015.691    89943153.696                          45.100          32.000                  
G03  22277301.844                    22277312.688   117068007.594                    91221863.486          40.600                          44.100  
G06  21017256.133                    21017265.395   110446426.052                    86062191.434          47.700                          47.500  
G19  19791106.453    19791109.672                   104002962.851    81041283.924                          47.900          42.300                  
G04  23439443.609                    23439455.102   123175118.534                    95980668.027          38.600                          42.100  
G14  22873599.813                    22873611.723   120201565.014                    93663576.609          42.100                          42.200  
G12  24098305.406                    24098313.840   126637449.687                    98678563.387          37.200                          38.400  
G09  23718081.633                    23718095.930   124639409.159                    97121661.645          38.000                          39.800  
R01  20962365.383    20962363.633                                   112056024.497   112055839.523                                          44.700          42.500                                  
R02  20936706.703    20936705.617    20936714.262    20936714.496   111722283.606   111722270.586    86895099.021    86895105.025          48.800          46.500          46.500          46.600  
R18  21576746.461    21576746.207    21576754.227    21576753.871   115178142.209   115178135.207    89582996.302    89583001.312          44.100          44.100          45.900          46.400  
R15  21445171.008    21445170.652    21445180.484    21445179.801   114596324.874   114596467.896    89130579.509    89130584.505          47.200          45.600          46.000          46.500  
R16  21432780.766    21432780.660    21432788.141    21432788.637   114490232.045   114490055.052    89047818.129    89047824.132          46.000          45.600          46.600          47.300  
R17  19645350.305    19645349.254    19645356.797    19645356.445   105126230.431   105126222.465    81764841.813    81764845.809          51.300          48.700          49.800          49.700  
R24  21621957.203    21621954.977    21621964.332    21621963.773   115622327.981   115622296.977    89928453.225    89928459.228          45.100          43.300          45.800          45.800  
E13  26082566.156    26082577.688    26082574.496    26082577.434   137064818.298   102353584.348   105023677.313   103688619.937          42.800          44.700          45.500          50.900  
E15  23376082.758    23376090.934    23376089.199    23376091.273   122842144.540    91732797.340    94125818.112    92929332.331          48.200          48.000          49.200          55.400  
E21  26541555.742    26541563.934    26541562.152    26541564.559   139476813.221   104154799.167   106871870.033   105513343.204          42.300          41.800          43.900          48.500  
E27  24193490.469    24193498.816    24193496.984    24193499.180   127137649.364    94940436.450    97417143.938    96178783.803          47.600          48.000          49.200          54.900  
E30  25990185.781    25990196.594    25990194.531    25990197.148   136579338.620   101991095.655   104651721.598   103321423.736          43.800          44.200          45.700          51.100  
E05  25423401.375    25423412.871    25423409.637    25423413.148   133600882.684    99766891.785   102369506.578   101068177.791          41.200          41.900          43.200          48.200  
C20  24249560.969                   126273840.454                          44.900                  
C13  38837446.672    38837455.207   202236780.221   156382291.834          40.200          39.500  
C04  38402742.453    38402742.980   199973164.946   154631932.265          36.300          41.100  
C03  37380452.344    37380452.816   194649824.165   150515589.876          38.700          41.700  
C02  38860724.586    38860726.695   202358078.615   156476036.159          34.300          41.300  
C01  37936020.844    37936022.559   197542815.396   152752638.132          38.300          41.800  
C30  21916337.531                   114124117.815                          47.900                  
C29  22316654.766                   116208678.147                          47.300                  
C27  25410711.867                   132320232.246                          37.300                  
> 2025 04 10 06 36 40.0000000  0 32
G11  23346576.625                    23346585.707   122687092.171                    95600365.615          42.100                          44.500  
G17  20631627.305                    20631633.977   108419929.213                    84483084.711          47.100                          46.800  
G22  21966839.250    21966846.324                   115436512.645    89950553.928                          45.000          32.600                  
G03  22279556.367                    22279566.348   117079850.703                    91231091.862          40.900                          44.100  
G06  21015411.500                    21015421.055   110436735.286                    86054640.193          47.000                          47.000  
G19  19789667.719    19789671.504                   103995403.141    81035393.241                          48.200          41.800                  
G04  23436988.734                    23437000.012   123162217.829                    95970615.568          38.900                          41.000  
G14  22876396.602                    22876407.625   120216259.870                    93675027.088          42.000                          42.400  
G12  24094939.383                    24094947.578   126619764.530                    98664782.762          37.200                          38.200  
G09  23714622.016                    23714637.238   124621229.633                    97107495.870          37.200                          40.100  
R01  20962673.820    20962673.125                                   112057676.011   112057490.992                                          44.300          42.400                                  
R02  20933425.867    20933424.078    20933432.809    20933433.328   111704774.516   111704761.532    86881480.854    86881486.866          48.000          47.000          47.100          46.800  
R18  21573906.156    21573904.730    21573913.066    21573912.594   115162973.553   115162966.565    89571198.481    89571203.470          44.000          43.200          46.100          46.500  
R15  21447502.836    21447502.012    21447512.000    21447511.348   114608782.922   114608925.937    89140269.057    89140274.060          47.000          45.400          46.000          47.500  
R16  21431732.703    21431731.660    21431739.094    21431738.938   114484628.778   114484451.770    89043460.021    89043466.039          46.800          46.000          46.500          47.900  
R17  19644501.648    19644500.008    19644507.297    19644506.945   105121688.511   105121680.517    81761309.207    81761313.211          51.200          49.000          49.600          49.600  
R24  21623558.023    21623557.910    21623567.066    21623566.785   115630896.912   115630865.923    89935117.922    89935123.925          44.800          43.200          44.700          45.900  
E13  26080106.047    26080116.707    26080114.270    26080116.563   137051886.771   102343927.710   105013768.766   103678837.350          42.400          44.500          44.900          50.800  
E15  23375369.773    23375377.586    23375375.941    23375378.105   122838396.570    91729998.528    94122946.287    92926497.016          48.300          47.200          49.200          55.400  
E21  26539072.078    26539080.711    26539078.836    26539081.453   139463763.378   104145054.131   106861870.804   105503471.075          42.600          41.500          44.700          48.800  
E27  24193532.227    24193540.434    24193538.699    24193540.727   127137867.200    94940599.115    97417310.847    96178948.590          47.400          47.700          49.600          54.900  
E30  25992315.977    25992326.211    25992324.008    25992326.641   136590528.828   101999451.966   104660295.901   103329889.040          44.200          44.600          45.600          51.000  
E05  25421703.266    25421714.547    25421712.391    25421715.340   133591959.890    99760228.680   102362669.655   101061427.772          40.900          41.800          43.400          48.200  
C20  24245945.805                   126255017.264                          43.500                  
C13  38835641.930    38835650.699   202227384.119   156375026.174          40.000          39.900  
C04  38402071.219    38402072.082   199969668.755   154629228.787          36.300          41.100  
C03  37379804.414    37379804.785   194646449.637   150512980.481          39.000          41.200  
C02  38860061.297    38860062.602   202354626.625   156473366.844          34.400          41.600  
C01  37935379.961    37935382.414   197539478.576   152750057.881          38.100          41.600  
C30  21916663.242                   114125814.652                          48.400                  
C29  22314509.641                   116197507.069                          47.200                  
C27  25412515.148                   132329621.578                          37.900                  
> 2025 04 10 06 36 45.0000000  0 32
G11  23643290.516                    23643299.738   124246335.558                    96815360.466          41.600                          45.300  
G17  20931737.398                    20931743.535   109997015.632                    85711983.206          47.300                          46.800  
G22  22268442.242    22268448.648                   117021442.404    91185564.119                          45.400          32.700                  
G03  22581604.711                    22581615.148   118667125.733                    92467929.534          41.500                          44.100  
G06  21313363.016                    21313373.086   112002479.002                    87274700.235          46.900                          47.200  
G19  20088025.227    20088028.285                   105563281.392    82257116.541                          48.200          42.000                  
G04  23734329.961                    23734340.910   124724754.827                    97188176.869          39.700                          42.100  
G14  23178986.211                    23178997.617   121806381.161                    94914082.589          42.100                          43.600  
G12  24391370.805                    24391378.770   128177518.363                    99878616.937          38.100                          39.800  
G09  24010955.898                    24010972.539   126178482.211                    98320939.521          35.400                          40.700  
R01  21262780.469    21262779.070                                   113661916.902   113661731.942                                          44.000          42.100                                  
R02  21229940.984    21229940.484    21229949.121    21229949.816   113287039.855   113287026.851    88112131.693    88112137.698          47.600          46.800          45.700          45.700  
R18  21870857.969    21870857.012    21870865.969    21870864.941   116748128.833   116748121.860    90804097.049    90804102.060          43.100          42.600          45.600          45.800  
R15  21749629.211    21749628.504    21749638.910    21749637.645   116223257.046   116223400.039    90395971.131    90395976.128          47.400          45.400          46.200          47.200  
R16  21730481.422    21730480.145    21730488.352    21730487.988   116080491.505   116080314.517    90284686.579    90284692.575          47.500          45.800          46.900          47.800  
R17  19943447.391    19943446.340    19943453.707    19943453.145   106721409.940   106721401.946    83005536.984    83005540.981          50.900          49.100          49.100          49.400  
R24  21924955.453    21924953.813    21924962.664    21924962.406   117242598.362   117242567.365    91188663.471    91188669.475          45.200          43.700          44.800          46.200  
E13  26377439.945    26377450.402    26377448.293    26377450.336   138614386.188   103510729.236   106211008.600   104860858.030          43.400          44.200          45.300          50.900  
E15  23674451.086    23674459.000    23674457.313    23674459.383   124410079.271    92903657.690    95327222.645    94115464.774          48.300          48.300          49.300          55.400  
E21  26836384.625    26836392.848    26836391.207    26836393.734   141026149.624   105311771.145   108059023.911   106685406.140          42.000          41.700          44.100          48.600  
E27  24493369.766    24493377.293    24493375.605    24493377.688   128713521.729    96117224.242    98624630.540    97370920.998          48.000          47.900          48.800          54.900  
E30  26294239.102    26294249.758    26294247.367    26294250.172   138177146.488   103184263.825   105876015.905   104530154.976          43.800          44.500          46.200          51.300  
E05  25719801.570    25719812.703    25719810.594    25719813.020   135158473.796   100930028.043   103562985.521   102246485.390          41.000          41.800          43.600          48.300  
C20  24542125.820                   127797306.200                          43.700                  
C13  39133631.508    39133640.645   203779095.486   157574907.864          40.400          39.400  
C04  38701192.992    38701193.992   201527276.186   155833669.660          36.000          40.800  
C03  37678949.711    37678950.406   196204178.734   151717515.437          38.900          41.600  
C02  39159192.031    39159193.316   203912278.062   157677841.733          34.400          41.600  
C01  38234533.039    38234534.590   199097245.349   153954621.975          38.600          41.800  
C30  22216783.859                   115688620.248                          47.900                  
C29  22612159.656                   117747445.402                          47.000                  
C27  25714111.336                   133900114.062                          37.100                  
> 2025 04 10 06 36 50.0000000  0 32
G11  23640214.414                    23640221.941   124230164.119                    96802759.385          41.900                          44.700  
G17  20932057.273                    20932063.477   109998696.293                    85713292.815          47.300                          46.700  
G22  22270253.984    22270260.926                   117030967.992    91192986.630                          44.400          33.000                  
G03  22583863.305                    22583873.801   118678996.669                    92477179.614          41.200                          45.300  
G06  21311524.219                    21311533.285   111992812.583                    87267167.972          47.300                          47.100  
G19  20086592.523    20086595.957                   105555753.792    82251250.891                          47.900          41.800                  
G04  23731880.602                    23731891.785   124711883.471                    97178147.284          40.300                          42.900  
G14  23181785.281                    23181797.906   121821093.843                    94925546.964          41.400                          43.600  
G12  24388011.180                    24388018.887   128159863.343                    99864859.755          37.700                          39.400  
G09  24007499.805                    24007515.797   126160318.911                    98306786.397          36.600                          40.000  
R01  21263099.492    21263097.859                                   113663622.122   113663437.132                                          44.100          42.700                                  
R02  21226667.219    21226666.602    21226675.230    21226675.879   113269571.879   113269558.882    88098545.487    88098551.498          47.600          46.400          46.000          45.800  
R18  21868019.766    21868019.160    21868027.473    21868027.086   116732976.200   116732969.211    90792311.685    90792316.673          44.300          43.700          45.700          47.300  
R15  21751967.188    21751966.953    21751977.020    21751976.133   116235751.112   116235894.128    90405688.696    90405693.707          47.300          45.600          46.000          47.300  
R16  21729442.539    21729441.262    21729449.238    21729449.004   116074942.286   116074765.276    90280370.518    90280376.514          46.900          46.000          46.700          47.900  
R17  19942603.156    19942602.340    19942609.641    19942609.230   106716891.892   106716883.899    83002022.953    83002026.957          50.900          49.100          49.200          49.600  
R24  21926560.766    21926559.715    21926568.871    21926569.031   117251185.046   117251154.028    91195341.995    91195347.999          45.800          43.300          44.700          45.000  
E13  26374981.844    26374992.313    26374990.203    26374992.551   138601470.472   103501084.408   106201112.170   104851087.396          42.400          44.400          45.700          51.000  
E15  23673741.336    23673749.430    23673747.789    23673749.820   124406350.260    92900873.039    95324365.352    94112643.804          48.000          48.200          49.300          55.500  
E21  26833906.711    26833914.609    26833912.590    26833915.277   141013125.908   105302045.644   108049044.685   106675553.768          42.600          42.100          44.000          48.600  
E27  24493417.438    24493425.180    24493423.258    24493425.453   128713772.222    96117411.298    98624822.478    97371110.492          48.400          48.100          48.800          54.900  
E30  26296372.023    26296382.660    26296380.363    26296383.172   138188355.253   103192634.000   105884604.431   104538634.321          43.400          44.400          45.800          51.200  
E05  25718108.672    25718120.617    25718117.660    25718120.246   135149579.982   100923386.584   103556170.786   102239757.292          40.900          42.100          42.500          47.600  
C20  24538515.141                   127778502.946                          43.600                  
C13  39131830.305    39131839.434   203769713.830   157567653.379          40.400          40.200  
C04  38700524.086    38700524.398   201523789.058   155830973.188          36.300          41.100  
C03  37678303.453    37678303.664   196200813.200   151714912.990          39.100          42.000  
C02  39158529.469                   203908830.476                          32.600                  
C01  38233893.898    38233895.629   199093917.515   153952048.690          38.600          41.400  
C30  22217113.938                   115690338.434                          48.600                  
C29  22610017.133                   117736291.885                          47.300                  
C27  25715917.195                   133909516.600                          37.600                  
> 2025 04 10 06 36 55.0000000  0 32
G11  23637138.523                    23637147.086   124214002.338                    96790165.776          42.900                          44.700  
G17  20932379.836                    20932386.441   110000392.071                    85714614.196          47.300                          47.000  
G22  22272069.617    22272076.910                   117040508.614    91200420.882                          45.300          33.200                  
G03  22586124.648                    22586135.746   118690882.336                    92486441.148          40.800                          44.900  
G06  21309686.438                    21309696.078   111983159.104                    87259645.793          47.200                          47.900  
G19  20085163.055    20085166.828                   105548243.046    82245398.360                          47.600          41.400                  
G04  23729434.188                    23729445.297   124699027.626                    97168129.770          40.100                          42.400  
G14  23184587.969                    23184599.316   121835816.223                    94937018.908          41.900                          43.400  
G12  24384654.461                    24384662.703   128142224.242                    99851115.057          37.900                          39.400  
G09  24004045.977                    24004060.992   126142164.442                    98292640.175          38.000                          39.200  
R01  21263423.828    21263423.367                                   113665354.938   113665169.963                                          44.600          43.000                                  
R02  21223397.477    21223396.742    21223405.977    21223406.363   113252125.487   113252112.468    88084976.096    88084982.093          48.100          46.300          45.700          46.000  
R18  21865183.273    21865182.551    21865190.426    21865190.074   116717832.380   116717825.352    90780533.137    90780538.147          44.900          43.800          45.600          46.400  
R15  21754309.445    21754308.738    21754318.328    21754317.059   116248263.956   116248406.948    90415420.883    90415425.894          47.800          46.000          45.500          46.300  
R16  21728409.305    21728407.676    21728415.543    21728415.215   116069420.701   116069243.669    90276075.921    90276081.917          47.500          45.300          46.300          46.700  
R17  19941761.633    19941760.109    19941767.176    19941766.918   106712386.711   106712378.710    82998518.921    82998522.924          51.500          49.300          49.500          50.000  
R24  21928167.711    21928167.363    21928176.469    21928176.477   117259781.347   117259750.354    91202027.991    91202033.987          45.100          43.300          44.600          44.700  
E13  26372524.789    26372536.559    26372534.027    26372536.547   138588563.410   103491446.028   106191222.354   104841323.302          42.100          44.300          45.900          51.000  
E15  23673033.828    23673041.676    23673040.031    23673042.109   124402631.497    92898096.042    95321515.909    94109830.585          47.700          47.100          48.700          55.400  
E21  26831430.977    26831439.016    26831437.000    26831439.566   141000115.997   105292330.446   108039076.055   106665711.858          41.900          41.600          43.800          48.900  
E27  24493468.172    24493475.906    24493473.938    24493476.320   128714039.753    96117611.071    98625027.467    97371312.872          47.900          47.600          48.300          54.900  
E30  26298506.625    26298517.461    26298515.117    26298517.910   138199574.052   103201011.652   105893200.644   104547121.259          43.100          44.700          46.000          51.500  
E05  25716417.844    25716431.574    25716428.715    25716430.855   135140701.472   100916756.542   103549367.791   102233040.771          40.400          41.600          42.600          47.800  
C20  24534906.133                   127759710.482                          43.100                  
C13  39130029.938    39130039.434   203760340.146   157560405.092          40.400          39.900  
C04  38699855.320    38699855.449   201520307.193   155828280.781          36.100          40.900  
C03  37677658.289    37677658.324   196197452.906   151712314.605          39.300          41.700  
C02  39157870.031    39157872.293   203905387.638   157672513.614          33.300          39.900  
C01  38233255.453    38233257.797   199090594.940   153949479.466          38.500          42.100  
C30  22217446.086                   115692068.050                          48.500                  
C29  22607877.055                   117725147.923                          47.300                  
C27  25717724.242                   133918926.605                          38.000                  
> 2025 04 10 06 37  0.0000000  0 32
G11  23634064.406                    23634072.707   124197849.671                    96777579.299          43.200                          44.700  
G17  20932705.289                    20932711.594   110002102.481                    85715946.999          47.100                          46.800  
G22  22273888.117    22273895.281                   117050063.833    91207866.480                          44.900          33.200                  
G03  22588389.813                    22588400.391   118702782.185                    92495713.755          40.400                          44.500  
G06  21307852.023                    21307861.441   111973518.091                    87252133.324          47.000                          47.900  
G19  20083737.273    20083740.980                   105540748.630    82239558.555                          47.500          41.900                  
G04  23726990.445                    23727001.914   124686186.735                    97158123.920          39.500                          42.800  
G14  23187391.086                    23187403.148   121850547.754                    94948497.961          42.600                          44.400  
G12  24381301.242                    24381309.449   128124600.544                    99837382.271          38.300                          39.600  
G09  24000592.461                    24000607.363   126124018.271                    98278500.365          36.300                          39.800  
R01  21263753.813    21263752.297                                   113667115.021   113666930.025                                          44.900          43.600                                  
R02  21220133.039    21220131.719    21220141.328    21220141.180   113234700.032   113234687.028    88071422.993    88071429.004          47.800          46.300          46.400          47.300  
R18  21862347.711    21862346.285    21862355.230    21862355.078   116702696.842   116702689.847    90768761.045    90768766.042          44.700          43.800          46.200          46.800  
R15  21756654.539    21756654.184    21756662.859    21756662.402   116260795.058   116260938.045    90425167.280    90425172.291          47.000          46.200          45.700          45.800  
R16  21727379.883    21727379.191    21727386.918    21727387.043   116063926.394   116063749.390    90271802.589    90271808.585          46.500          45.000          46.200          45.800  
R17  19940921.719    19940920.195    19940927.156    19940926.945   106707893.705   106707885.710    82995024.365    82995028.368          51.500          49.300          49.300          49.500  
R24  21929778.055    21929776.652    21929785.160    21929785.504   117268386.687   117268355.696    91208721.007    91208727.003          45.500          43.700          44.400          44.600  
E13  26370070.469    26370081.758    26370078.941    26370081.762   138575664.508   103481813.751   106181338.786   104831565.377          42.600          44.600          45.700          50.800  
E15  23672328.188    23672335.754    23672334.160    23672336.277   124398922.485    92895326.321    95318673.938    94107024.734          47.900          48.000          49.300          55.400  
E21  26828957.391    26828965.859    26828963.609    26828966.344   140987119.431   105282625.229   108029117.641   106655880.045          41.400          41.500          43.600          48.600  
E27  24493522.242    24493530.020    24493528.051    24493530.438   128714323.937    96117823.283    98625245.215    97371527.858          48.300          48.100          49.300          54.800  
E30  26300643.055    26300654.445    26300651.910    26300654.672   138210802.461   103209396.467   105901804.196   104555615.443          43.200          44.600          46.500          51.300  
E05  25714732.422    25714744.441    25714742.566    25714744.211   135131837.759   100910137.582   103542576.162   102226335.480          41.600          41.600          42.800          48.200  
C20  24531299.695                   127740928.303                          43.900                  
C13  39128231.680    39128240.457   203750974.009   157553162.615          40.600          40.300  
C04  38699186.797    38699188.125   201516830.188   155825592.151          36.000          41.100  
C03  37677013.227    37677014.367   196194097.402   151709719.916          38.900          41.700  
C02  39157210.922    39157212.227   203901954.109   157669858.552          34.400          41.400  
C01  38232618.359    38232620.309   199087277.097   153946913.900          38.800          41.600  
C30  22217780.297                   115693808.618                          48.400                  
C29  22605738.625                   117714013.043                          47.300                  
C27  25719533.500                   133928343.432                          38.500                  
> 2025 04 10 06 37  5.0000000  0 32
G11  23630992.203                    23631000.410   124181706.214                    96765000.011          41.800                          44.800  
G17  20933033.672                    20933039.441   110003827.630                    85717291.261          47.200                          47.200  
G22  22275709.523    22275716.426                   117059633.693    91215323.502                          45.500          32.800                  
G03  22590656.414                    22590667.105   118714696.288                    92504997.437          40.800                          45.500  
G06  21306020.172                    21306029.520   111963889.624                    87244630.622          47.600                          47.600  
G19  20082314.266    20082317.492                   105533270.659    82233731.565                          47.700          42.100                  
G04  23724549.648                    23724560.734   124673360.964                    97148129.885          38.900                          40.300  
G14  23190196.164                    23190207.793   121865288.569                    94959984.277          42.500                          43.900  
G12  24377949.367                    24377957.699   128106992.311                    99823661.593          37.200                          38.400  
G09  23997140.383                    23997155.992   126105880.583                    98264367.213          36.400                          39.800  
R01  21264087.391    21264085.875                                   113668902.294   113668717.319                                          44.600          43.600                                  
R02  21216871.203    21216870.352    21216879.590    21216879.539   113217295.596   113217282.612    88057886.229    88057892.233          48.000          46.800          46.600          47.500  
R18  21859514.500    21859513.191    21859521.914    21859521.379   116687569.675   116687562.673    90756995.499    90757000.510          44.900          43.900          46.600          46.700  
R15  21759003.148    21759003.383    21759011.180    21759011.297   116273344.469   116273487.453    90434927.925    90434932.936          48.400          46.700          45.200          46.000  
R16  21726356.688    21726355.293    21726362.883    21726364.113   116058459.414   116058282.419    90267550.498    90267556.502          45.500          44.500          46.500          45.900  
R17  19940084.516    19940083.230    19940090.430    19940089.980   106703413.089   106703405.087    82991539.436    82991543.439          51.200          49.600          49.200          49.500  
R24  21931388.820    21931386.945    21931396.441    21931396.828   117277001.284   117276970.296    91215421.248    91215427.244          45.100          43.300          44.600          44.300  
E13  26367617.023    26367629.008    26367625.957    26367628.809   138562773.860   103472187.634   106171461.553   104821813.702          40.800          44.700          44.900          50.800  
E15  23671624.203    23671632.023    23671630.191    23671632.359   124395223.302    92892563.944    95315839.495    94104226.325          47.900          47.400          49.300          55.500  
E21  26826486.344    26826494.695    26826493.102    26826495.461   140974136.372   105272930.082   108019169.588   106646058.439          43.000          41.500          44.300          48.800  
E27  24493579.328    24493587.129    24493585.160    24493587.574   128714624.810    96118047.953    98625475.746    97371755.458          48.200          47.800          49.200          54.900  
E30  26302781.477    26302792.875    26302790.484    26302793.000   138222040.476   103217788.462   105910415.116   104564116.896          42.600          44.400          46.600          51.500  
E05  25713048.609    25713060.617    25713058.320    25713060.414   135122988.966   100903529.718   103535795.928   102219641.428          41.500          42.700          43.600          49.000  
C20  24527694.680                   127722156.501                          43.700                  
C13  39126434.469    39126443.324   203741615.391   157545925.959          40.800          40.100  
C04  38698520.109    38698521.242   201513358.036   155822907.263          36.200          41.100  
C03  37676369.820    37676370.664   196190746.728   151707128.961          38.900          41.700  
C02  39156552.297                   203898525.752                          33.200                  
C01  38231982.375    38231983.918   199083964.164   153944352.134          38.700          42.400  
C30  22218116.797                   115695560.214                          48.600                  
C29  22603602.438                   117702887.320                          47.500                  
C27  25721343.273                   133937767.235                          40.000                  
> 2025 04 10 06 37 10.0000000  0 32
G11  23627921.797                    23627930.469   124165572.395                    96752428.214          41.700                          44.700  
G17  20933364.828                    20933370.527   110005567.918                    85718647.316          47.400                          46.900  
G22  22277533.250    22277540.160                   117069218.552    91222792.220                          45.600          33.500                  
G03  22592927.328                    22592937.207   118726625.024                    92514292.568          41.100                          45.400  
G06  21304189.680                    21304199.309   111954274.077                    87237137.987          47.000                          47.500  
G19  20080894.602    20080898.227                   105525809.556    82227917.718                          47.900          42.200                  
G04  23722111.586                    23722123.004   124660550.706                    97138147.857          37.900                          40.800  
G14  23193003.539                    23193015.203   121880038.991                    94971478.055          42.600                          43.400  
G12  24374603.359                    24374610.566   128089400.059                    99809953.354          38.500                          39.400  
G09  23993689.930                    23993706.188   126087751.862                    98250241.032          36.000                          38.600  
R01  21264426.133    21264425.906                                   113670717.215   113670532.227                                          44.700          42.500                                  
R02  21213613.695    21213612.258    21213621.359    21213620.742   113199912.684   113199899.708    88044366.213    88044372.218          48.000          46.000          46.200          46.300  
R18  21856680.641    21856679.918    21856689.324    21856688.703   116672451.329   116672444.298    90745236.793    90745241.791          45.000          43.500          46.800          47.000  
R15  21761354.039    21761354.391    21761363.137    21761362.855   116285912.482   116286055.468    90444703.033    90444708.036          47.600          45.900          45.500          46.100  
R16  21725337.047    21725337.059    21725344.578    21725345.262   116053020.055   116052843.067    90263319.901    90263325.905          44.500          44.300          45.700          46.400  
R17  19939249.328    19939248.277    19939255.160    19939254.969   106698945.323   106698937.337    82988064.519    82988068.521          51.100          49.600          48.800          49.300  
R24  21933000.922    21933000.223    21933009.348    21933009.383   117285625.629   117285594.647    91222129.073    91222135.070          44.500          43.200          44.600          45.600  
E13  26365165.875    26365177.938    26365174.750    26365177.512   138549891.884   103462567.991   106161590.957   104812068.583          41.500          44.600          44.400          50.700  
E15  23670922.352    23670929.926    23670928.379    23670930.422   124391534.342    92889809.202    95313012.890    94101435.655          48.200          48.000          49.200          55.500  
E21  26824018.375    26824027.191    26824025.457    26824027.859   140961167.111   105263245.255   108009232.109   106636247.286          42.400          42.100          43.500          48.800  
E27  24493639.695    24493647.699    24493645.777    24493648.184   128714942.740    96118285.371    98625719.349    97371995.967          47.800          48.000          48.800          54.900  
E30  26304922.008    26304933.496    26304931.387    26304933.738   138233288.517   103226187.952   105919033.725   104572625.946          42.400          44.800          46.200          51.400  
E05  25711367.445    25711379.824    25711377.621    25711379.148   135114155.447   100896933.300   103529027.406   102212958.962          41.500          42.800          43.400          48.500  
C20  24524091.984                   127703395.551                          44.100                  
C13  39124638.148    39124647.684   203732264.804   157538695.517          40.900          39.900  
C04  38697854.250    38697855.422   201509891.155   155820226.462          36.100          40.600  
C03  37675727.539    37675728.301   196187401.340   151704542.086          38.900          41.900  
C02  39155893.984    39155897.117   203895101.631   157664559.823          33.400          40.600  
C01  38231346.859    38231348.480   199080656.425   153941794.384          38.400          41.700  
C30  22218455.461                   115697323.248                          48.300                  
C29  22601467.438                   117691771.152                          47.000                  
C27  25723154.414                   133947198.413                          40.600                  
> 2025 04 10 06 37 15.0000000  0 32
G11  23624853.570                    23624861.297   124149447.303                    96739863.216          42.100                          43.700  
G17  20933698.250                    20933704.633   110007322.422                    85720014.452          47.300                          47.200  
G22  22279359.000    22279366.863                   117078817.570    91230271.965                          45.000          32.300                  
G03  22595199.758                    22595209.703   118738567.522                    92523598.379          41.300                          45.500  
G06  21302362.945                    21302371.430   111944670.600                    87229654.761          47.900                          48.000  
G19  20079477.461    20079481.301                   105518364.412    82222116.300                          47.800          41.800                  
G04  23719676.602                    23719688.344   124647755.051                    97128177.233          37.800                          41.300  
G14  23195812.000                    23195823.402   121894798.117                    94982978.637          43.200                          43.900  
G12  24371255.430                    24371266.215   128071822.824                    99796256.780          37.300                          39.400  
G09  23990242.758                    23990257.539   126069631.131                    98236121.070          35.900                          38.500  
R01  21264771.648    21264770.133                                   113672558.951   113672373.940                                          44.700          42.700                                  
R02  21210359.961    21210358.758    21210367.660    21210367.734   113182550.492   113182537.479    88030862.276    88030868.280          48.100          46.200          46.000          46.700  
R18  21853850.766    21853849.457    21853858.742    21853858.020   116657340.793   116657333.784    90733484.161    90733489.158          44.600          43.000          46.000          46.500  
R15  21763709.359    21763709.359    21763718.781    21763718.840   116298498.190   116298641.198    90454491.915    90454496.926          47.500          45.800          46.000          46.200  
R16  21724324.242    21724324.723    21724332.734    21724333.141   116047607.636   116047430.618    90259110.234    90259116.238          44.900          44.700          45.500          46.300  
R17  19938417.297    19938415.305    19938422.590    19938421.938   106694489.353   106694481.345    82984598.758    82984602.763          51.600          50.100          49.000          49.800  
R24  21934615.508    21934613.988    21934623.898    21934623.781   117294258.564   117294227.597    91228843.574    91228849.572          45.200          43.400          45.000          46.000  
E13  26362716.430    26362727.973    26362724.973    26362727.398   138537017.620   103452954.117   106151726.278   104802329.306          42.600          44.500          45.000          50.800  
E15  23670222.055    23670229.793    23670228.105    23670230.152   124387854.726    92887061.435    95310193.444    94098652.048          48.300          48.000          50.000          55.500  
E21  26821552.391    26821561.773    26821559.852    26821562.121   140948210.845   105253570.122   107999304.577   106626445.961          42.100          41.900          44.100          48.900  
E27  24493703.320    24493711.465    24493709.402    24493711.809   128715276.825    96118534.837    98625975.330    97372248.690          47.800          47.900          49.100          54.800  
E30  26307063.688    26307075.766    26307073.516    26307075.930   138244545.627   103234594.209   105927659.279   104581141.851          42.300          44.700          45.800          51.400  
E05  25709688.836    25709701.918    25709699.480    25709700.934   135105336.315   100890347.598   103522269.905   102206287.358          41.600          43.000          43.600          48.900  
C20  24520491.336                   127684644.500                          44.600                  
C13  39122844.188    39122853.102   203722921.330   157531470.563          40.100          40.200  
C04  38697189.414    38697190.898   201506428.730   155817549.099          35.700          41.000  
C03  37675086.000    37675086.504   196184060.253   151701958.551          38.800          41.900  
C02  39155238.242    39155239.969   203891682.227   157661915.704          34.700          41.300  
C01  38230712.961    38230714.277   199077353.065   153939240.016          38.700          42.300  
C30  22218795.609                   115699096.809                          48.200                  
C29  22599334.250                   117680663.671                          48.000                  
C27  25724966.828                   133956636.065                          40.400                  
> 2025 04 10 06 37 20.0000000  0 32
G11  23621786.438                    23621795.145   124133331.315                    96727305.322          42.200                          44.900  
G17  20934035.039                    20934041.500   110009091.477                    85721392.941          47.000                          47.100  
G22  22281188.633    22281196.238                   117088430.996    91237762.926                          44.300          32.100                  
G03  22597475.148                    22597485.172   118750524.079                    92532915.157          41.800                          44.900  
G06  21300537.234                    21300546.637   111935079.506                    87222181.185          47.500                          48.100  
G19  20078064.031    20078068.031                   105510935.629    82216327.649                          47.600          41.800                  
G04  23717245.094                    23717256.520   124634974.345                    97118218.287          38.800                          42.400  
G14  23198622.477                    23198634.449   121909566.320                    94994486.270          43.200                          43.600  
G12  24367917.938                    24367923.223   128054260.956                    99782572.227          39.800                          38.700  
G09  23986795.023                    23986810.773   126051518.788                    98222007.624          36.000                          39.200  
R01  21265119.570    21265119.227                                   113674427.718   113674242.744                                          42.500          42.700                                  
R02  21207109.758    21207108.789    21207117.977    21207118.387   113165209.020   113165196.029    88017374.491    88017380.495          48.400          46.000          46.100          46.700  
R18  21851021.695    21851021.324    21851029.664    21851029.320   116642238.473   116642231.466    90721737.934    90721742.931          45.100          43.500          45.800          46.100  
R15  21766068.078    21766067.254    21766077.457    21766077.480   116311101.975   116311244.982    90464294.813    90464299.810          46.600          45.700          46.400          47.000  
R16  21723317.258    21723316.098    21723324.172    21723324.230   116042222.449   116042045.470    90254921.741    90254927.746          46.100          45.300          45.900          46.600  
R17  19937586.203    19937585.152    19937592.418    19937591.984   106690045.564   106690037.570    82981142.483    82981146.479          51.800          49.100          49.300          49.300  
R24  21936232.344    21936230.586    21936240.879    21936240.457   117302900.643   117302869.660    91235565.171    91235571.168          45.300          44.200          45.400          46.700  
E13  26360268.398    26360279.434    26360276.809    26360278.969   138524151.491   103443346.313   106141867.834   104792596.183          42.600          44.400          45.100          50.800  
E15  23669523.570    23669531.457    23669529.582    23669531.707   124384184.773    92884320.883    95307381.398    94095875.752          47.700          47.900          49.400          55.500  
E21  26819089.695    26819098.773    26819096.523    26819099.180   140935267.854   105243904.911   107989387.229   106616654.678          42.300          42.100          43.600          48.800  
E27  24493769.602    24493778.055    24493776.133    24493778.371   128715627.460    96118796.666    98626243.984    97372513.935          48.000          47.600          49.300          54.800  
E30  26309208.422    26309219.824    26309217.574    26309219.844   138255812.222   103243007.551   105936292.098   104589664.931          42.600          44.200          46.100          51.300  
E05  25708013.227    25708026.523    25708023.477    25708025.582   135096531.967   100883772.930   103515523.728   102199626.940          40.200          42.400          42.800          48.500  
C20  24516892.664                   127665903.730                          44.900                  
C13  39121051.883    39121059.957   203713585.303   157524251.379          40.000          40.200  
C04  38696525.203    38696526.531   201502971.036   155814875.384          36.400          40.300  
C03  37674445.609    37674446.043   196180723.876   151699378.659          38.800          41.700  
C02  39154581.875    39154583.730   203888267.303   157659275.065          34.300          41.400  
C01  38230078.922    38230080.820   199074054.422   153936689.298          38.700          41.700  
C30  22219138.453                   115700881.253                          48.300                  
C29  22597203.180                   117669565.192                          47.200                  
C27  25726780.648                   133966080.564                          42.300                  
> 2025 04 10 06 37 25.0000000  0 32
G11  23618721.070                    23618731.078   124117224.251                    96714754.354          42.300                          45.000  
G17  20934374.078                    20934380.836   110010874.985                    85722782.689          47.000                          46.400  
G22  22283020.469    22283028.309                   117098058.775    91245265.074                          44.100          32.100                  
G03  22599752.656                    22599762.973   118762494.581                    92542242.793          41.600                          44.600  
G06  21298714.469                    21298723.922   111925500.690                    87214717.181          47.600                          48.500  
G19  20076653.227    20076657.336                   105503523.058    82210551.615                          47.200          42.400                  
G04  23714816.109                    23714827.180   124622208.561                    97108270.953          40.300                          42.600  
G14  23201434.664                    23201446.141   121924343.426                    95006000.830          42.400                          43.400  
G12  24364574.016                    24364585.152   128036714.400                    99768899.626          38.200                          39.400  
G09  23983350.648                    23983366.242   126033414.644                    98207900.599          37.500                          39.200  
R01  21265474.734    21265474.391                                   113676323.537   113676138.549                                          43.100          42.200                                  
R02  21203864.172    21203863.086    21203871.848    21203872.184   113147888.469   113147875.486    88003902.979    88003908.977          48.300          45.900          45.500          46.300  
R18  21848193.242    21848192.988    21848201.449    21848201.621   116627144.301   116627137.277    90709998.022    90710003.025          44.100          43.700          46.400          47.000  
R15  21768429.664    21768430.602    21768440.594    21768439.996   116323723.865   116323866.872    90474111.809    90474116.805          46.700          45.700          46.400          47.600  
R16  21722314.172    21722313.480    21722321.488    21722321.535   116036864.436   116036687.433    90250754.388    90250760.398          47.100          45.200          46.700          47.300  
R17  19936757.711    19936756.777    19936763.684    19936763.480   106685613.867   106685605.875    82977695.604    82977699.600          51.000          49.100          49.500          49.500  
R24  21937850.055    21937847.945    21937857.563    21937857.352   117311551.699   117311520.723    91242293.733    91242299.738          45.700          43.800          45.600          46.000  
E13  26357821.477    26357832.473    26357829.754    26357832.121   138511293.319   103433744.454   106132015.484   104782869.077          42.800          44.300          44.900          50.700  
E15  23668826.773    23668834.672    23668833.219    23668835.168   124380524.376    92881587.469    95304576.675    94093106.681          48.500          47.800          49.600          55.400  
E21  26816629.578    26816638.535    26816636.191    26816638.773   140922338.076   105234249.574   107979480.008   106606873.401          41.700          42.900          44.200          49.100  
E27  24493840.141    24493847.977    24493846.008    24493848.242   128715994.483    96119070.738    98626525.213    97372791.584          47.800          48.000          48.800          54.900  
E30  26311353.930    26311364.973    26311363.375    26311365.578   138267088.120   103251427.843   105944932.060   104598195.058          43.200          44.100          45.900          51.300  
E05  25706340.758    25706353.918    25706350.637    25706353.082   135087742.293   100877209.216   103508788.791   102192977.612          40.700          42.400          43.200          48.500  
C20  24513295.281                   127647173.127                          45.100                  
C13  39119259.813    39119268.551   203704256.599   157517037.842          40.000          40.100  
C04  38695862.281    38695863.113   201499517.957   155812205.227          36.300          41.000  
C03  37673805.398    37673806.035   196177392.102   151696802.321          38.900          42.300  
C02  39153926.648    39153929.141   203884856.938   157656637.967          34.500          40.700  
C01  38229446.672    38229448.039   199070760.302   153934142.083          38.500          41.700  
C30  22219483.547                   115702676.489                          48.500                  
C29  22595073.422                   117658475.638                          47.600                  
C27  25728595.320                   133975531.733                          41.500                  
> 2025 04 10 06 37 30.0000000  0 31
G11  23615657.555                    23615666.168   124101125.947                    96702210.267          42.100                          44.400  
G17  20934716.750                    20934722.930   110012672.746                    85724183.538          46.900                          46.800  
G22  22284856.211    22284862.770                   117107700.682    91252778.229                          44.900          33.100                  
G03  22602033.445                    22602043.301   118774478.805                    92551581.135          40.900                          44.000  
G06  21296893.992                    21296903.629   111915933.938                    87207262.560          46.800                          47.800  
G19  20075245.898    20075249.465                   105496126.508    82204788.074                          47.300          42.200                  
G04  23712389.727                    23712400.844   124609457.362                    97098334.979          40.400                          42.600  
G14  23204248.078                    23204259.355   121939129.236                    95017522.202          42.500                          43.000  
G12  24361243.422                    24361248.145   128019182.873                    99755238.651          39.700                          39.000  
G09  23979907.055                    23979922.371   126015318.603                    98193799.877          38.600                          39.700  
R01  21265836.430    21265834.563                                   113678246.023   113678061.049                                          44.600          43.100                                  
R02  21200622.313    21200621.578    21200629.703    21200630.184   113130588.557   113130575.558    87990447.517    87990453.527          48.600          47.000          46.200          46.300  
R18  21845368.719    21845367.879    21845375.754    21845375.719   116612058.038   116612051.031    90698264.269    90698269.265          44.900          44.200          46.200          47.500  
R15  21770796.414    21770796.059    21770805.820    21770804.898   116336363.353   116336506.358    90483942.482    90483947.479          47.200          45.900          45.800          46.900  
R16  21721315.969    21721314.926    21721322.918    21721323.543   116031533.235   116031356.211    90246607.908    90246613.911          46.900          44.800          46.200          46.400  
R17  19935931.688    19935930.637    19935937.633    19935937.242   106681194.033   106681186.032    82974257.963    82974261.973          50.700          49.100          49.000          49.500  
R24  21939468.109    21939467.879    21939477.578    21939477.199   117320211.463   117320180.459    91249029.097    91249035.106          44.500          44.400          45.300          46.600  
E13  26355375.922    26355386.824    26355384.996    26355386.871   138498442.979   103424148.431   106122169.126   104773147.884          42.700          44.700          45.300          50.800  
E15  23668132.055    23668140.098    23668138.457    23668140.566   124376873.297    92878861.019    95301779.098    94090344.667          48.300          48.300          49.300          55.400  
E21  26814171.898    26814180.430    26814178.414    26814180.777   140909421.289   105224603.929   107969582.738   106597101.938          41.300          42.700          44.400          49.100  
E27  24493913.203    24493921.063    24493919.516    24493921.492   128716377.700    96119356.896    98626818.839    97373081.479          47.400          48.300          49.500          54.900  
E30  26313502.086    26313512.559    26313511.102    26313513.027   138278373.159   103259854.960   105953579.010   104606732.091          43.600          44.200          46.000          51.500  
E05  25704669.961    25704683.430    25704680.898    25704683.199   135078967.045   100870656.294   103502064.922   102186339.216          40.700          42.500          43.300          48.600  
C20  24509699.961                   127628452.474                          44.300                  
C13  39117469.617    39117478.828   203694934.912   157509829.743          40.300          40.100  
C04  38695200.164    38695201.246   201496069.348   155809538.557          36.300          40.900  
C03  37673167.047    37673167.137   196174064.671   151694229.343          39.000          41.900  
C01  38228814.875    38228816.926   199067470.622   153931598.287          38.600          42.100  
C30  22219830.289                   115704482.272                          48.600                  
C29  22592945.664                   117647394.803                          47.600                  
C27  25730411.906                   133984989.430                          41.300                  
> 2025 04 10 06 37 35.0000000  0 32
G11  23612596.078                    23612604.691   124085035.859                    96689672.563          42.300                          44.700  
G17  20935061.102                    20935067.848   110014484.254                    85725595.107          46.400                          46.900  
G22  22286693.664    22286700.258                   117117356.169    91260301.975                          45.700          32.900                  
G03  22604315.813                    22604326.703   118786476.211                    92560929.762          40.700                          43.900  
G06  21295075.641                    21295085.379   111906378.740                    87199816.958          47.000                          47.800  
G19  20073841.609    20073844.422                   105488745.462    82199036.604                          47.700          41.800                  
G04  23709965.805                    23709977.484   124596720.326                    97088410.039          39.900                          42.400  
G14  23207063.039                    23207074.867   121953923.210                    95029049.913          42.000                          43.800  
G12  24357904.508                    24357915.191   128001665.994                    99741589.205          38.400                          39.200  
G09  23976464.742                    23976479.656   125997230.195                    98179705.055          38.700                          39.400  
R01  21266200.938    21266199.422                                   113680194.734   113680009.716                                          44.600          43.200                                  
R02  21197384.227    21197383.844    21197391.844    21197392.090   113113308.969   113113295.956    87977007.839    87977013.837          48.200          46.500          46.300          46.000  
R18  21842543.828    21842541.816    21842550.398    21842550.043   116596979.144   116596972.148    90686536.252    90686541.255          45.700          43.300          46.600          47.300  
R15  21773164.953    21773164.836    21773174.453    21773173.613   116349020.013   116349163.026    90493786.529    90493791.524          48.300          46.700          46.000          47.100  
R16  21720322.891    21720322.082    21720329.949    21720330.074   116026228.268   116026051.281    90242481.828    90242487.831          46.400          45.000          46.600          46.400  
R17  19935108.453    19935107.047    19935114.035    19935113.973   106676785.650   106676777.656    82970829.225    82970833.222          50.800          49.100          49.000          48.400  
R24  21941089.430    21941089.668    21941099.152    21941098.055   117328879.427   117328848.438    91255770.832    91255776.835          45.200          44.100          45.300          45.500  
E13  26352931.688    26352942.277    26352940.496    26352942.852   138485599.896   103414557.824   106112328.340   104763432.188          42.100          44.200          45.300          50.700  
E15  23667439.336    23667446.820    23667445.176    23667447.328   124373231.064    92876141.172    95298988.305    94087589.343          48.100          48.000          49.100          55.400  
E21  26811716.352    26811725.051    26811722.754    26811725.102   140896517.000   105214967.614   107959695.045   106587339.938          41.700          42.300          43.800          49.200  
E27  24493988.938    24493997.027    24493995.199    24493997.246   128716776.611    96119654.787    98627124.492    97373383.249          47.900          48.500          49.000          54.900  
E30  26315651.234    26315661.758    26315660.305    26315662.227   138289666.755   103268288.477   105962232.525   104615275.607          43.700          43.900          46.100          51.400  
E05  25703003.258    25703016.176    25703013.453    25703015.961   135070205.699   100864113.755   103495351.713   102179711.342          41.100          42.600          43.100          48.400  
C20  24506106.719                   127609741.328                          44.100                  
C13  39115680.391    39115689.895   203685619.907   157502626.800          40.500          40.300  
C04  38694538.797    38694539.516   201492624.592   155806874.858          36.300          40.800  
C03  37672528.133    37672528.969   196170741.145   151691659.382          39.000          42.400  
C02  39152619.359    39152621.727   203878050.372   157651375.160          34.800          41.100  
C01  38228183.852    38228185.949   199064184.771   153929057.465          38.400          42.000  
C30  22220178.969                   115706298.114                          48.300                  
C29  22590819.328                   117636322.160                          47.200                  
C27  25732228.938                   133994453.092                          41.700                  
> 2025 04 10 06 37 40.0000000  0 32
G11  23609535.773                    23609545.016   124068953.959                    96677141.220          41.700                          44.400  
G17  20935408.734                    20935414.793   110016309.427                    85727017.311          46.800                          46.700  
G22  22288533.656    22288540.602                   117127025.113    91267836.198                          46.400          33.200                  
G03  22606601.352                    22606611.723   118798486.675                    92570288.563          40.400                          43.900  
G06  21293259.930                    21293269.230   111896834.957                    87192380.255          47.200                          47.800  
G19  20072439.797    20072442.965                   105481379.821    82193297.145                          48.000          41.500                  
G04  23707544.117                    23707555.977   124583997.529                    97078496.176          39.500                          42.600  
G14  23209879.617                    23209891.402   121968725.245                    95040583.920          41.400                          43.200  
G12  24354579.539                    24354584.746   127984163.567                    99727950.902          40.100                          39.700  
G09  23973024.164                    23973038.922   125979149.164                    98165616.042          38.900                          39.000  
R01  21266569.984    21266569.055                                   113682169.521   113681984.534                                          44.300          43.400                                  
R02  21194149.727    21194148.758    21194157.473    21194158.109   113096049.229   113096036.211    87963583.609    87963589.613          47.500          46.300          46.200          46.100  
R18  21839721.297    21839718.934    21839727.762    21839727.137   116581907.486   116581900.479    90674813.871    90674818.874          46.000          43.300          46.200          46.700  
R15  21775537.172    21775536.582    21775545.641    21775544.969   116361693.714   116361836.714    90503643.853    90503648.850          48.200          47.300          45.100          46.000  
R16  21719334.305    21719333.496    21719341.684    21719342.043   116020949.529   116020772.534    90238376.172    90238382.176          46.200          44.300          46.800          47.300  
R17  19934285.773    19934285.543    19934292.559    19934292.352   106672388.480   106672380.486    82967409.198    82967413.202          50.200          49.200          48.800          48.600  
R24  21942712.898    21942711.848    21942721.035    21942721.121   117337555.499   117337524.532    91262518.884    91262524.886          45.200          44.100          45.800          45.700  
E13  26350488.688    26350499.828    26350497.906    26350500.289   138472763.901   103404972.513   106102492.983   104753721.854          41.600          44.200          45.600          50.900  
E15  23666747.453    23666755.352    23666753.711    23666755.879   124369597.522    92873427.811    95296204.155    94084840.589          48.500          47.700          49.300          55.400  
E21  26809263.125    26809271.758    26809269.602    26809272.012   140883625.112   105205340.565   107949816.856   106577587.314          42.000          43.100          43.900          49.100  
E27  24494067.859    24494075.836    24494074.102    24494076.133   128717191.076    96119964.286    98627442.072    97373696.788          47.700          47.600          49.100          54.900  
E30  26317802.055    26317812.332    26317811.113    26317812.855   138300968.833   103276728.311   105970892.537   104623825.537          44.400          44.400          46.300          51.400  
E05  25701339.133    25701352.012    25701348.965    25701351.531   135061458.240   100857581.572   103488649.135   102173093.962          40.700          43.100          43.100          48.600  
C20  24502514.531                   127591039.551                          44.100                  
C13  39113892.875    39113901.785   203676311.395   157495428.879          40.800          40.400  
C04  38693877.820    38693878.688   201489183.666   155804214.099          36.200          40.600  
C03  37671890.992    37671891.250   196167421.344   151689092.305          38.900          42.100  
C02  39151967.477    39151968.398   203874651.632   157648745.987          34.500          41.000  
C01  38227553.969    38227555.531   199060902.691   153926519.563          38.700          41.800  
C30  22220529.320                   115708123.889                          48.100                  
C29  22588694.219                   117625257.603                          47.900                  
C27  25734047.953                   134003922.662                          43.100                  
> 2025 04 10 06 37 45.0000000  0 32
G11  23606477.453                    23606486.094   124052880.515                    96664616.459          41.200                          44.600  
G17  20935758.906                    20935765.301   110018148.569                    85728450.391          47.100                          46.700  
G22  22290376.500    22290382.945                   117136707.866    91275381.185                          46.300          32.800                  
G03  22608889.688                    22608899.680   118810510.577                    92579657.820          41.100                          43.200  
G06  21291445.898                    21291455.250   111887302.961                    87184952.722          47.000                          47.500  
G19  20071041.211    20071044.699                   105474029.948    82187569.977                          47.700          42.300                  
G04  23705126.570                    23705137.121   124571289.061                    97068593.527          39.400                          42.300  
G14  23212698.703                    23212709.930   121983535.638                    95052124.437          42.200                          42.800  
G12  24351245.680                    24351257.004   127966676.024                    99714324.287          38.000                          39.000  
G09  23969584.984                    23969599.727   125961076.061                    98151533.207          38.100                          39.200  
R01  21266944.094    21266942.930                                   113684170.737   113683985.734                                          44.900          43.800                                  
R02  21190919.195    21190917.758    21190926.668    21190926.891   113078809.891   113078796.894    87950175.271    87950181.290          48.500          46.800          46.500          45.900  
R18  21836897.453    21836896.379    21836905.594    21836905.012   116566843.524   116566836.524    90663097.448    90663102.459          45.400          44.300          47.200          47.500  
R15  21777911.180    21777910.238    21777919.703    21777919.352   116374384.819   116374527.827    90513514.709    90513519.712          47.200          45.500          45.100          46.100  
R16  21718351.031    21718350.809    21718359.137    21718358.984   116015697.454   116015520.453    90234291.221    90234297.218          46.800          45.800          47.100          47.200  
R17  19933466.625    19933466.160    19933473.332    19933472.980   106668002.835   106667994.841    82963998.133    82964002.143          50.700          49.300          49.700          48.900  
R24  21944335.195    21944335.199    21944344.984    21944345.316   117346240.126   117346209.130    91269273.572    91269279.569          46.200          44.000          45.500          45.900  
E13  26348048.023    26348058.594    26348056.719    26348059.125   138459935.414   103395392.828   106092663.382   104744017.214          41.500          43.800          45.600          50.600  
E15  23666057.703    23666065.648    23666064.148    23666066.289   124365973.052    92870721.222    95293426.966    94082098.703          48.600          47.800          49.500          55.400  
E21  26806812.320    26806820.676    26806818.895    26806821.238   140870745.967   105195723.031   107939948.430   106567844.335          42.300          42.500          44.200          49.000  
E27  24494149.742    24494157.637    24494155.715    24494157.887   128717621.443    96120285.660    98627771.833    97374022.355          47.400          48.000          48.900          54.800  
E30  26319954.484    26319964.980    26319963.434    26319965.277   138312279.730   103285174.742   105979559.301   104632382.131          43.300          44.100          46.400          51.200  
E05  25699676.813    25699689.848    25699686.238    25699689.602   135052724.952   100851059.993   103481957.426   102166487.324          39.800          43.100          42.700          48.200  
C20  24498924.906                   127572347.504                          44.100                  
C13  39112106.492    39112115.691   203667009.668   157488236.218          41.000          40.200  
C04  38693217.125    38693218.945   201485746.892   155801556.579          35.300          41.300  
C03  37671253.859    37671254.465   196164105.641   151686528.394          39.000          41.800  
C02  39151316.086    39151316.762   203871256.911   157646121.023          34.900          42.000  
C01  38226923.984    38226925.656   199057624.702   153923984.813          38.600          41.400  
C30  22220882.102                   115709959.960                          48.400                  
C29  22586571.250                   117614201.500                          47.900                  
C27  25735867.563                   134013398.446                          43.200                  
> 2025 04 10 06 37 50.0000000  0 32
G11  23603420.641                    23603428.977   124036816.164                    96652098.799          41.600                          45.000  
G17  20936111.266                    20936117.613   110020002.262                    85729894.825          46.900                          46.300  
G22  22292221.977    22292228.320                   117146405.003    91282937.380                          46.100          33.300                  
G03  22611181.305                    22611190.754   118822548.442                    92589037.958          41.400                          43.500  
G06  21289634.188                    21289643.613   111877783.333                    87177534.832          47.200                          47.000  
G19  20069645.469    20069648.703                   105466696.392    82181855.506                          48.000          42.200                  
G04  23702710.414                    23702721.816   124558595.605                    97058702.520          38.300                          42.300  
G14  23215518.961                    23215530.141   121998355.004                    95063671.944          42.400                          42.800  
G12  24347926.914                    24347932.273   127949203.915                    99700709.628          40.300                          39.500  
G09  23966146.859                    23966161.918   125943011.381                    98137456.917          37.300                          37.900  
R01  21267323.070    21267322.375                                   113686198.938   113686013.951                                          44.900          43.700                                  
R02  21187691.852    21187690.297    21187699.781    21187699.848   113061591.883   113061578.886    87936783.495    87936789.507          48.700          46.400          46.200          47.400  
R18  21834077.430    21834076.121    21834085.332    21834084.617   116551787.800   116551780.823    90651387.449    90651392.453          45.300          43.900          47.000          47.400  
R15  21780288.680    21780287.855    21780297.820    21780297.766   116387093.744   116387236.738    90523399.404    90523404.415          46.500          45.000          44.800          45.500  
R16  21717373.883    21717373.074    21717381.414    21717380.875   116010472.522   116010295.526    90230227.369    90230233.372          47.000          45.400          47.200          47.700  
R17  19932649.648    19932648.715    19932655.914    19932655.551   106663629.469   106663621.469    82960596.626    82960600.622          51.000          49.600          50.000          49.400  
R24  21945962.016    21945961.316    21945969.996    21945970.180   117354933.771   117354902.780    91276035.284    91276041.279          45.900          44.500          44.200          45.200  
E13  26345608.461    26345619.746    26345616.934    26345619.578   138447115.040   103385819.186   106082840.001   104734318.698          41.200          44.400          45.500          50.800  
E15  23665370.086    23665377.543    23665376.090    23665378.145   124362358.223    92868021.838    95290657.160    94079364.110          48.500          47.600          49.300          55.400  
E21  26804363.898    26804372.242    26804370.461    26804372.828   140857880.151   105186115.438   107930090.211   106558111.436          41.900          41.400          44.100          49.000  
E27  24494234.867    24494242.672    24494240.703    24494242.980   128718068.345    96120619.370    98628114.245    97374360.414          48.000          47.500          49.400          54.900  
E30  26322108.148    26322119.063    26322117.328    26322119.391   138323599.997   103293628.166   105988233.246   104640945.815          43.400          44.200          46.000          51.200  
E05  25698017.477    25698030.656    25698026.484    25698030.266   135044006.387   100844549.391   103475276.970   102159891.791          40.400          42.600          41.200          47.600  
C20  24495337.211                   127553665.777                          44.000                  
C13  39110322.063    39110331.242   203657715.475   157481049.368          40.800          40.000  
C04  38692558.672    38692559.805   201482314.882   155798902.723          36.200          41.500  
C03  37670618.430    37670618.531   196160794.617   151683968.097          39.300          41.700  
C02  39150664.203    39150665.602   203867866.700   157643499.496          34.400          41.400  
C01  38226295.586    38226297.480   199054351.392   153921453.683          38.300          41.600  
C30  22221236.906                   115711806.931                          48.900                  
C29  22584449.477                   117603154.434                          47.900                  
C27  25737688.813                   134022881.045                          43.300                  
> 2025 04 10 06 37 55.0000000  0 32
G11  23600365.008                    23600373.938   124020760.549                    96639587.937          41.800                          45.100  
G17  20936466.492                    20936473.566   110021870.201                    85731350.361          46.800                          47.100  
G22  22294069.234    22294076.227                   117156116.166    91290504.508                          45.100          32.300                  
G03  22613474.695                    22613483.746   118834599.935                    92598428.725          41.300                          43.800  
G06  21287825.273                    21287833.961   111868275.746                    87170126.337          47.300                          47.300  
G19  20068252.898    20068256.340                   105459378.897    82176153.559                          48.100          41.900                  
G04  23700298.305                    23700308.641   124545916.880                    97048823.050          38.500                          42.000  
G14  23218340.359                    23218352.020   122013182.959                    95075226.148          41.700                          42.700  
G12  24344599.781                    24344610.715   127931746.913                    99687106.813          38.400                          39.400  
G09  23962710.555                    23962725.852   125924954.776                    98123386.935          36.700                          38.900  
R01  21267707.656    21267706.492                                   113688253.822   113688068.839                                          44.100          43.200                                  
R02  21184469.672    21184467.883    21184477.168    21184476.852   113044394.469   113044381.463    87923407.762    87923413.772          48.400          46.700          45.900          47.500  
R18  21831258.711    21831257.520    21831266.367    21831265.410   116536739.950   116536732.961    90639683.588    90639688.584          45.700          44.000          47.400          47.600  
R15  21782670.703    21782670.469    21782679.637    21782679.441   116399820.265   116399963.259    90533297.792    90533302.803          46.400          45.300          45.100          45.200  
R16  21716400.195    21716399.504    21716407.855    21716407.535   116005274.362   116005097.360    90226184.351    90226190.354          46.900          45.700          47.100          47.500  
R17  19931833.930    19931834.051    19931840.859    19931840.676   106659267.950   106659259.963    82957204.337    82957208.340          50.700          49.500          50.500          49.500  
R24  21947589.391    21947589.863    21947598.051    21947597.875   117363636.169   117363605.185    91282803.795    91282809.791          46.100          45.100          44.800          45.700  
E13  26343170.594    26343181.352    26343178.539    26343181.242   138434302.361   103376251.288   106073022.498   104724626.001          42.300          44.600          45.500          50.700  
E15  23664684.125    23664691.504    23664690.004    23664692.164   124358752.699    92865329.402    95287894.492    94076636.551          48.600          47.600          49.200          55.400  
E21  26801917.852    26801926.508    26801924.820    26801927.063   140845027.387   105176517.604   107920241.989   106548388.400          41.100          42.100          44.800          49.100  
E27  24494323.008    24494330.730    24494328.664    24494330.941   128718531.376    96120965.134    98628469.029    97374710.692          47.600          48.200          49.000          54.800  
E30  26324264.227    26324274.949    26324273.121    26324275.242   138334929.332   103302088.357   105996914.134   104649516.354          44.400          43.700          46.200          51.000  
E05  25696360.875    25696373.988    25696369.957    25696374.004   135035302.362   100838049.653   103468607.671   102153307.273          39.000          43.100          41.800          48.000  
C20  24491751.563                   127534994.088                          44.100                  
C13  39108538.492    39108547.656   203648428.322   157473867.966          40.200          40.700  
C04  38691900.039    38691901.633   201478887.251   155796252.262          35.800          42.000  
C03  37669982.969    37669983.609   196157487.988   151681411.204          39.000          41.400  
C02  39150013.719    39150015.590   203864480.742   157640881.269          34.600          41.600  
C01  38225668.305    38225669.547   199051082.477   153918925.958          38.800          41.600  
C30  22221593.648                   115713664.424                          48.600                  
C29  22582329.750                   117592116.049                          47.300                  
C27  25739510.469                   134032370.114                          43.600                  
> 2025 04 10 06 38  0.0000000  0 32
G11  23597311.047                    23597319.930   124004712.880                    96627083.263          42.600                          45.800  
G17  20936825.023                    20936830.965   110023751.528                    85732816.336          47.000                          47.300  
G22  22295919.766    22295926.984                   117165840.530    91298081.931                          45.000          32.300                  
G03  22615770.336                    22615779.707   118846664.232                    92607829.478          41.100                          44.200  
G06  21286018.250                    21286027.707   111858779.378                    87162726.563          47.200                          47.400  
G19  20066863.688    20066867.160                   105452076.619    82170463.467                          47.900          42.200                  
G04  23697888.109                    23697898.676   124533252.050                    97038954.383          39.400                          40.500  
G14  23221163.344                    23221174.723   122028018.740                    95086786.450          42.200                          42.200  
G12  24341285.758                    24341290.723   127914304.307                    99673515.155          40.100                          38.900  
G09  23959276.547                    23959290.918   125906905.442                    98109322.624          36.800                          40.800  
R01  21268096.859    21268095.227                                   113690334.468   113690149.472                                          43.700          41.800                                  
R02  21181250.219    21181248.898    21181257.902    21181258.320   113027217.006   113027204.008    87910047.538    87910053.542          47.700          46.300          46.100          46.200  
R18  21828440.906    21828440.184    21828449.680    21828448.918   116521699.133   116521692.124    90627985.163    90627990.159          45.600          43.600          47.000          47.600  
R15  21785055.492    21785055.137    21785064.402    21785064.117   116412563.508   116412706.522    90543209.191    90543214.193          46.800          45.600          45.600          46.000  
R16  21715433.477    21715431.965    21715439.637    21715439.582   116000102.293   115999925.290    90222161.604    90222167.607          46.700          45.500          46.600          47.600  
R17  19931021.547    19931021.199    19931027.766    19931027.445   106654917.450   106654909.456    82953820.608    82953824.604          51.200          48.700          49.400          49.800  
R24  21949219.828    21949218.188    21949226.926    21949226.879   117372346.479   117372315.479    91289578.467    91289584.465          45.700          44.500          44.700          45.100  
E13  26340733.906    26340744.434    26340741.434    26340744.328   138421496.683   103366688.621   106063210.370   104714938.604          42.300          44.800          45.600          50.700  
E15  23663999.305    23664007.039    23664005.586    23664007.828   124355155.651    92862643.297    95285138.304    94073915.406          48.800          48.500          50.000          55.400  
E21  26799474.578    26799483.379    26799481.125    26799483.656   140832186.828   105166928.882   107910403.133   106538674.611          41.600          42.500          44.500          49.100  
E27  24494413.859    24494421.754    24494419.691    24494422.105   128719009.755    96121322.360    98628835.578    97375072.574          47.700          47.700          48.600          54.700  
E30  26326421.273    26326432.355    26326430.148    26326432.598   138346266.862   103310554.673   106005601.318   104658093.103          44.800          44.700          45.800          51.000  
E05  25694707.555    25694720.188    25694716.668    25694720.230   135026611.907   100831560.060   103461948.768   102146733.025          39.600          43.300          41.400          48.000  
C20  24488167.703                   127516331.600                          43.900                  
C13  39106755.969    39106765.090   203639147.510   157466691.472          40.400          40.900  
C04  38691242.633    38691244.027   201475463.172   155793604.563          36.300          42.000  
C03  37669349.125    37669349.512   196154184.854   151678857.017          38.800          41.900  
C02  39149364.977    39149365.930   203861098.185   157638265.657          34.600          41.600  
C01  38225041.000    38225042.637   199047817.071   153916400.946          38.600          41.800  
C30  22221952.148                   115715531.667                          49.000                  
C29  22580211.727                   117581085.569                          47.200                  
C27  25741333.906                   134041864.796                          41.600                  
> 2025 04 10 06 38  5.0000000  0 32
G11  23594259.453                    23594267.637   123988673.430                    96614585.025          42.800                          45.400  
G17  20937185.875                    20937192.066   110025646.632                    85734293.024          47.100                          47.200  
G22  22297772.109    22297779.926                   117175578.438    91305669.870                          44.300          31.900                  
G03  22618067.781                    22618078.207   118858741.608                    92617240.399          40.900                          43.700  
G06  21284213.125                    21284222.566   111849294.582                    87155335.823          47.400                          47.600  
G19  20065476.875    20065480.102                   105444789.874    82164785.481                          47.800          42.000                  
G04  23695480.242                    23695491.363   124520601.499                    97029096.833          39.000                          40.200  
G14  23223987.906                    23223999.488   122042862.560                    95098353.010          42.500                          42.200  
G12  24337965.078                    24337974.715   127896876.343                    99659934.973          38.700                          39.000  
G09  23955842.414                    23955857.676   125888863.862                    98095264.334          35.700                          40.800  
R01  21268491.484    21268489.852                                   113692441.297   113692256.323                                          44.500          42.600                                  
R02  21178035.320    21178033.297    21178042.586    21178042.695   113010059.854   113010046.857    87896703.089    87896709.093          47.800          46.000          46.500          46.300  
R18  21825624.445    21825623.605    21825632.641    21825631.980   116506665.706   116506658.706    90616292.510    90616297.514          45.500          43.800          47.100          47.900  
R15  21787443.523    21787443.523    21787452.699    21787452.230   116425323.902   116425466.910    90553133.928    90553138.923          46.600          45.700          46.100          45.900  
R16  21714469.063    21714468.137    21714476.047    21714475.809   115994956.643   115994779.646    90218159.451    90218165.461          47.100          45.600          46.500          46.800  
R17  19930211.242    19930210.191    19930217.168    19930216.672   106650578.400   106650570.400    82950445.774    82950449.777          51.600          49.200          49.400          49.500  
R24  21950850.141    21950848.383    21950857.418    21950857.055   117381064.970   117381033.987    91296359.497    91296365.509          46.800          44.600          45.000          45.000  
E13  26338298.180    26338308.781    26338305.824    26338309.063   138408698.260   103357131.360   106053403.792   104705256.685          42.200          44.400          45.800          50.600  
E15  23663316.414    23663324.305    23663322.852    23663324.961   124351567.419    92859963.771    95282388.882    94071200.934          47.900          48.000          49.400          55.400  
E21  26797032.648    26797042.051    26797040.504    26797042.516   140819358.756   105157349.487   107900573.828   106528970.262          41.200          42.100          44.500          49.100  
E27  24494507.914    24494515.703    24494513.875    24494516.238   128719503.837    96121691.314    98629214.158    97375446.343          47.700          47.600          49.100          54.900  
E30  26328580.344    26328591.684    26328589.527    26328591.945   138357612.952   103319027.379   106014295.059   104666676.328          43.600          44.100          46.200          51.000  
E05  25693057.000    25693069.664    25693065.773    25693069.160   135017935.458   100825080.888   103455300.578   102140169.342          39.600          43.200          42.400          48.000  
C20  24484585.969                   127497678.665                          44.000                  
C13  39104975.016    39104983.980   203629873.292   157459520.083          40.000          40.200  
C04  38690586.227    38690587.215   201472043.054   155790959.901          36.000          41.800  
C03  37668715.492    37668715.969   196150885.654   151676305.868          38.900          41.700  
C02  39148715.242    39148716.988   203857719.408   157635652.979          34.500          41.100  
C01  38224414.430    38224416.363   199044555.569   153913878.958          38.300          42.300  
C30  22222312.516                   115717408.985                          48.900                  
C29  22578094.859                   117570063.306                          48.000                  
C27  25743158.602                   134051365.538                          43.700                  
> 2025 04 10 06 38 10.0000000  0 32
G11  23591209.289                    23591217.395   123972642.376                    96602093.309          43.300                          45.400  
G17  20937548.602                    20937555.344   110027555.615                    85735780.538          47.000                          47.200  
G22  22299628.320    22299635.582                   117185329.998    91313268.467                          44.500          32.200                  
G03  22620368.523                    22620378.691   118870832.294                    92626661.688          40.900                          44.600  
G06  21282410.758                    21282420.105   111839821.446                    87147954.157          47.200                          48.800  
G19  20064093.055    20064096.930                   105437518.828    82159119.729                          47.600          42.000                  
G04  23693076.063                    23693086.871   124507965.350                    97019250.518          39.300                          41.600  
G14  23226814.609                    23226826.227   122057714.633                    95109926.005          42.500                          42.300  
G12  24334653.680                    24334660.684   127879463.176                    99646366.257          39.200                          39.200  
G09  23952411.633                    23952425.539   125870830.099                    98081212.118          37.700                          39.900  
R01  21268890.031    21268888.633                                   113694574.641   113694389.652                                          44.500          43.600                                  
R02  21174823.922    21174822.602    21174831.590    21174831.926   112992923.125   112992910.120    87883374.539    87883380.535          48.000          46.700          46.200          46.000  
R18  21822809.344    21822808.504    21822817.742    21822817.082   116491639.779   116491632.769    90604605.688    90604610.692          44.600          43.700          46.900          47.400  
R15  21789835.273    21789835.039    21789843.879    21789843.805   116438101.457   116438244.459    90563072.010    90563077.012          47.600          45.900          45.900          45.700  
R16  21713510.281    21713509.824    21713517.914    21713517.750   115989837.374   115989660.396    90214177.786    90214183.789          46.400          45.400          46.600          46.900  
R17  19929401.688    19929401.574    19929408.070    19929407.398   106646250.774   106646242.774    82947079.853    82947083.856          50.900          49.500          49.600          49.700  
R24  21952481.500    21952480.449    21952489.758    21952489.180   117389791.857   117389760.889    91303147.067    91303153.077          46.300          44.900          44.700          45.100  
E13  26335864.797    26335874.445    26335871.492    26335874.910   138395907.233   103347579.638   106043602.883   104695580.372          43.000          44.600          44.700          50.400  
E15  23662635.398    23662643.090    23662641.637    23662643.781   124347988.141    92857290.931    95279646.320    94068493.230          48.300          48.300          49.300          55.400  
E21  26794594.219    26794603.230    26794601.496    26794603.691   140806543.388   105147779.570   107890754.271   106519275.531          41.400          42.700          44.000          49.200  
E27  24494604.914    24494612.676    24494610.895    24494613.254   128720013.673    96122072.026    98629604.806    97375832.022          47.400          47.700          49.200          54.800  
E30  26330740.852    26330752.531    26330749.906    26330752.617   138368967.717   103327506.562   106022995.439   104675266.106          43.500          44.700          45.900          51.000  
E05  25691408.172    25691421.000    25691417.625    25691420.473   135009273.170   100818612.325   103448663.255   102133616.399          39.100          42.700          42.500          48.200  
C20  24481005.711                   127479035.407                          44.400                  
C13  39103194.828    39103203.770   203620605.809   157452353.888          39.800          39.800  
C04  38689930.313    38689930.703   201468627.021   155788318.417          36.300          41.300  
C03  37668082.750    37668083.160   196147590.426   151673757.790          39.100          41.700  
C02  39148067.719    39148069.473   203854344.441   157633043.238          34.100          41.400  
C01  38223788.742    38223790.652   199041298.039   153911360.033          38.700          41.100  
C30  22222674.680                   115719296.497                          48.600                  
C29  22575979.883                   117559049.390                          47.900                  
C27  25744984.078                   134060872.404                          42.600                  
> 2025 04 10 06 38 15.0000000  0 32
G11  23588159.969                    23588168.328   123956619.618                    96589608.054          43.800                          45.100  
G17  20937914.711                    20937920.902   110029478.368                    85737278.781          47.000                          47.300  
G22  22301486.563    22301493.344                   117195095.005    91320877.541                          45.000          33.200                  
G03  22622672.195                    22622682.621   118882936.057                    92636093.185          40.900                          44.500  
G06  21280609.992                    21280618.906   111830359.903                    87140581.536          47.300                          47.700  
G19  20062712.547    20062716.156                   105430263.390    82153466.151                          48.000          42.200                  
G04  23690674.219                    23690684.820   124495343.495                    97009415.334          40.000                          40.300  
G14  23229642.477                    23229654.215   122072574.758                    95121505.287          43.100                          41.800  
G12  24331340.664                    24331350.539   127862064.711                    99632809.033          37.900                          39.000  
G09  23948981.625                    23948995.668   125852804.008                    98067165.917          37.300                          41.400  
R01  21269294.617    21269292.516                                   113696734.071   113696549.081                                          43.700          43.200                                  
R02  21171616.211    21171614.539    21171623.422    21171623.754   112975806.572   112975793.560    87870061.680    87870067.677          48.600          46.900          46.100          46.700  
R18  21819996.680    21819994.785    21820003.559    21820003.000   116476621.304   116476614.303    90592924.666    90592929.669          45.200          43.700          47.000          47.000  
R15  21792228.836    21792228.602    21792237.809    21792237.047   116450895.957   116451038.964    90573023.280    90573028.284          47.800          46.300          45.600          46.000  
R16  21712557.016    21712556.793    21712564.293    21712564.527   115984744.513   115984567.511    90210216.657    90210222.668          46.700          45.400          46.300          46.800  
R17  19928595.906    19928594.500    19928601.672    19928601.234   106641934.591   106641926.599    82943722.826    82943726.829          51.300          49.000          48.800          49.600  
R24  21954114.406    21954113.824    21954123.395    21954122.945   117398527.016   117398496.040    91309941.067    91309947.070          45.300          43.800          44.600          45.400  
E13  26333431.367    26333442.195    26333438.910    26333442.289   138383123.441   103338033.303   106033807.509   104685909.514          42.400          44.300          44.900          50.600  
E15  23661956.211    23661963.730    23661962.043    23661964.328   124344417.692    92854624.694    95276910.524    94065792.216          48.600          48.300          49.800          55.400  
E21  26792157.578    26792167.090    26792165.258    26792167.473   140793740.611   105138219.058   107880944.354   106509590.316          41.100          42.300          44.600          49.400  
E27  24494704.891    24494712.703    24494710.875    24494713.246   128720539.240    96122464.486    98630007.500    97376229.601          48.000          48.000          49.100          54.800  
E30  26332903.555    26332914.734    26332912.199    26332915.082   138380331.023   103335992.120   106031702.365   104683862.355          43.800          45.300          46.000          50.900  
E05  25689762.727    25689774.938    25689772.125    25689774.828   135000624.845   100812154.177   103442036.639   102127074.020          39.600          42.300          42.800          48.200  
C20  24477427.086                   127460401.774                          44.400                  
C13  39101416.563    39101425.988   203611345.030   157445192.891          39.900          40.200  
C04  38689274.922    38689275.965   201465214.919   155785679.953          35.800          41.300  
C03  37667450.273    37667451.168   196144299.063   151671212.699          39.200          42.300  
C02  39147419.695                   203850972.453                          33.700                  
C01  38223164.086    38223165.707   199038044.442   153908844.147          38.700          41.600  
C30  22223039.086                   115721194.096                          48.400                  
C29  22573866.352                   117548043.760                          47.800                  
C27  25746811.406                   134070385.242                          42.900                  
> 2025 04 10 06 38 20.0000000  0 32
G11  23585111.742                    23585120.684   123940604.755                    96577128.954          43.700                          44.900  
G17  20938283.023                    20938289.840   110031414.554                    85738787.499          47.200                          48.000  
G22  22303347.984    22303354.410                   117204873.168    91328496.888                          45.900          33.100                  
G03  22624977.516                    22624988.164   118895052.521                    92645534.561          39.900                          43.900  
G06  21278811.367                    21278820.781   111820909.543                    87133217.617          46.700                          47.700  
G19  20061334.703    20061338.480                   105423023.176    82147824.422                          47.900          42.400                  
G04  23688275.227                    23688285.777   124482735.546                    96999591.047          39.800                          40.200  
G14  23232471.734                    23232483.320   122087442.620                    95133090.569          42.800                          42.600  
G12  24328033.938                    24328041.793   127844680.696                    99619263.042          38.300                          37.700  
G09  23945552.172                    23945566.883   125834785.321                    98053125.428          37.000                          41.200  
R01  21269703.359    21269701.609                                   113698919.270   113698734.267                                          44.100          43.500                                  
R02  21168411.719    21168410.516    21168419.836    21168420.137   112958710.120   112958697.131    87856764.459    87856770.464          47.900          46.400          46.400          46.300  
R18  21817184.281    21817182.855    21817190.793    21817190.590   116461609.859   116461602.841    90581249.116    90581254.119          45.700          43.600          46.800          46.300  
R15  21794626.523    21794626.992    21794636.688    21794636.262   116463707.007   116463849.986    90582987.406    90582992.417          47.200          46.100          45.900          46.700  
R16  21711608.391    21711607.816    21711615.531    21711615.648   115979677.623   115979500.657    90206275.755    90206281.759          46.700          45.200          46.500          46.800  
R17  19927791.438    19927790.270    19927796.926    19927796.602   106637629.430   106637621.421    82940374.363    82940378.366          50.800          49.600          49.000          49.300  
R24  21955749.875    21955748.941    21955758.184    21955757.844   117407269.988   117407238.991    91316741.118    91316747.127          45.900          45.200          44.900          46.100  
E13  26330999.695    26331011.031    26331007.563    26331010.883   138370346.640   103328492.196   106024017.506   104676243.959          42.300          44.200          45.200          50.400  
E15  23661278.141    23661285.773    23661284.367    23661286.531   124340855.688    92851964.758    95274181.198    94063097.588          48.000          48.300          49.400          55.400  
E21  26789723.672    26789733.199    26789731.559    26789733.727   140780950.067   105128667.690   107871143.829   106499914.368          41.000          41.900          44.900          49.100  
E27  24494807.930    24494815.605    24494813.824    24494816.047   128721080.097    96122868.369    98630421.918    97376638.752          48.200          47.700          49.200          54.800  
E30  26335067.508    26335078.715    26335075.902    26335078.996   138391702.507   103344483.797   106040415.568   104692464.792          43.400          44.200          45.600          50.900  
E05  25688119.438    25688131.191    25688129.551    25688131.766   134991990.143   100805706.188   103435420.435   102120541.919          39.200          41.900          42.700          47.900  
C20  24473850.789                   127441777.354                          45.200                  
C13  39099639.156    39099648.531   203602090.451   157438036.686          40.400          40.400  
C04  38688620.250    38688621.375   201461806.360   155783044.236          36.000          40.900  
C03  37666819.219    37666819.238   196141011.240   151668670.351          39.200          41.700  
C02  39146774.195    39146774.430   203847604.550   157627832.288          35.000          41.400  
C01  38222539.539    38222541.516   199034794.348   153906330.974          38.900          41.600  
C30  22223405.547                   115723101.401                          47.900                  
C29  22571754.367                   117537045.981                          48.100                  
C27  25748639.344                   134079903.727                          42.300                  
> 2025 04 10 06 38 25.0000000  0 32
G11  23582065.648                    23582074.277   123924598.675                    96564656.694          43.100                          44.700  
G17  20938654.094                    20938660.500   110033365.045                    85740307.371          47.300                          47.100  
G22  22305210.992    22305217.602                   117214665.382    91336127.181                          45.800          33.300                  
G03  22627285.688                    22627296.375   118907182.641                    92654986.606          39.700                          43.900  
G06  21277015.227                    21277024.836   111811471.282                    87125863.137          46.500                          48.000  
G19  20059960.422    20059963.785                   105415799.142    82142195.304                          48.000          42.000                  
G04  23685878.453                    23685889.328   124470142.488                    96989778.245          39.400                          41.000  
G14  23235303.273                    23235314.070   122102319.072                    95144682.580          43.400                          42.600  
G12  24324728.461                    24324737.266   127827311.816                    99605728.888          39.400                          38.300  
G09  23942124.914                    23942139.250   125816774.831                    98039091.374          35.300                          40.000  
R01  21270117.023    21270116.094                                   113701131.247   113700946.244                                          45.600          43.900                                  
R02  21165211.680    21165210.711    21165219.578    21165219.727   112941634.680   112941621.696    87843483.594    87843489.598          46.800          45.400          46.500          46.500  
R18  21814372.461    21814372.559    21814380.859    21814380.672   116446606.364   116446599.372    90569579.757    90569584.752          44.500          43.600          47.200          47.600  
R15  21797027.719    21797027.602    21797036.895    21797036.016   116476535.688   116476678.695    90592965.251    90592970.255          46.600          45.500          46.200          46.300  
R16  21710664.898    21710663.621    21710672.188    21710672.773   115974637.725   115974460.730    90202355.847    90202361.850          45.800          44.600          46.900          46.800  
R17  19926988.695    19926987.879    19926994.359    19926994.223   106633336.172   106633328.179    82937035.158    82937039.168          50.300          49.300          48.900          49.200  
R24  21957386.516    21957385.582    21957394.250    21957394.160   117416021.818   117415990.816    91323548.095    91323554.098          46.700          44.600          44.400          45.300  
E13  26328569.703    26328580.793    26328578.680    26328580.922   138357577.575   103318956.857   106014233.419   104666584.246          42.700          45.100          45.800          51.100  
E15  23660602.375    23660609.879    23660608.332    23660610.527   124337303.056    92849311.820    95271459.054    94060410.046          48.100          47.700          49.000          55.500  
E21  26787292.000    26787302.023    26787299.914    26787302.250   140768172.600   105119126.079   107861353.306   106490248.300          41.200          42.800          44.700          49.600  
E27  24494914.016    24494921.688    24494919.859    24494922.070   128721637.184    96123284.370    98630848.771    97377060.179          48.300          48.000          48.900          54.500  
E30  26337233.586    26337244.492    26337241.770    26337244.711   138403083.095   103352982.254   106049135.743   104701074.105          43.700          43.700          44.900          50.700  
E05  25686478.586    25686491.168    25686489.152    25686491.461   134983370.083   100799269.137   103428815.468   102114020.908          41.500          41.700          42.800          48.200  
C20  24470275.914                   127423163.052                          44.600                  
C13  39097863.453    39097872.555   203592843.152   157430886.106          40.500          40.000  
C04  38687966.609    38687968.238   201458402.251   155780411.962          35.900          41.200  
C03  37666188.445    37666189.012   196137727.836   151666131.407          38.300          41.700  
C02  39146127.969    39146128.746   203844241.107   157625230.486          34.200          38.100  
C01  38221916.391    38221918.348   199031548.626   153903821.176          38.800          42.000  
C30  22223774.070                   115725019.352                          48.400                  
C29  22569643.500                   117526057.017                          47.600                  
C27  25750468.625                   134089428.759                          43.500                  
