     3.04           OBSERVATION DATA    M (MIXED)           RINEX VERSION / TYPE
BLANK OR G = GPS, R = GLONASS, C = BDS, E = GAL, J = QZSS, M = MIXEDCOMMENT             
HGO                 HITARGET            20250511 084953 UTC PGM / RUN BY / DATE 
5555                                                        MARKER NAME         
                                                            MARKER NUMBER       
whoever             HITARGET                                OBSERVER / AGENCY   
10020466            iRTK2                                   REC # / TYPE / VERS 
1                   HITIRTK2-2                              ANT # / TYPE        
 -2623848.6375  3977001.4306  4226059.5067                  APPROX POSITION XYZ 
------------------------------------------------------------COMMENT             
*** Antenna height is from mark to ANTENNA Phase Center.    COMMENT             
------------------------------------------------------------COMMENT             
        1.3992        0.0000        0.0000                  ANTENNA: DELTA H/E/N
G    9 C1C C2W C2X L1C L2W L2X S1C S2W S2X                  SYS / # / OBS TYPES 
R   12 C1C C1P C2P C2C L1C L1P L2P L2C S1C S1P S2P S2C      SYS / # / OBS TYPES 
E   12 C1X C5X C7X C8X L1X L5X L7X L8X S1X S5X S7X S8X      SYS / # / OBS TYPES 
C    6 C2I C7I L2I L7I S2I S7I                              SYS / # / OBS TYPES 
     5.000                                                  INTERVAL            
  2025     4    10     7     5   35.0000000     GPS         TIME OF FIRST OBS   
  2025     4    10     8    13   35.0000000     GPS         TIME OF LAST OBS    
     0                                                      RCV CLOCK OFFS APPL 
    18                                                      LEAP SECONDS        
                                                            END OF HEADER       
> 2025 04 10 07 05 35.0000000  0 31
G17  21155252.844                    21155260.508   111171600.603                    86627249.637          47.500                          45.700  
G11  22629336.445                    22629345.023   118917963.392                    92663380.347          41.500                          44.600  
G09  22874321.594                    22874333.688   120205372.044                    93666548.567          41.800                          43.600  
G19  19732382.727    19732386.590                   103694370.362    80800825.105                          48.200          43.100                  
G22  22991895.719    22991905.207                   120823229.522    94148006.239                          40.500          26.900                  
G03  23452728.617                    23452740.043   123244912.116                    96035048.019          40.100                          42.800  
G04  23017469.898                    23017480.434   120957619.160                    94252735.102          40.800                          42.600  
G06  20762754.727                    20762764.160   109109009.311                    85020048.687          47.800                          48.400  
G12  23364803.273                    23364812.191   122782880.041                    95674990.385          39.400                          40.600  
R24  22527426.211    22527425.277    22527437.242    22527437.219   120464267.426   120464258.464    93694420.563    93694426.552          42.500          41.300          42.800          43.700  
R18  20928962.078    20928961.121    20928969.293    20928969.309   111720241.905   111720206.885    86893494.558    86893498.563          46.600          45.300          47.300          47.000  
R03  22516240.891    22516240.102    22516255.363    22516255.098   120531208.564   120531194.570    93746495.186    93746501.196          42.500          41.400          43.200          44.100  
R02  20298571.313    20298569.641    20298579.172    20298578.840   108317062.813   108317052.809    84246597.169    84246603.181          47.300          46.200          47.800          48.100  
R16  21619115.266    21619114.105    21619124.051    21619123.848   115485431.943   115485416.951    89821990.936    89821997.946          45.000          44.100          46.300          46.600  
R17  19735631.664    19735631.199    19735639.348    19735639.156   105609348.662   105609335.659    82140596.768    82140601.778          49.300          47.500          49.400          50.300  
R01  21610913.852    21610912.805                                   115522725.171   115522712.182                                          41.000          40.200                                  
E03  26603444.164    26603456.891    26603455.016    26603456.977   139802043.604   104397613.684   107121029.533   105759313.718          41.500          42.100          45.500          49.100  
E13  25564261.023    25564270.930    25564268.441    25564271.051   134341103.813   100319630.206   102936662.724   101628142.074          42.600          45.500          45.800          51.300  
E15  23481651.547    23481659.266    23481657.578    23481659.863   123396910.949    92147064.105    94550840.019    93349010.669          47.600          49.200          50.700          56.100  
E21  26084537.445    26084546.066    26084543.957    26084546.355   137075168.171   102361348.305   105031640.855   103696517.691          42.100          43.300          44.300          49.400  
E27  24640188.930    24640196.691    24640195.004    24640197.426   129485062.696    96693374.136    99215809.480    97954584.917          47.000          47.600          48.800          54.000  
E05  25254409.352    25254418.332    25254417.582    25254420.020   132712821.170    99103709.693   101689023.525   100396361.716          41.900          39.900          43.000          47.100  
E30  27075509.797    27075524.000    27075520.906    27075524.156   142282758.533   106250091.494   109021833.239   107635958.480          44.200          44.400          45.000          49.800  
C04  38470020.922    38470019.941   200323491.724   154902828.713          37.100          40.100  
C03  37455252.914    37455253.074   195039333.321   150816779.149          38.100          41.600  
C02  38928977.523    38928977.559   202713481.477   156750858.716          36.300          40.000  
C01  38013363.820    38013365.434   197945555.131   153064067.166          38.300          42.200  
C30  22402762.953                   116657060.471                          48.300                  
C29  21924925.430                   114168837.925                          48.400                  
C20  23370461.086                   121696121.057                          46.800                  
C13  38542365.070    38542373.242   200700207.345   155194117.526          39.700          40.200  
> 2025 04 10 07 05 40.0000000  0 31
G17  21156318.281                    21156325.762   111177198.494                    86631611.622          46.100                          45.700  
G11  22626648.391                    22626656.609   118903835.652                    92652371.715          42.500                          45.600  
G09  22871354.922                    22871365.379   120189776.342                    93654396.125          42.400                          43.900  
G19  19731874.930    19731878.969                   103691702.431    80798746.193                          48.200          43.000                  
G22  22994312.602    22994321.547                   120835926.183    94157899.712                          41.400          29.600                  
G03  23455546.117                    23455558.313   123259720.755                    96046587.169          42.600                          44.900  
G04  23015908.125                    23015918.285   120949411.021                    94246339.148          39.200                          42.600  
G06  20761498.883                    20761508.598   109102412.595                    85014908.403          48.100                          48.600  
G12  23362364.289                    23362371.969   122770062.521                    95665002.650          40.600                          40.600  
R24  22529392.625    22529391.223    22529402.234    22529402.863   120474778.986   120474769.992    93702596.150    93702602.135          41.600          39.900          41.800          42.800  
R18  20926455.195    20926453.887    20926462.320    20926461.805   111706858.195   111706823.189    86883085.008    86883089.012          45.000          43.600          47.000          47.600  
R03  22511664.094    22511662.484    22511677.965    22511678.430   120506703.874   120506689.881    93727436.052    93727442.056          43.200          40.900          43.200          45.000  
R02  20296610.797    20296610.414    20296619.285    20296619.242   108306601.868   108306591.857    84238460.887    84238466.897          47.400          46.500          48.100          48.700  
R16  21619588.758    21619587.832    21619597.672    21619597.152   115487958.813   115487943.818    89823956.251    89823963.239          45.000          44.200          45.200          46.400  
R17  19735373.469    19735372.063    19735380.277    19735380.051   105607965.097   105607952.095    82139520.647    82139525.658          49.200          47.800          49.300          50.300  
R01  21612658.961    21612658.734                                   115532056.748   115532043.746                                          41.100          40.000                                  
E03  26600643.391    26600656.648    26600653.930    26600656.328   139787326.406   104386623.624   107109752.766   105748180.300          41.800          43.100          44.800          49.900  
E13  25562105.578    25562115.336    25562113.086    25562115.660   134329777.367   100311172.153   102927984.019   101619573.696          41.300          44.800          46.200          51.500  
E15  23481328.055    23481335.617    23481333.648    23481336.098   123395209.917    92145793.853    94549536.626    93347723.848          48.200          48.500          50.000          55.600  
E21  26082785.578    26082793.813    26082791.844    26082794.102   137065959.575   102354471.747   105024584.898   103689551.429          42.100          44.100          45.100          50.100  
E27  24641068.180    24641075.645    24641074.379    24641076.598   129489683.277    96696824.550    99219349.909    97958080.334          48.000          47.000          49.000          54.200  
E05  25253519.469    25253530.043    25253528.355    25253531.098   132708147.559    99100219.618   101685442.446   100392826.140          39.100          39.600          42.300          46.700  
E30  27077952.000    27077966.082    27077963.082    27077966.133   142295591.085   106259674.171   109031665.909   107645666.146          44.300          43.800          45.200          50.500  
C04  38469443.445    38469443.004   200320487.918   154900505.976          36.100          39.800  
C03  37454696.141    37454695.992   195036433.062   150814536.470          38.700          41.100  
C02  38928398.516    38928398.063   202710463.198   156748524.772          36.200          40.800  
C01  38012813.953    38012815.430   197942692.887   153061853.878          37.100          42.100  
C30  22403600.859                   116661426.617                          48.100                  
C29  21923199.367                   114159851.733                          48.800                  
C20  23367431.359                   121680346.289                          45.400                  
C13  38540841.234    38540848.977   200692271.402   155187980.979          39.900          40.400  
> 2025 04 10 07 05 45.0000000  0 31
G17  21157385.703                    21157393.000   111182807.011                    86635981.891          46.600                          44.700  
G11  22623961.250                    22623968.906   118889713.239                    92641367.239          42.900                          44.200  
G09  22868388.563                    22868399.699   120174189.834                    93642250.828          42.100                          43.000  
G19  19731370.148    19731374.117                   103689048.822    80796678.432                          48.200          42.900                  
G22  22996729.719    22996739.293                   120848629.201    94167798.120                          40.900          28.300                  
G03  23458365.734                    23458377.063   123274534.927                    96058130.700          39.900                          40.600  
G04  23014348.820                    23014359.355   120941217.391                    94239954.527          39.700                          44.400  
G06  20760245.289                    20760255.398   109095823.858                    85009774.319          47.700                          48.700  
G12  23359927.953                    23359936.477   122757260.035                    95655026.734          40.400                          40.000  
R24  22531358.359    22531357.191    22531368.613    22531369.109   120485295.283   120485286.281    93710775.485    93710781.477          41.700          39.700          43.700          44.600  
R18  20923947.805    20923947.551    20923955.785    20923955.500   111693479.313   111693444.301    86872679.214    86872683.218          44.600          43.400          46.900          47.000  
R03  22507086.438    22507085.766    22507100.660    22507101.414   120482204.749   120482190.753    93708381.260    93708387.266          42.500          40.800          42.600          43.800  
R02  20294654.766    20294653.445    20294662.633    20294662.535   108296162.872   108296152.876    84230341.680    84230347.691          47.100          46.200          48.100          48.100  
R16  21620064.031    21620064.043    21620074.141    21620073.629   115490507.310   115490492.322    89825938.425    89825945.427          43.200          42.700          44.500          45.500  
R17  19735116.461    19735115.176    19735123.371    19735123.004   105606590.146   105606577.167    82138451.252    82138456.255          49.700          47.300          49.000          49.600  
R01  21614409.188    21614408.492                                   115541407.573   115541394.587                                          39.700          38.400                                  
E03  26597844.398    26597857.109    26597854.250    26597856.793   139772614.863   104375637.774   107098480.311   105737051.152          39.700          41.100          43.200          47.700  
E13  25559951.000    25559960.539    25559958.758    25559960.930   134318454.530   100302716.807   102919308.087   101611008.052          42.800          45.000          46.000          51.500  
E15  23481005.250    23481012.648    23481010.914    23481013.258   123393513.597    92144527.115    94548236.839    93346440.583          48.500          48.300          49.500          55.600  
E21  26081034.750    26081043.406    26081041.578    26081043.930   137056762.214   102347603.600   105017537.578   103682593.694          42.700          43.700          43.700          49.600  
E27  24641949.289    24641956.867    24641955.883    24641957.996   129494315.016    96700283.316    99222898.899    97961584.213          46.600          47.000          48.900          54.000  
E05  25252632.563    25252642.672    25252641.781    25252643.926   132703485.940    99096738.574   101681870.581   100389299.685          42.000          38.700          41.100          45.500  
E30  27080394.594    27080408.520    27080405.379    27080408.430   142308426.154   106269258.740   109041500.502   107655375.727          44.400          42.900          43.900          49.500  
C04  38468866.555    38468866.449   200317484.717   154898183.719          36.700          40.800  
C03  37454138.992    37454138.996   195033533.477   150812294.318          39.000          41.300  
C02  38927818.219    38927818.379   202707445.422   156746191.248          36.000          41.800  
C01  38012264.398    38012265.836   197939831.268   153059641.095          38.100          42.100  
C30  22404441.406                   116665799.779                          48.700                  
C29  21921475.008                   114150871.727                          48.800                  
C20  23364403.797                   121664581.359                          46.300                  
C13  38539318.391    38539325.363   200684339.013   155181847.151          40.500          40.100  
> 2025 04 10 07 05 50.0000000  0 31
G17  21158454.133                    21158462.324   111188425.154                    86640359.663          46.600                          45.500  
G11  22621274.227                    22621282.609   118875595.241                    92630366.238          42.200                          43.800  
G09  22865423.477                    22865435.910   120158611.611                    93630112.021          40.200                          44.300  
G19  19730867.914    19730871.430                   103686408.515    80794621.042                          47.900          42.100                  
G22  22999148.469    22999157.656                   120861337.604    94177700.764                          41.600          27.800                  
G03  23461185.695                    23461197.176   123289353.649                    96069677.748          39.400                          40.200  
G04  23012791.992                    23012802.609   120933037.220                    94233580.370          40.200                          43.500  
G06  20758992.602                    20759002.738   109089242.125                    85004645.697          47.800                          48.400  
G12  23357494.336                    23357503.051   122744471.689                    95645061.795          41.600                          42.500  
R24  22533325.313    22533325.434    22533336.039    22533336.715   120495815.255   120495806.274    93718957.665    93718963.662          40.300          39.500          42.200          42.300  
R18  20921443.164    20921442.793    20921450.492    20921450.059   111680104.225   111680069.204    86862276.355    86862280.359          44.500          43.000          48.000          48.800  
R03  22502510.664    22502509.758    22502524.793    22502525.117   120457709.967   120457695.974    93689329.860    93689335.863          43.000          41.600          43.000          44.400  
R02  20292702.211    20292700.891    20292710.262    20292710.332   108285744.865   108285734.868    84222238.791    84222244.795          46.600          45.600          48.100          48.600  
R16  21620545.602    21620546.082    21620555.605    21620555.828   115493076.286   115493061.297    89827936.487    89827943.491          43.500          42.800          44.700          45.300  
R17  19734861.031    19734859.863    19734867.863    19734867.699   105605222.920   105605209.918    82137387.844    82137392.849          49.600          47.600          49.400          50.000  
R01  21616161.484    21616161.609                                   115550776.414   115550763.427                                          38.700          38.400                                  
E03  26595045.313    26595058.539    26595056.051    26595058.219   139757908.028   104364655.456   107087211.508   105725925.587          39.300          42.100          43.400          48.200  
E13  25557797.031    25557805.926    25557804.613    25557806.582   134307134.477   100294263.549   102910634.307   101602444.534          42.600          44.400          46.100          50.900  
E15  23480683.008    23480690.621    23480688.605    23480691.156   123391821.033    92143263.188    94546939.938    93345160.172          48.800          48.500          49.800          55.500  
E21  26079287.047    26079295.219    26079293.531    26079295.508   137047575.236   102340743.170   105010498.196   103675643.789          44.700          45.100          46.700          51.500  
E27  24642832.891    24642840.320    24642839.523    24642841.387   129498956.943    96703749.679    99226455.690    97965095.792          46.700          47.400          49.800          54.400  
E05  25251747.484    25251757.609    25251757.469    25251758.824   132698835.585    99093265.884   101678307.306   100385781.703          43.100          40.100          43.600          47.400  
E30  27082837.633    27082851.180    27082848.316    27082851.270   142321262.698   106278844.419   109051336.265   107665086.447          43.500          43.700          44.400          49.600  
C04  38468290.172    38468289.836   200314481.319   154895861.314          37.200          41.000  
C03  37453581.938    37453582.344   195030633.470   150810051.870          39.400          40.900  
C02  38927239.016    38927239.105   202704427.204   156743857.336          36.800          41.800  
C01  38011714.914    38011716.070   197936969.271   153057428.018          37.400          42.200  
C30  22405281.727                   116670178.976                          48.200                  
C29  21919751.094                   114141896.969                          48.700                  
C20  23361378.180                   121648825.352                          46.900                  
C13  38537794.664    38537802.668   200676409.030   155175715.180          39.000          40.100  
> 2025 04 10 07 05 55.0000000  0 31
G17  21159525.828                    21159533.367   111194053.787                    86644745.602          46.300                          45.800  
G11  22618588.469                    22618596.848   118861482.594                    92619369.353          42.700                          43.800  
G09  22862460.398                    22862472.246   120143042.490                    93617980.230          40.800                          43.900  
G19  19730368.266    19730371.531                   103683782.462    80792574.771                          48.700          42.600                  
G22  23001568.063    23001577.070                   120874052.222    94187608.237                          40.600          28.500                  
G03  23464006.367                    23464018.535   123304177.835                    96081228.951          42.500                          43.600  
G04  23011238.211                    23011248.641   120924871.493                    94227217.464          42.200                          42.300  
G06  20757742.125                    20757751.918   109082668.356                    84999523.267          47.800                          48.100  
G12  23355063.695                    23355072.355   122731698.467                    95635108.670          40.600                          40.200  
R24  22535294.102    22535293.754    22535304.391    22535304.676   120506339.945   120506330.963    93727143.502    93727149.499          41.800          40.800          41.900          43.200  
R18  20918937.641    20918937.504    20918946.309    20918945.422   111666733.874   111666698.891    86851877.199    86851881.211          46.400          45.300          48.300          48.600  
R03  22497936.977    22497935.367    22497950.035    22497950.484   120433220.846   120433206.862    93670282.813    93670288.804          44.100          42.800          43.300          44.500  
R02  20290753.961    20290753.461    20290762.656    20290762.301   108275348.471   108275338.483    84214152.709    84214158.721          47.000          45.900          48.000          48.800  
R16  21621031.789    21621030.629    21621039.754    21621039.672   115495666.856   115495651.853    89829951.346    89829958.358          44.300          42.600          45.600          47.100  
R17  19734606.406    19734606.059    19734614.285    19734613.793   105603864.319   105603851.333    82136331.141    82136336.143          49.000          48.100          48.800          49.300  
R01  21617918.555    21617917.508                                   115560164.315   115560151.339                                          41.400          39.800                                  
E03  26592247.766    26592260.637    26592258.105    26592260.703   139743206.834   104353677.308   107075946.970   105714804.245          40.700          41.900          43.600          48.300  
E13  25555643.602    25555652.992    25555650.836    25555653.270   134295818.104   100285813.001   102901963.313   101593883.764          42.200          43.700          45.300          50.100  
E15  23480362.055    23480369.348    23480367.707    23480370.023   123390133.118    92142002.736    94545646.611    93343883.282          48.000          49.100          50.600          55.900  
E21  26077540.102    26077549.184    26077547.074    26077549.508   137038399.495   102333891.211   105003467.476   103668702.452          42.200          43.800          44.600          49.400  
E27  24643717.813    24643726.000    24643724.406    24643726.723   129503610.014    96707224.363    99230021.008    97968615.789          46.800          47.000          48.000          53.600  
E05  25250865.039    25250875.598    25250874.285    25250876.648   132694197.294    99089802.214   101674753.295   100382272.858          41.800          40.400          42.800          47.000  
E30  27085280.352    27085294.391    27085291.906    27085294.660   142334101.776   106288431.945   109061173.911   107674799.038          43.600          43.500          44.100          49.400  
C04  38467713.070    38467712.844   200311478.488   154893539.332          36.100          40.800  
C03  37453025.836    37453025.508   195027734.052   150807809.850          39.000          41.100  
C02  38926660.438    38926659.168   202701409.449   156741523.856          36.000          40.600  
C01  38011165.602    38011166.969   197934107.890   153055215.397          37.900          43.100  
C30  22406124.406                   116674565.196                          48.600                  
C29  21918029.289                   114132928.379                          48.800                  
C20  23358354.563                   121633079.127                          46.800                  
C13  38536272.586    38536280.387   200668482.609   155169585.979          40.900          40.400  
> 2025 04 10 07 06  0.0000000  0 31
G17  21160598.844                    21160606.195   111199692.441                    86649139.348          46.600                          44.800  
G11  22615904.164                    22615912.441   118847374.692                    92608376.168          42.000                          45.200  
G09  22859498.477                    22859511.621   120127481.971                    93605855.192          40.900                          43.600  
G19  19729870.711    19729874.488                   103681170.074    80790539.145                          48.400          42.800                  
G22  23003988.297    23003997.680                   120886772.557    94197520.128                          40.600          28.300                  
G03  23466828.297                    23466839.586   123319006.866                    96092784.038          43.800                          42.800  
G04  23009686.531                    23009697.320   120916719.640                    94220865.383          42.100                          42.400  
G06  20756492.688                    20756502.844   109076101.912                    84994406.543          47.600                          49.100  
G12  23352636.813                    23352644.305   122718939.730                    95625166.812          40.800                          39.800  
R24  22537263.320    22537262.387    22537272.648    22537272.910   120516868.791   120516859.811    93735332.614    93735338.611          41.900          41.300          42.400          42.200  
R18  20916434.273    20916433.434    20916442.203    20916441.539   111653367.702   111653332.704    86841481.307    86841485.311          46.300          45.100          48.900          48.600  
R03  22493363.406    22493361.211    22493376.027    22493376.230   120408736.592   120408722.591    93651239.579    93651245.583          43.700          42.000          42.800          43.200  
R02  20288810.148    20288808.711    20288818.215    20288817.980   108264973.552   108264963.541    84206083.325    84206089.337          47.000          46.400          48.600          48.900  
R16  21621520.102    21621519.879    21621529.344    21621529.324   115498278.167   115498263.170    89831982.364    89831989.361          45.200          43.100          44.900          45.200  
R17  19734354.703    19734353.297    19734361.289    19734361.063   105602513.781   105602500.793    82135280.718    82135285.721          48.900          47.900          49.200          50.200  
R01  21619677.883    21619677.070                                   115569570.704   115569557.700                                          42.200          40.000                                  
E03  26589451.000    26589463.656    26589461.496    26589463.871   139728510.750   104342703.009   107064686.387   105703686.803          41.100          40.900          43.600          48.300  
E13  25553490.422    25553499.992    25553497.930    25553500.313   134284504.789   100277364.737   102893294.661   101585325.310          41.200          44.600          45.600          51.100  
E15  23480041.750    23480048.949    23480047.074    23480049.512   123388449.257    92140745.299    94544356.368    93342609.444          48.900          48.800          50.900          56.000  
E21  26075796.820    26075805.164    26075802.867    26075805.441   137029234.508   102327047.229   104996444.957   103661769.201          43.400          44.400          44.600          50.100  
E27  24644605.695    24644613.305    24644611.992    24644614.078   129508273.592    96710706.889    99233594.392    97972143.751          47.100          47.200          48.600          54.000  
E05  25249984.570    25249995.395    25249993.801    25249996.188   132689570.497    99086347.167   101671208.107   100378772.746          41.100          41.500          43.700          47.900  
E30  27087724.188    27087738.199    27087735.059    27087738.160   142346942.656   106298020.865   109071012.974   107684513.028          44.300          43.700          43.900          49.800  
C04  38467135.930    38467136.367   200308475.690   154891217.391          36.100          40.600  
C03  37452469.188    37452468.766   195024834.656   150805567.851          39.600          41.100  
C02  38926080.102    38926079.766   202698391.528   156739190.227          36.100          41.100  
C01  38010615.797    38010617.328   197931246.431   153053002.760          38.600          43.000  
C30  22406968.039                   116678957.803                          48.100                  
C29  21916307.953                   114123965.374                          48.800                  
C20  23355332.516                   121617342.123                          46.800                  
C13  38534750.906    38534759.168   200660559.063   155163459.006          39.200          40.900  
> 2025 04 10 07 06  5.0000000  0 31
G17  21161673.602                    21161681.031   111205341.431                    86653541.142          46.500                          46.300  
G11  22613220.383                    22613228.883   118833271.974                    92597387.066          42.400                          45.400  
G09  22856539.922                    22856552.770   120111930.606                    93593737.291          41.000                          44.300  
G19  19729376.563    19729380.477                   103678571.818    80788514.518                          48.300          43.000                  
G22  23006410.359    23006419.438                   120899498.999    94207436.820                          40.900          28.200                  
G03  23469651.852                    23469663.191   123333841.231                    96104343.242          42.100                          42.200  
G04  23008138.031                    23008148.914   120908582.113                    94214524.435          40.100                          42.700  
G06  20755244.016                    20755254.035   109069543.284                    84989295.921          47.900                          48.200  
G12  23350211.336                    23350219.410   122706196.032                    95615236.688          39.100                          38.500  
R24  22539233.617    22539232.215    22539243.301    22539243.352   120527402.139   120527393.135    93743525.151    93743531.150          42.800          41.400          42.700          43.600  
R18  20913930.750    20913929.676    20913938.766    20913938.070   111640006.233   111639971.221    86831089.058    86831093.063          46.300          44.700          48.300          48.100  
R03  22488790.047    22488788.203    22488802.844    22488803.121   120384257.591   120384243.577    93632200.456    93632206.454          43.900          42.600          43.100          44.100  
R02  20286870.586    20286868.680    20286878.012    20286877.945   108254620.476   108254610.451    84198030.950    84198036.955          47.800          47.100          48.100          49.000  
R16  21622012.453    21622011.879    21622021.551    21622021.594   115500910.744   115500895.762    89834029.887    89834036.891          45.900          43.800          45.200          46.000  
R17  19734103.094    19734102.512    19734110.730    19734110.676   105601171.713   105601158.732    82134236.895    82134241.898          49.500          47.600          49.100          49.300  
R01  21621440.117    21621439.891                                   115578995.961   115578982.980                                          43.200          41.500                                  
E03  26586655.523    26586668.102    26586666.039    26586668.344   139713820.183   104331732.807   107053429.998   105692573.511          41.300          41.300          43.500          48.200  
E13  25551338.156    25551347.586    25551346.180    25551348.309   134273195.020   100268919.159   102884628.763   101576769.564          42.300          44.700          46.100          51.500  
E15  23479721.883    23479729.500    23479727.813    23479730.141   123386769.939    92139491.262    94543069.620    93341339.047          48.000          48.400          50.100          55.500  
E21  26074054.773    26074063.668    26074060.477    26074063.602   137020080.624   102320211.541   104989430.945   103654844.352          43.700          44.100          44.700          49.800  
E27  24645495.047    24645503.102    24645501.461    24645503.664   129512948.135    96714197.607    99237176.171    97975679.991          47.400          47.400          49.100          54.100  
E05  25249105.922    25249117.188    25249115.406    25249117.938   132684955.631    99082901.018   101667672.060   100375281.644          40.000          41.100          44.300          48.100  
E30  27090168.594    27090182.164    27090179.586    27090182.297   142359785.832   106307611.498   109080853.810   107694228.764          44.000          43.600          44.200          49.900  
C04  38466559.641    38466559.691   200305473.419   154888895.847          35.600          39.600  
C03  37451912.125    37451911.785   195021935.667   150803326.158          39.400          41.600  
C02  38925500.039    38925500.102   202695373.997   156736856.821          35.400          41.100  
C01  38010066.570    38010067.797   197928385.456   153050790.467          37.700          41.700  
C30  22407812.773                   116683357.267                          48.100                  
C29  21914588.094                   114115008.408                          49.500                  
C20  23352312.398                   121601614.855                          47.600                  
C13  38533230.063    38533237.457   200652638.819   155157334.573          40.800          40.500  
> 2025 04 10 07 06 10.0000000  0 31
G17  21162750.609                    21162757.988   111211001.184                    86657951.322          45.000                          45.200  
G11  22610537.438                    22610546.309   118819174.796                    92586402.251          42.400                          45.600  
G09  22853582.164                    22853595.063   120096388.573                    93581626.585          40.000                          44.900  
G19  19728884.844    19728889.031                   103675988.032    80786501.184                          48.300          42.700                  
G22  23008834.047    23008842.512                   120912231.868    94217358.511                          40.700          27.900                  
G03  23472476.008                    23472486.887   123348681.197                    96115906.875          41.300                          41.400  
G04  23006592.031                    23006603.047   120900459.217                    94208194.910          39.200                          42.300  
G06  20753998.078                    20754007.875   109062992.791                    84984191.654          48.100                          48.800  
G12  23347787.844                    23347797.199   122693467.627                    95605318.430          39.300                          37.900  
R24  22541203.930    22541203.113    22541214.582    22541214.289   120537940.357   120537931.353    93751721.528    93751727.520          42.900          41.700          42.200          43.100  
R18  20911428.164    20911428.145    20911436.566    20911436.320   111626649.703   111626614.720    86820700.652    86820704.649          45.800          44.100          47.600          47.500  
R03  22484218.023    22484216.414    22484231.090    22484231.410   120359784.354   120359770.339    93613165.835    93613171.838          44.800          43.700          43.200          44.100  
R02  20284933.469    20284932.617    20284941.414    20284941.297   108244289.180   108244279.176    84189995.497    84190001.509          47.600          46.900          48.100          47.800  
R16  21622510.219    21622508.355    21622518.270    21622518.160   115503564.898   115503549.903    89836094.228    89836101.224          44.800          43.300          46.800          47.300  
R17  19733854.227    19733853.293    19733861.438    19733861.492   105599838.563   105599825.577    82133200.001    82133205.004          49.400          47.600          49.000          49.700  
R01  21623208.531    21623206.664                                   115588440.342   115588427.339                                          41.500          39.700                                  
E03  26583861.477    26583873.891    26583872.012    26583874.305   139699135.513   104320766.968   107042178.114   105681464.644          42.300          41.900          45.200          48.900  
E13  25549187.016    25549196.063    25549194.797    25549196.793   134261889.044   100260476.374   102875965.743   101568216.664          42.900          44.900          45.800          51.000  
E15  23479403.172    23479410.957    23479408.895    23479411.395   123385095.488    92138240.857    94541786.587    93340072.332          48.300          49.100          50.100          55.500  
E21  26072315.148    26072323.199    26072320.340    26072323.656   137010938.243   102313384.441   104982425.744   103647928.201          43.400          43.800          44.000          49.500  
E27  24646387.328    24646394.836    24646393.242    24646395.473   129517633.965    96717696.757    99240766.605    97979224.784          47.400          47.700          49.400          54.500  
E05  25248230.531    25248241.309    25248239.574    25248242.027   132680353.079    99079464.053   101664145.424   100371799.846          40.200          40.000          43.100          47.200  
E30  27092612.750    27092627.043    27092623.715    27092626.719   142372631.631   106317204.070   109090696.621   107703946.451          42.500          41.900          43.500          48.400  
C04  38465983.500    38465983.168   200302471.998   154886574.954          36.000          40.100  
C03  37451355.578    37451355.121   195019037.411   150801085.024          39.900          41.500  
C02  38924921.063    38924920.750   202692357.046   156734523.951          36.200          40.200  
C01  38009517.313    38009518.383   197925525.228   153048578.753          38.100          43.100  
C30  22408659.086                   116687763.913                          47.600                  
C29  21912868.875                   114106057.835                          49.300                  
C20  23349293.688                   121585897.610                          47.300                  
C13  38531709.797    38531717.781   200644722.232   155151212.994          39.900          39.600  
> 2025 04 10 07 06 15.0000000  0 31
G17  21163829.508                    21163837.297   111216671.586                    86662369.806          46.100                          45.700  
G11  22607855.453                    22607864.152   118805083.082                    92575421.717          43.100                          44.900  
G09  22850626.828                    22850639.180   120080855.881                    93569523.242          40.800                          44.100  
G19  19728395.422    19728399.781                   103673418.676    80784499.093                          48.000          42.600                  
G22  23011257.922    23011266.844                   120924971.174    94227285.219                          40.600          25.600                  
G03  23475300.813                    23475311.867   123363526.728                    96127474.796          40.800                          41.600  
G04  23005049.422                    23005060.164   120892350.949                    94201876.827          39.900                          44.000  
G06  20752752.813                    20752762.535   109056450.367                    84979093.669          48.200                          48.600  
G12  23345370.391                    23345378.207   122680754.527                    95595412.088          40.200                          40.400  
R24  22543174.867    22543173.816    22543185.676    22543186.109   120548483.543   120548474.530    93759921.747    93759927.751          43.100          41.700          43.200          43.800  
R18  20908927.195    20908926.238    20908934.980    20908934.523   111613298.120   111613263.115    86810316.115    86810320.119          44.900          43.900          48.000          48.200  
R03  22479646.219    22479645.785    22479660.523    22479660.473   120335316.829   120335302.841    93594135.587    93594141.591          44.100          42.900          42.600          43.500  
R02  20283001.453    20283000.484    20283009.898    20283009.770   108233980.070   108233970.060    84181977.291    84181983.302          46.500          46.200          47.800          48.100  
R16  21623011.391    21623009.645    21623019.465    21623019.621   115506240.800   115506225.788    89838175.449    89838182.458          45.700          43.800          46.400          46.800  
R17  19733607.203    19733605.680    19733614.324    19733613.988   105598514.234   105598501.256    82132169.963    82132174.965          49.700          47.700          48.800          49.800  
R01  21624978.547    21624976.328                                   115597904.042   115597891.038                                          40.900          40.600                                  
E03  26581067.578    26581080.363    26581078.207    26581081.012   139684456.686   104309805.534   107030930.732   105670360.238          41.600          41.600          44.600          49.100  
E13  25547036.242    25547045.250    25547044.313    25547045.996   134250586.943   100252036.513   102867305.709   101559666.719          43.700          44.400          46.300          50.900  
E15  23479085.422    23479093.105    23479091.184    23479093.617   123383425.846    92136994.038    94540507.250    93338809.246          48.300          48.800          50.500          55.600  
E21  26070577.188    26070586.027    26070583.023    26070586.359   137001807.335   102306565.894   104975429.319   103641020.716          42.100          43.600          44.700          49.800  
E27  24647280.969    24647288.988    24647286.691    24647289.297   129522331.036    96721204.316    99244365.655    97982778.094          47.300          47.400          48.200          53.800  
E05  25247357.430    25247367.758    25247366.117    25247368.453   132675762.692    99076036.173   101660628.132   100368327.261          41.100          40.500          42.700          47.100  
E30  27095057.227    27095071.594    27095068.918    27095071.844   142385479.999   106326798.540   109100541.398   107713666.075          42.400          43.400          43.700          49.000  
C04  38465407.805    38465407.465   200299471.289   154884254.624          36.100          40.600  
C03  37450798.930    37450798.656   195016139.931   150798844.531          38.700          40.900  
C02  38924342.336    38924341.516   202689340.714   156732191.552          35.400          39.900  
C01  38008967.961    38008969.605   197922665.731   153046367.595          38.200          42.600  
C30  22409506.789                   116692177.695                          47.700                  
C29  21911151.086                   114097113.572                          48.300                  
C20  23346277.016                   121570190.333                          46.700                  
C13  38530190.086    38530198.414   200636809.268   155145094.165          40.500          40.200  
> 2025 04 10 07 06 20.0000000  0 31
G17  21164910.836                    21164918.055   111222352.120                    86666796.180          46.000                          45.900  
G11  22605175.469                    22605183.961   118790996.360                    92564445.064          43.000                          44.800  
G09  22847673.164                    22847684.637   120065332.095                    93557426.829          43.500                          44.200  
G19  19727909.625    19727913.672                   103670863.229    80782507.819                          48.600          42.800                  
G22  23013682.508    23013691.844                   120937716.312    94237216.482                          41.500          27.700                  
G03  23478126.039                    23478138.023   123378377.303                    96139046.640          40.400                          40.900  
G04  23003509.547                    23003520.434   120884256.707                    94195569.656          40.300                          43.200  
G06  20751509.367                    20751519.145   109049915.498                    84974001.577          47.200                          48.800  
G12  23342952.727                    23342961.398   122668056.213                    95585517.302          38.800                          39.200  
R24  22545147.781    22545146.496    22545158.582    22545158.191   120559031.021   120559022.045    93768125.290    93768131.287          43.100          41.600          44.200          44.600  
R18  20906427.766    20906426.223    20906435.012    20906434.676   111599950.874   111599915.876    86799934.900    86799938.896          46.100          44.900          47.200          47.600  
R03  22475077.039    22475075.664    22475090.254    22475090.832   120310854.540   120310840.562    93575109.442    93575115.448          44.100          43.200          43.400          45.200  
R02  20281073.367    20281072.281    20281081.938    20281082.004   108223692.485   108223682.481    84173975.871    84173981.883          47.500          46.400          47.300          47.900  
R16  21623516.078    21623514.801    21623524.277    21623524.219   115508937.712   115508922.701    89840273.031    89840280.042          46.600          44.900          46.400          47.200  
R17  19733361.297    19733359.422    19733367.805    19733367.832   105597198.116   105597185.130    82131146.308    82131151.305          49.200          47.500          49.000          49.800  
R01  21626750.953    21626750.609                                   115607386.190   115607373.188                                          41.500          39.900                                  
E03  26578275.703    26578288.105    26578285.902    26578288.711   139669783.126   104298848.078   107019687.417   105659259.856          42.300          41.900          44.300          48.500  
E13  25544886.000    25544895.844    25544893.406    25544895.938   134239288.034   100243599.032   102858648.119   101551119.183          43.400          44.900          45.900          51.000  
E15  23478768.656    23478776.277    23478774.402    23478776.820   123381760.455    92135750.406    94539231.176    93337549.401          48.400          49.000          50.400          55.700  
E21  26068842.641    26068850.398    26068847.211    26068850.680   136992687.305   102299755.507   104968441.276   103634121.502          43.300          43.400          43.600          49.200  
E27  24648176.758    24648184.898    24648182.270    24648185.125   129527038.836    96724719.850    99247972.902    97986339.487          47.000          48.000          49.700          54.400  
E05  25246486.156    25246496.820    25246494.523    25246497.156   132671184.097    99072617.122   101657119.890   100364863.611          40.000          39.800          42.100          46.500  
E30  27097503.125    27097517.297    27097513.875    27097517.250   142398330.319   106336394.516   109110387.703   107723387.219          42.700          43.400          43.700          49.100  
C04  38464831.078    38464830.867   200296470.833   154881934.464          37.000          40.100  
C03  37450242.594    37450242.727   195013242.621   150796604.135          38.900          41.100  
C02  38923762.273    38923762.512   202686324.427   156729859.130          35.200          39.400  
C01  38008418.313    38008420.523   197919806.366   153044156.578          37.600          42.300  
C30  22410355.211                   116696598.042                          47.600                  
C29  21909434.414                   114088175.128                          48.200                  
C20  23343262.195                   121554492.542                          45.700                  
C13  38528671.188    38528679.355   200628899.319   155138977.720          39.800          40.500  
> 2025 04 10 07 06 25.0000000  0 31
G17  21165993.422                    21166001.336   111228043.195                    86671230.775          45.700                          46.100  
G11  22602495.875                    22602503.996   118776914.928                    92553472.555          42.600                          45.400  
G09  22844720.719                    22844732.746   120049817.532                    93545337.601          42.300                          44.400  
G19  19727426.148    19727429.957                   103668322.061    80780527.692                          49.000          43.100                  
G22  23016109.695    23016118.551                   120950467.676    94247152.568                          41.100          27.000                  
G03  23480952.586                    23480964.625   123393233.279                    96150622.686          38.800                          40.400  
G04  23001972.477                    23001982.867   120876177.047                    94189273.844          40.700                          43.300  
G06  20750267.305                    20750277.215   109043388.564                    84968915.654          47.200                          49.000  
G12  23340540.344                    23340548.070   122655372.999                    95575634.300          39.900                          39.500  
R24  22547121.156    22547120.340    22547132.047    22547131.922   120569583.173   120569574.211    93776332.490    93776338.502          43.200          41.200          43.800          45.100  
R18  20903927.789    20903926.363    20903935.285    20903934.742   111586608.456   111586573.458    86789557.500    86789561.512          46.200          44.300          47.600          47.500  
R03  22470508.625    22470507.602    22470522.148    22470521.531   120286397.896   120286383.902    93556087.701    93556093.699          44.400          43.100          43.200          44.700  
R02  20279149.445    20279148.828    20279157.988    20279157.879   108213426.828   108213416.840    84165991.498    84165997.502          47.000          45.400          48.200          48.300  
R16  21624024.922    21624023.762    21624033.531    21624033.656   115511655.960   115511640.965    89842387.233    89842394.245          45.200          43.700          46.900          46.700  
R17  19733116.875    19733115.234    19733123.785    19733123.438   105595890.688   105595877.686    82130129.429    82130134.432          49.600          47.900          48.900          49.800  
R01  21628529.852    21628528.805                                   115616887.271   115616874.288                                          40.900          39.200                                  
E03  26575484.719    26575497.215    26575494.680    26575497.531   139655115.287   104287894.840   107008448.438   105648163.744          42.100          42.500          44.400          48.900  
E13  25542736.422    25542746.141    25542744.453    25542746.551   134227992.850   100235164.324   102849993.385   101542574.462          42.600          44.900          46.400          51.300  
E15  23478452.789    23478460.371    23478458.309    23478460.809   123380099.691    92134510.208    94537958.626    93336293.025          48.700          49.700          50.400          56.000  
E21  26067108.664    26067116.883    26067114.066    26067117.406   136983578.622   102292953.501   104961461.824   103627230.771          42.700          43.100          43.800          49.100  
E27  24649074.570    24649083.125    24649080.594    24649083.160   129531757.709    96728243.686    99251588.675    97989909.291          46.700          47.400          48.200          53.700  
E05  25245616.953    25245627.887    25245625.586    25245628.238   132666617.597    99069207.042   101653620.854   100361409.055          41.200          40.600          42.800          47.400  
E30  27099948.766    27099962.785    27099960.395    27099963.199   142411183.106   106345992.279   109120235.870   107733110.188          42.600          42.700          44.100          49.200  
C04  38464254.414    38464254.746   200293470.997   154879614.829          36.500          40.100  
C03  37449686.172    37449686.145   195010345.871   150794364.163          39.200          41.200  
C02  38923184.469    38923182.625   202683308.667   156727527.176          36.400          38.800  
C01  38007869.875    38007871.359   197916947.590   153041945.972          38.300          42.800  
C30  22411205.797                   116701025.404                          47.200                  
C29  21907718.898                   114079242.886                          48.100                  
C20  23340249.570                   121538804.636                          45.400                  
C13  38527152.789    38527161.195   200620992.918   155132863.971          41.400          41.400  
> 2025 04 10 07 06 30.0000000  0 31
G17  21167078.453                    21167086.164   111233744.517                    86675673.360          45.300                          46.400  
G11  22599817.008                    22599825.305   118762838.587                    92542503.977          42.500                          44.900  
G09  22841769.578                    22841781.359   120034312.005                    93533255.398          42.900                          44.300  
G19  19726945.477    19726948.930                   103665794.899    80778558.476                          48.800          42.800                  
G22  23018537.281    23018546.652                   120963224.966    94257093.278                          41.000          26.100                  
G03  23483780.625                    23483793.102   123408094.362                    96162202.720          38.800                          41.500  
G04  23000438.328                    23000447.762   120868111.569                    94182989.072          41.000                          43.900  
G06  20749027.148                    20749036.555   109036869.297                    84963835.706          48.200                          48.700  
G12  23338129.547                    23338136.906   122642704.689                    95565762.868          39.800                          38.100  
R24  22549095.727    22549094.793    22549106.273    22549106.223   120580139.903   120580130.896    93784543.242    93784549.246          43.000          41.700          44.400          46.000  
R18  20901428.633    20901428.262    20901437.191    20901436.641   111573270.522   111573235.517    86779183.542    86779187.554          45.900          44.500          47.100          47.300  
R03  22465940.828    22465939.570    22465954.340    22465954.617   120261946.526   120261932.550    93537070.032    93537076.030          44.600          43.100          42.900          44.300  
R02  20277229.992    20277229.023    20277237.715    20277237.348   108203182.718   108203172.715    84158023.845    84158029.855          47.200          46.400          47.700          48.000  
R16  21624537.492    21624535.863    21624545.703    21624545.934   115514395.377   115514380.379    89844517.874    89844524.870          45.900          43.400          46.200          47.000  
R17  19732874.141    19732872.855    19732881.203    19732880.621   105594591.595   105594578.586    82129119.007    82129124.011          49.100          47.500          49.300          49.900  
R01  21630310.133    21630308.969                                   115626407.268   115626394.278                                          40.100          39.400                                  
E03  26572694.125    26572706.660    26572704.457    26572707.211   139640452.948   104276945.729   106997213.691   105637071.819          41.600          43.200          45.100          49.300  
E13  25540587.820    25540597.863    25540594.906    25540597.746   134216700.999   100226732.090   102841341.161   101534032.230          43.700          45.100          46.600          51.300  
E15  23478137.539    23478144.926    23478143.379    23478145.582   123378443.351    92133273.339    94536689.490    93335040.018          49.000          49.100          50.600          55.900  
E21  26065377.461    26065385.602    26065383.211    26065386.191   136974480.942   102286159.800   104954490.902   103620348.460          43.100          43.400          44.100          49.300  
E27  24649974.406    24649983.297    24649980.902    24649983.223   129536487.374    96731775.554    99255212.681    97993487.225          46.600          47.300          48.500          53.800  
E05  25244750.484    25244761.395    25244759.469    25244761.641   132662062.935    99065805.854   101650130.935   100357963.503          41.700          40.600          43.200          47.600  
E30  27102394.969    27102408.789    27102406.258    27102409.281   142424038.009   106355591.660   109130085.661   107742834.767          43.100          42.200          44.000          49.200  
C04  38463679.102    38463678.359   200290471.534   154877295.449          36.700          39.800  
C03  37449129.852    37449129.969   195007449.415   150792124.441          38.900          41.600  
C02  38922604.227    38922604.324   202680293.014   156725195.262          36.200          38.500  
C01  38007321.125    38007322.336   197914089.159   153039735.654          38.300          42.700  
C30  22412057.266                   116705459.482                          47.500                  
C29  21906005.023                   114070316.542                          48.200                  
C20  23337238.883                   121523126.339                          45.300                  
C13  38525635.250    38525643.660   200613089.698   155126752.727          40.800          41.600  
> 2025 04 10 07 06 35.0000000  0 31
G17  21168165.453                    21168172.867   111239456.507                    86680124.239          45.900                          46.300  
G11  22597139.836                    22597147.922   118748767.681                    92531539.646          43.200                          44.100  
G09  22838820.773                    22838833.137   120018815.897                    93521180.520          41.700                          44.100  
G19  19726467.047    19726470.832                   103663282.205    80776600.528                          48.500          42.800                  
G22  23020966.359    23020975.059                   120975988.587    94267038.938                          41.900          28.100                  
G03  23486609.813                    23486621.742   123422960.907                    96173787.037          38.500                          41.100  
G04  22998905.836                    22998915.969   120860060.706                    94176715.688          41.900                          44.700  
G06  20747787.789                    20747797.586   109030358.136                    84958762.062          48.000                          48.100  
G12  23335720.953                    23335729.520   122630051.604                    95555903.323          41.100                          39.800  
R24  22551070.414    22551070.066    22551081.609    22551081.512   120590701.343   120590692.354    93792757.676    93792763.688          43.700          41.700          44.800          45.800  
R18  20898931.195    20898930.473    20898939.168    20898938.422   111559937.581   111559902.598    86768813.496    86768817.508          45.100          43.200          48.200          48.400  
R03  22461373.820    22461372.797    22461387.660    22461387.453   120237500.782   120237486.809    93518056.758    93518062.761          45.100          43.400          44.200          44.600  
R02  20275314.898    20275313.930    20275322.234    20275322.516   108192960.899   108192950.896    84150073.542    84150079.554          47.800          46.400          47.900          48.500  
R16  21625053.680    21625053.457    21625062.727    21625063.137   115517156.213   115517141.225    89846665.218    89846672.229          44.500          43.600          45.700          46.600  
R17  19732633.586    19732631.945    19732640.379    19732639.992   105593301.412   105593288.410    82128115.536    82128120.541          49.300          48.200          48.700          49.900  
R01  21632094.797    21632093.633                                   115635946.204   115635933.226                                          41.100          39.400                                  
E03  26569904.867    26569917.664    26569915.461    26569918.160   139625796.460   104266000.955   106985983.416   105625984.298          41.800          43.100          45.100          49.800  
E13  25538439.531    25538449.602    25538446.836    25538449.594   134205412.954   100218302.721   102832691.896   101525492.912          42.900          44.400          45.600          50.700  
E15  23477823.148    23477830.688    23477828.766    23477831.211   123376791.775    92132040.014    94535423.991    93333790.612          48.800          48.900          50.100          55.700  
E21  26063648.586    26063656.250    26063654.656    26063657.141   136965394.766   102279374.646   104947528.747   103613474.805          44.400          44.400          45.600          50.900  
E27  24650876.453    24650885.309    24650883.340    24650885.387   129541228.268    96735315.833    99258845.319    97997073.686          47.100          46.800          47.800          53.500  
E05  25243886.352    25243896.684    25243895.039    25243897.180   132657520.510    99062413.790   101646650.384   100354527.192          40.400          40.600          43.600          47.600  
E30  27104841.711    27104855.688    27104852.313    27104855.969   142436895.393   106365192.918   109139937.382   107752561.260          42.700          41.500          41.600          47.600  
C04  38463103.617    38463102.984   200287472.848   154874976.673          36.800          40.700  
C03  37448574.008    37448574.223   195004553.692   150789885.274          39.200          40.800  
C02  38922025.539    38922025.523   202677277.999   156722863.890          36.000          40.800  
C01  38006772.461    38006773.391   197911231.430   153037525.879          38.700          42.700  
C30  22412910.156                   116709900.688                          47.500                  
C29  21904292.148                   114061396.578                          49.400                  
C20  23334229.992                   121507458.077                          45.600                  
C13  38524118.133    38524126.605   200605190.106   155120644.254          40.900          41.400  
> 2025 04 10 07 06 40.0000000  0 31
G17  21169254.359                    21169262.203   111245178.959                    86684583.274          45.800                          46.400  
G11  22594462.570                    22594470.883   118734702.160                    92520579.494          43.200                          45.700  
G09  22835873.711                    22835885.648   120003329.007                    93509112.831          42.200                          44.400  
G19  19725991.625    19725995.059                   103660783.748    80774653.674                          48.300          43.000                  
G22  23023396.344    23023405.469                   120988758.390    94276989.362                          41.400          28.300                  
G03  23489439.828                    23489452.227   123437832.787                    96185375.474          38.400                          41.100  
G04  22997376.820                    22997386.508   120852024.369                    94170453.603          41.800                          44.800  
G06  20746550.297                    20746559.859   109023854.798                    84953694.534          48.400                          47.900  
G12  23333316.734                    23333324.098   122617413.742                    95546055.648          41.600                          40.900  
R24  22553046.461    22553045.996    22553057.438    22553057.551   120601267.488   120601258.498    93800975.748    93800981.760          43.200          41.600          44.100          45.600  
R18  20896434.492    20896433.418    20896442.043    20896441.949   111546609.408   111546574.403    86758447.138    86758451.149          45.500          44.100          48.000          47.600  
R03  22456808.266    22456807.242    22456822.082    22456821.961   120213060.854   120213046.884    93499047.997    93499053.993          43.900          42.700          44.800          45.100  
R02  20273402.578    20273401.961    20273410.762    20273410.941   108182760.920   108182750.938    84142140.230    84142146.241          47.700          46.600          47.500          48.400  
R16  21625574.500    21625573.926    21625583.805    21625583.203   115519938.479   115519923.491    89848829.147    89848836.158          44.800          43.900          46.600          47.200  
R17  19732393.477    19732392.777    19732400.559    19732400.273   105592019.696   105592006.701    82127118.647    82127123.650          49.400          48.000          48.700          49.700  
R01  21633883.141    21633881.391                                   115645504.043   115645491.032                                          41.500          39.800                                  
E03  26567117.000    26567129.945    26567127.133    26567130.246   139611145.622   104255060.434   106974757.481   105614901.066          41.700          43.500          44.600          49.800  
E13  25536292.422    25536302.070    25536299.914    25536302.246   134194128.552   100209876.079   102824045.421   101516956.358          42.700          45.000          46.400          51.400  
E15  23477509.828    23477517.379    23477515.645    23477517.859   123375144.806    92130810.132    94534162.021    93332544.686          48.500          48.600          49.700          55.700  
E21  26061921.625    26061929.219    26061927.859    26061930.109   136956319.785   102272597.931   104940575.235   103606609.695          42.700          43.200          44.600          49.900  
E27  24651780.695    24651789.359    24651787.625    24651789.582   129545980.194    96738864.327    99262486.387    98000668.464          46.800          46.800          48.300          53.700  
E05  25243024.328    25243034.680    25243032.852    25243035.008   132652990.102    99059030.686   101643179.020   100351099.961          40.200          41.000          43.400          47.500  
E30  27107288.727    27107303.406    27107299.844    27107303.207   142449755.116   106374795.867   109149790.862   107762289.475          42.900          43.100          43.200          49.200  
C04  38462527.469    38462526.852   200284474.679   154872658.298          36.700          40.100  
C03  37448017.281    37448017.500   195001658.458   150787646.518          39.300          40.800  
C02  38921446.977    38921446.027   202674263.402   156720532.809          35.900          40.200  
C01  38006223.336    38006224.797   197908374.177   153035316.482          37.800          41.800  
C30  22413764.516                   116714348.846                          47.700                  
C29  21902579.906                   114052482.758                          48.600                  
C20  23331222.859                   121491799.628                          46.100                  
C13  38522601.766    38522609.602   200597293.904   155114538.445          40.300          41.600  
> 2025 04 10 07 06 45.0000000  0 31
G17  21170345.508                    21170352.832   111250911.198                    86689049.961          46.600                          45.500  
G11  22591786.672                    22591795.730   118720641.170                    92509622.856          43.200                          46.000  
G09  22832928.867                    22832940.344   119987850.691                    93497051.841          41.400                          43.900  
G19  19725518.320    19725522.648                   103658298.831    80772717.373                          48.000          42.800                  
G22  23025826.969    23025835.770                   121001533.495    94286943.944                          39.800          27.200                  
G03  23492271.039                    23492282.547   123452709.260                    96196967.508          38.400                          41.100  
G04  22995849.859                    22995859.152   120844001.788                    94164202.240          41.700                          43.400  
G06  20745313.719                    20745323.988   109017358.688                    84948632.640          47.300                          48.200  
G12  23330913.711                    23330922.051   122604790.256                    95536219.216          41.100                          41.600  
R24  22555023.328    22555022.746    22555034.223    22555033.633   120611837.607   120611828.607    93809196.940    93809202.944          43.300          41.600          44.200          45.300  
R18  20893937.930    20893936.973    20893945.602    20893945.855   111533285.243   111533250.230    86748083.894    86748087.897          44.500          43.400          48.100          48.000  
R03  22452243.438    22452242.648    22452257.164    22452256.863   120188625.618   120188611.640    93480042.888    93480048.898          44.000          42.700          44.900          45.800  
R02  20271496.172    20271494.734    20271503.176    20271503.547   108172582.068   108172572.081    84134223.352    84134229.362          48.300          46.800          48.200          49.000  
R16  21626099.930    21626099.004    21626108.270    21626108.012   115522741.231   115522726.258    89851009.058    89851016.067          45.900          44.900          46.400          47.400  
R17  19732155.984    19732154.934    19732162.781    19732162.324   105590745.935   105590732.947    82126127.939    82126132.950          49.900          48.200          49.400          50.300  
R01  21635672.602    21635672.258                                   115655080.061   115655067.077                                          40.200          39.000                                  
E03  26564330.102    26564343.258    26564340.352    26564343.234   139596499.810   104244123.669   106963535.395   105603821.638          41.900          43.100          45.300          49.500  
E13  25534145.820    25534155.406    25534152.688    25534155.434   134182847.010   100201451.538   102815401.107   101508421.933          43.500          45.100          46.200          51.500  
E15  23477197.070    23477204.648    23477202.957    23477205.199   123373501.723    92129583.157    94532903.044    93331301.705          48.300          48.600          50.100          55.800  
E21  26060196.727    26060204.367    26060203.148    26060205.430   136947255.434   102265829.106   104933629.846   103599752.581          43.000          43.600          44.600          50.000  
E27  24652687.109    24652695.621    24652693.465    24652695.785   129550742.428    96742420.525    99266135.357    98004271.049          47.300          47.200          48.500          53.700  
E05  25242164.352    25242174.457    25242172.910    25242174.902   132648471.097    99055656.134   101639716.427   100347681.386          41.200          40.100          43.000          46.900  
E30  27109736.391    27109750.551    27109747.223    27109750.566   142462616.449   106384400.083   109159645.623   107772018.963          43.700          44.000          42.800          48.600  
C04  38461952.133    38461951.047   200281476.437   154870339.860          37.100          40.300  
C03  37447462.297    37447461.668   194998763.063   150785407.622          39.500          41.400  
C02  38920868.109    38920867.137   202671248.441   156718201.474          35.800          41.300  
C01  38005674.047    38005675.930   197905516.764   153033106.926          37.500          42.400  
C30  22414619.844                   116718803.239                          47.800                  
C29  21900869.742                   114043574.419                          49.400                  
C20  23328217.820                   121476150.388                          46.600                  
C13  38521085.617    38521094.359   200589400.407   155108434.674          40.100          42.200  
> 2025 04 10 07 06 50.0000000  0 31
G17  21171437.625                    21171445.848   111256653.773                    86693524.695          46.000                          45.200  
G11  22589112.516                    22589121.156   118706585.378                    92498670.325          42.600                          45.200  
G09  22829984.094                    22829996.988   119972381.511                    93484997.985          40.400                          44.700  
G19  19725048.664    19725052.238                   103655828.058    80770792.101                          48.000          42.700                  
G22  23028259.789    23028268.457                   121014314.660    94296903.271                          41.100          27.900                  
G03  23495103.141                    23495114.871   123467590.833                    96208563.560          39.600                          42.200  
G04  22994325.305                    22994336.000   120835993.584                    94157962.131          41.200                          42.800  
G06  20744079.305                    20744088.980   109010870.317                    84943576.750          47.500                          48.300  
G12  23328514.648                    23328523.340   122592181.729                    95526394.365          40.700                          42.000  
R24  22557000.258    22557000.145    22557011.781    22557011.520   120622412.237   120622403.242    93817421.607    93817427.589          43.700          41.700          43.600          44.800  
R18  20891443.648    20891443.043    20891451.359    20891450.688   111519965.684   111519930.663    86737724.263    86737728.260          45.200          44.100          47.300          48.100  
R03  22447679.633    22447678.844    22447693.527    22447693.648   120164196.042   120164182.042    93461042.194    93461048.190          44.100          41.900          44.600          45.400  
R02  20269592.266    20269591.883    20269600.801    20269600.680   108162425.175   108162415.187    84126323.550    84126329.562          48.000          46.500          48.000          49.000  
R16  21626627.430    21626627.793    21626637.055    21626636.867   115525565.183   115525550.192    89853205.456    89853212.460          45.600          44.500          47.100          47.400  
R17  19731919.109    19731917.352    19731925.723    19731925.086   105589480.735   105589467.747    82125143.909    82125148.904          49.300          48.000          48.700          49.900  
R01  21637469.141    21637467.391                                   115664674.734   115664661.741                                          41.200          39.400                                  
E03  26561544.133    26561556.914    26561554.430    26561557.039   139581859.577   104233191.063   106952317.577   105592746.425          42.300          42.800          44.900          49.600  
E13  25531999.891    25532009.047    25532006.797    25532009.336   134171568.965   100193029.650   102806759.514   101499890.188          42.700          45.600          46.800          51.700  
E15  23476885.047    23476892.766    23476890.887    23476893.289   123371863.124    92128359.523    94531647.488    93330062.118          48.000          48.900          50.700          55.800  
E21  26058473.695    26058482.023    26058480.055    26058482.684   136938202.271   102259068.592   104926692.972   103592903.887          43.500          43.400          44.900          50.200  
E27  24653595.586    24653603.715    24653602.121    24653604.254   129555515.559    96745984.869    99269792.688    98007881.890          46.800          47.300          49.100          53.900  
E05  25241306.555    25241317.008    25241315.320    25241317.328   132643964.019    99052290.472   101636262.943   100344271.815          40.900          40.100          42.200          46.700  
E30  27112184.742    27112198.344    27112195.199    27112198.410   142475479.972   106394005.879   109169502.009   107781750.054          44.000          43.400          43.200          48.800  
C04  38461375.875    38461375.203   200278478.623   154868021.773          36.500          39.900  
C03  37446905.945    37446906.168   194995868.090   150783169.044          38.800          41.400  
C02  38920288.992    38920288.492   202668233.904   156715870.408          36.100          39.800  
C01  38005126.148    38005127.379   197902659.784   153030897.736          37.800          42.000  
C30  22415476.461                   116723264.450                          46.700                  
C29  21899160.047                   114034672.106                          48.700                  
C20  23325214.414                   121460510.920                          47.200                  
C13  38519571.273    38519579.102   200581510.189   155102333.480          40.400          42.000  
> 2025 04 10 07 06 55.0000000  0 31
G17  21172532.336                    21172540.453   111262406.116                    86698007.029          45.800                          45.500  
G11  22586439.258                    22586447.184   118692534.123                    92487721.284          42.700                          45.000  
G09  22827042.008                    22827053.879   119956920.851                    93472950.759          40.700                          43.900  
G19  19724580.766    19724584.387                   103653370.802    80768877.337                          48.800          42.700                  
G22  23030692.570    23030702.090                   121027101.070    94306866.667                          40.700          27.600                  
G03  23497935.742                    23497947.844   123482476.969                    96220163.100          40.600                          41.800  
G04  22992804.445                    22992814.137   120827999.043                    94151732.625          40.800                          42.100  
G06  20742845.758                    20742855.805   109004389.078                    84938526.440          47.600                          48.600  
G12  23326118.148                    23326126.383   122579587.630                    95516580.790          40.300                          40.800  
R24  22558978.664    22558978.316    22558990.094    22558990.082   120632990.716   120632981.699    93825649.288    93825655.277          42.900          42.100          43.700          44.700  
R18  20888948.313    20888947.590    20888956.727    20888955.738   111506650.162   111506615.156    86727367.754    86727371.766          46.400          43.900          47.500          47.900  
R03  22443116.844    22443116.172    22443130.730    22443130.734   120139771.310   120139757.320    93442045.254    93442051.252          44.300          43.000          44.200          45.400  
R02  20267693.219    20267691.781    20267701.105    20267700.926   108152289.516   108152279.512    84118440.267    84118446.278          47.500          46.300          48.200          48.900  
R16  21627160.266    21627159.691    21627169.219    21627168.980   115528409.592   115528394.611    89855417.762    89855424.765          45.800          43.400          46.100          47.600  
R17  19731684.758    19731682.766    19731690.875    19731690.664   105588223.328   105588210.341    82124165.904    82124170.908          50.000          47.900          48.800          50.500  
R01  21639268.148    21639265.574                                   115674287.330   115674274.310                                          42.000          39.700                                  
E03  26558759.289    26558772.207    26558769.625    26558772.223   139567224.284   104222262.149   106941103.564   105581674.966          42.500          43.000          45.000          49.800  
E13  25529854.164    25529863.145    25529861.551    25529863.664   134160293.758   100184609.871   102798120.088   101491360.586          43.000          45.300          46.800          51.800  
E15  23476574.297    23476581.867    23476580.086    23476582.359   123370228.350    92127138.743    94530394.863    93328825.410          48.200          48.500          50.100          55.700  
E21  26056753.273    26056761.191    26056759.785    26056761.930   136929159.561   102252315.942   104919764.152   103586063.156          43.200          43.100          44.900          49.600  
E27  24654505.852    24654513.617    24654512.445    24654514.473   129560298.905    96749556.840    99273457.833    98011500.440          47.100          46.800          48.700          53.800  
E05  25240451.227    25240461.539    25240458.961    25240461.754   132639468.255    99048933.223   101632818.133   100340870.788          40.800          39.900          42.400          47.000  
E30  27114632.883    27114646.496    27114643.914    27114646.813   142488345.044   106403612.828   109179359.607   107791482.328          43.500          43.500          44.300          49.700  
C04  38460800.469    38460799.512   200275480.689   154865703.567          36.400          40.000  
C03  37446349.836    37446349.910   194992972.852   150780930.253          38.800          40.600  
C02  38919709.250    38919709.477   202665218.950   156713539.059          35.900          39.900  
C01  38004577.594    38004578.922   197899802.526   153028688.317          37.700          43.100  
C30  22416334.594                   116727731.839                          47.400                  
C29  21897451.039                   114025775.214                          48.200                  
C20  23322212.359                   121444880.559                          46.300                  
C13  38518056.617    38518064.289   200573622.683   155096234.349          41.100          41.400  
> 2025 04 10 07 07  0.0000000  0 31
G17  21173629.500                    21173636.898   111268169.112                    86702497.670          45.200                          45.900  
G11  22583766.172                    22583774.191   118678488.332                    92476776.528          43.000                          45.100  
G09  22824101.836                    22824114.137   119941469.685                    93460910.917          40.600                          44.800  
G19  19724115.859    19724120.086                   103650928.003    80766973.854                          48.100          42.600                  
G22  23033126.859    23033136.047                   121039893.804    94316835.024                          40.300          27.300                  
G03  23500769.141                    23500781.441   123497368.511                    96231766.902          40.700                          42.600  
G04  22991285.500                    22991295.746   120820019.222                    94145514.590          40.800                          43.000  
G06  20741614.289                    20741623.996   108997915.893                    84933482.397          48.300                          48.800  
G12  23323724.313                    23323733.254   122567008.886                    95506779.193          40.600                          41.700  
R24  22560957.000    22560957.121    22560969.066    22560968.648   120643574.018   120643565.013    93833880.740    93833886.734          42.900          41.800          43.600          44.700  
R18  20886455.461    20886453.801    20886462.695    20886462.309   111493339.543   111493304.560    86717015.038    86717019.042          46.200          44.100          47.300          47.300  
R03  22438555.172    22438554.031    22438568.301    22438568.680   120115352.474   120115338.476    93423052.910    93423058.906          43.900          42.700          44.500          46.000  
R02  20265797.563    20265796.242    20265805.945    20265805.465   108142175.701   108142165.698    84110573.979    84110579.990          48.000          46.300          48.100          48.800  
R16  21627696.875    21627696.184    21627705.863    21627706.445   115531275.534   115531260.521    89857646.815    89857653.819          44.700          42.900          45.700          46.400  
R17  19731451.156    19731449.633    19731457.582    19731457.207   105586974.833   105586961.838    82123194.845    82123199.849          49.500          47.700          49.100          49.800  
R01  21641069.922    21641066.762                                   115683919.025   115683906.018                                          40.800          40.300                                  
E03  26555975.422    26555988.305    26555985.305    26555988.129   139552594.936   104211337.678   106929894.098   105570607.993          41.200          44.000          45.800          50.400  
E13  25527708.758    25527718.023    25527716.195    25527718.859   134149022.329   100176192.895   102789483.538   101482833.821          43.700          44.000          46.100          51.000  
E15  23476264.180    23476271.672    23476269.609    23476272.191   123368598.360    92125921.542    94529145.910    93327592.335          48.700          48.900          50.900          56.000  
E21  26055034.336    26055042.551    26055041.238    26055043.160   136920128.392   102245571.900   104912844.183   103579231.149          42.100          44.400          45.900          51.100  
E27  24655418.023    24655425.824    24655424.559    24655426.703   129565093.469    96753137.192    99277131.587    98015127.499          46.900          46.800          48.900          53.700  
E05  25239597.781    25239608.156    25239605.906    25239608.605   132634984.768    99045585.156   101629382.713   100337479.042          40.600          41.000          42.300          47.200  
E30  27117080.930    27117095.395    27117092.863    27117095.711   142501212.583   106413221.627   109189219.093   107801216.473          43.000          43.800          44.500          49.800  
C04  38460224.523    38460223.926   200272483.453   154863385.941          36.300          41.100  
C03  37445794.516    37445794.336   194990078.329   150778692.036          39.200          41.400  
C02  38919130.820    38919130.219   202662204.585   156711208.156          35.800          39.200  
C01  38004029.164    38004030.238   197896946.018   153026479.483          38.200          41.800  
C30  22417193.930                   116732206.371                          47.500                  
C29  21895743.930                   114016884.684                          48.200                  
C20  23319212.555                   121429260.282                          46.300                  
C13  38516541.523    38516550.035   200565738.699   155090137.978          39.200          41.600  
> 2025 04 10 07 07  5.0000000  0 31
G17  21174728.195                    21174735.652   111273942.064                    86706996.061          45.900                          46.700  
G11  22581093.797                    22581102.008   118664447.416                    92465835.563          44.100                          46.000  
G09  22821163.906                    22821175.293   119926027.418                    93448878.019          41.700                          44.300  
G19  19723653.906    19723657.973                   103648499.002    80765081.132                          48.100          42.500                  
G22  23035562.734    23035571.914                   121052692.128    94326807.680                          40.300          27.700                  
G03  23503604.438                    23503616.273   123512264.851                    96243374.412          40.200                          42.000  
G04  22989769.789                    22989779.680   120812053.430                    94139307.490          40.600                          42.800  
G06  20740383.938                    20740393.246   108991450.113                    84928444.143          47.800                          48.200  
G12  23321333.648                    23321342.273   122554444.869                    95496989.044          41.000                          40.400  
R24  22562938.797    22562937.395    22562948.227    22562948.098   120654161.578   120654152.568    93842115.470    93842121.471          42.900          41.300          42.700          43.400  
R18  20883961.930    20883960.855    20883969.633    20883969.273   111480033.312   111479998.307    86706665.771    86706669.768          45.700          44.600          46.900          47.200  
R03  22433994.336    22433993.547    22434007.199    22434007.547   120090938.808   120090924.809    93404064.580    93404070.583          44.100          42.600          44.700          45.100  
R02  20263905.602    20263905.219    20263914.289    20263914.141   108132083.538   108132073.550    84102724.536    84102730.547          48.200          46.700          47.700          48.400  
R16  21628238.039    21628236.527    21628245.770    21628245.824   115534162.316   115534147.348    89859892.077    89859899.079          45.800          44.500          46.100          46.300  
R17  19731219.141    19731217.734    19731226.035    19731225.961   105585734.448   105585721.455    82122230.109    82122235.120          49.600          47.200          49.100          49.900  
R01  21642873.836    21642873.023                                   115693569.028   115693556.046                                          41.100          39.500                                  
E03  26553192.539    26553205.098    26553202.379    26553205.121   139537970.853   104200417.132   106918688.667   105559545.012          41.200          43.600          45.400          50.000  
E13  25525564.188    25525573.508    25525572.336    25525574.625   134137754.026   100167778.256   102780849.388   101474309.427          42.800          45.100          45.600          51.300  
E15  23475954.414    23475962.098    23475960.363    23475962.695   123366972.473    92124707.405    94527900.093    93326362.356          48.200          48.600          50.300          55.600  
E21  26053317.883    26053326.945    26053323.992    26053326.828   136911108.032   102238835.896   104905932.461   103572407.288          41.100          43.800          45.100          50.400  
E27  24656332.047    24656340.258    24656338.617    24656341.117   129569898.557    96756725.398    99280813.398    98018762.508          46.000          47.000          48.200          53.400  
E05  25238746.313    25238757.449    25238755.199    25238757.625   132630512.854    99042245.744   101625956.200   100334096.080          41.300          41.500          42.600          47.500  
E30  27119530.078    27119544.336    27119541.426    27119544.605   142514081.933   106422831.781   109199079.927   107810951.967          42.700          43.300          44.200          49.200  
C04  38459648.609    38459648.238   200269486.376   154861068.390          35.800          40.900  
C03  37445238.266    37445238.484   194987183.884   150776453.860          39.300          41.100  
C02  38918551.883    38918551.488   202659190.189   156708877.232          35.200          40.100  
C01  38003480.273    38003481.734   197894089.539   153024270.675          37.900          42.300  
C30  22418054.367                   116736687.368                          47.500                  
C29  21894037.953                   114007999.845                          48.700                  
C20  23316214.867                   121413649.432                          46.400                  
C13  38515028.141    38515036.590   200557857.765   155084043.915          39.800          41.000  
> 2025 04 10 07 07 10.0000000  0 31
G17  21175828.164                    21175835.961   111279725.282                    86711502.453          45.700                          45.600  
G11  22578422.406                    22578431.566   118650411.520                    92454898.522          42.700                          44.900  
G09  22818226.914                    22818238.832   119910594.203                    93436852.169          42.100                          44.300  
G19  19723194.445    19723198.078                   103646084.061    80763199.359                          48.300          42.600                  
G22  23037998.859    23038008.605                   121065496.288    94336784.933                          40.700          27.700                  
G03  23506439.508                    23506451.688   123527166.201                    96254985.837          39.900                          41.600  
G04  22988257.063                    22988266.859   120804101.886                    94133111.483          41.700                          42.600  
G06  20739154.734                    20739164.496   108984991.985                    84923411.827          47.800                          48.600  
G12  23318944.383                    23318953.730   122541895.758                    95487210.518          40.200                          40.100  
R24  22564919.250    22564918.551    22564929.441    22564929.625   120664753.518   120664744.521    93850353.627    93850359.633          42.300          41.000          43.700          44.100  
R18  20881470.031    20881469.426    20881478.348    20881477.801   111466731.529   111466696.538    86696319.947    86696323.951          44.100          43.200          47.100          46.700  
R03  22429435.563    22429434.188    22429447.723    22429448.191   120066530.698   120066516.715    93385080.585    93385086.587          44.200          43.500          44.000          44.700  
R02  20262018.297    20262018.270    20262026.664    20262026.945   108122013.094   108122003.083    84094891.969    84094897.980          48.000          46.500          48.000          48.200  
R16  21628783.023    21628781.395    21628790.652    21628790.707   115537070.033   115537055.051    89862153.622    89862160.625          45.800          44.200          46.500          46.100  
R17  19730989.063    19730987.188    19730995.504    19730995.371   105584502.442   105584489.449    82121271.881    82121276.885          49.100          47.600          49.000          50.000  
R01  21644683.359    21644681.844                                   115703237.611   115703224.619                                          41.000          39.200                                  
E03  26550410.539    26550423.578    26550420.766    26550423.336   139523352.266   104189500.685   106907487.435   105548486.169          41.500          43.800          45.000          50.000  
E13  25523420.711    25523429.848    25523428.395    25523430.805   134126489.037   100159366.123   102772217.804   101465787.569          42.900          44.200          45.900          50.900  
E15  23475645.852    23475653.621    23475651.746    23475654.102   123365350.916    92123496.499    94526657.601    93325135.656          48.400          48.500          50.000          55.800  
E21  26051604.016    26051611.820    26051609.848    26051612.063   136902098.739   102232108.186   104899029.228   103565591.815          42.300          43.300          45.200          50.000  
E27  24657249.188    24657256.582    24657255.176    24657257.648   129574714.365    96760321.624    99284503.439    98022405.641          46.100          46.600          48.600          53.300  
E05  25237897.805    25237909.035    25237906.504    25237909.043   132626052.809    99038915.196   101622538.769   100330722.089          41.400          41.400          42.600          47.500  
E30  27121979.477    27121993.902    27121991.230    27121994.188   142526953.294   106432443.440   109208942.354   107820689.011          43.000          43.400          43.800          49.400  
C04  38459073.398    38459072.914   200266489.627   154858751.107          36.000          40.200  
C03  37444682.633    37444682.457   194984289.704   150774215.904          39.300          40.900  
C02  38917973.172    38917972.863   202656175.988   156706546.479          36.000          40.600  
C01  38002931.680    38002933.004   197891233.376   153022062.112          37.900          42.300  
C30  22418916.125                   116741175.078                          47.200                  
C29  21892333.055                   113999120.978                          49.100                  
C20  23313219.023                   121398048.263                          46.400                  
C13  38513515.773    38513523.543   200549979.966   155077952.317          39.600          40.900  
> 2025 04 10 07 07 15.0000000  0 31
G17  21176930.547                    21176939.070   111285518.990                    86716017.010          45.900                          46.600  
G11  22575752.891                    22575761.680   118636380.965                    92443965.617          42.300                          45.700  
G09  22815291.023                    22815303.941   119895170.353                    93424833.600          40.800                          44.500  
G19  19722737.469    19722741.719                   103643683.453    80761328.749                          48.100          42.600                  
G22  23040436.477    23040445.992                   121078306.508    94346766.882                          41.500          28.800                  
G03  23509275.867                    23509288.598   123542072.767                    96266601.330          37.800                          41.000  
G04  22986746.328                    22986755.637   120796164.929                    94126926.855          41.600                          42.900  
G06  20737927.617                    20737937.055   108978541.777                    84918385.688          47.600                          48.400  
G12  23316561.234                    23316568.551   122529361.879                    95477443.874          40.500                          41.100  
R24  22566899.906    22566900.027    22566911.465    22566911.480   120675350.161   120675341.182    93858595.449    93858601.445          41.300          40.800          44.200          44.300  
R18  20878978.563    20878978.543    20878986.785    20878986.637   111453434.552   111453399.561    86685977.832    86685981.836          44.900          43.600          47.400          47.900  
R03  22424875.820    22424875.855    22424889.105    22424889.559   120042128.337   120042114.339    93366101.031    93366107.040          43.700          43.300          44.300          45.700  
R02  20260137.430    20260135.289    20260144.012    20260144.125   108111964.666   108111954.662    84087076.516    84087082.520          48.200          46.900          47.900          48.400  
R16  21629329.656    21629329.551    21629338.922    21629339.281   115539998.991   115539984.018    89864431.671    89864438.675          45.900          45.100          46.400          46.200  
R17  19730760.555    19730758.445    19730766.879    19730766.285   105583279.069   105583266.082    82120320.356    82120325.367          49.600          47.900          48.600          50.500  
R01  21646495.789    21646493.922                                   115712924.995   115712911.984                                          42.000          39.000                                  
E03  26547630.125    26547642.840    26547640.355    26547642.547   139508739.443   104178588.559   106896290.642   105537431.713          41.600          44.000          45.000          50.200  
E13  25521277.406    25521286.992    25521285.723    25521287.898   134115227.759   100150956.712   102763589.023   101457268.476          41.900          45.400          46.600          51.700  
E15  23475338.719    23475346.000    23475343.980    23475346.547   123363734.017    92122289.077    94525418.668    93323912.482          48.600          48.700          50.300          55.500  
E21  26049891.578    26049899.488    26049897.660    26049900.016   136893100.774   102225388.943   104892134.715   103558784.938          41.500          43.700          44.800          50.000  
E27  24658167.805    24658175.742    24658173.820    24658176.285   129579541.190    96763926.054    99288201.899    98026057.086          47.300          47.200          49.100          53.700  
E05  25237051.016    25237062.535    25237060.004    25237062.344   132621604.815    99035593.708   101619130.614   100327357.267          39.900          41.100          42.000          47.000  
E30  27124428.984    27124443.387    27124440.668    27124443.578   142539826.957   106442056.850   109218806.525   107830427.797          43.400          42.400          43.400          48.600  
C04  38458497.438    38458497.629   200263493.453   154856434.283          36.800          40.200  
C03  37444126.656    37444126.797   194981396.061   150771978.351          38.800          42.000  
C02  38917394.320    38917393.945   202653162.219   156704216.031          34.900          40.200  
C01  38002383.359    38002384.945   197888377.716   153019853.932          38.200          42.000  
C30  22419779.547                   116745669.759                          48.500                  
C29  21890628.992                   113990248.337                          49.400                  
C20  23310224.703                   121382457.058                          46.400                  
C13  38512002.742    38512011.254   200542105.631   155071863.417          39.800          41.100  
> 2025 04 10 07 07 20.0000000  0 31
G17  21178035.234                    21178042.793   111291322.229                    86720539.025          46.100                          46.300  
G11  22573084.211                    22573092.910   118622354.813                    92433036.173          42.600                          46.900  
G09  22812357.906                    22812369.801   119879755.031                    93412821.703          40.800                          44.700  
G19  19722283.047    19722287.023                   103641296.152    80759468.510                          48.100          42.500                  
G22  23042875.781    23042885.059                   121091121.814    94356752.835                          42.600          29.100                  
G03  23512114.172                    23512125.777   123556983.713                    96278220.176          42.200                          43.000  
G04  22985237.961                    22985248.238   120788241.617                    94120752.870          40.500                          43.200  
G06  20736701.438                    20736711.090   108972098.544                    84913364.994          47.500                          48.400  
G12  23314178.719                    23314186.387   122516842.265                    95467688.374          38.800                          40.600  
R24  22568882.594    22568882.598    22568893.395    22568893.426   120685950.497   120685941.515    93866840.138    93866846.142          40.300          39.200          43.600          44.100  
R18  20876489.445    20876488.723    20876497.820    20876497.051   111440141.464   111440106.473    86675638.780    86675642.800          47.000          44.500          47.700          47.200  
R03  22420318.320    22420317.766    22420331.254    22420331.586   120017730.860   120017716.869    93347125.285    93347131.288          41.300          40.900          43.600          43.800  
R02  20258256.313    20258255.227    20258264.676    20258264.469   108101937.316   108101927.327    84079277.476    84079283.480          48.700          46.800          47.800          49.100  
R16  21629884.039    21629882.527    21629891.723    21629891.672   115542948.343   115542933.333    89866725.620    89866732.623          46.600          44.100          46.400          47.000  
R17  19730533.453    19730532.168    19730540.320    19730540.051   105582063.415   105582050.421    82119374.851    82119379.854          49.800          48.000          49.000          50.400  
R01  21648311.438    21648310.508                                   115722630.235   115722617.241                                          42.200          40.600                                  
E03  26544850.141    26544862.938    26544860.359    26544862.766   139494131.530   104167680.113   106885097.617   105526380.975          41.100          44.800          45.500          50.800  
E13  25519135.719    25519144.770    25519143.551    25519145.582   134103969.137   100142549.308   102754962.301   101448751.406          43.000          44.800          46.900          51.700  
E15  23475031.242    23475039.063    23475037.141    23475039.500   123362120.765    92121084.391    94524182.563    93322692.086          48.800          48.100          49.500          55.200  
E21  26048180.961    26048189.168    26048187.434    26048189.781   136884113.230   102218677.453   104885248.142   103551985.903          41.700          43.200          45.100          49.800  
E27  24659087.797    24659096.246    24659094.230    24659096.648   129584378.119    96767538.038    99291908.116    98029716.186          46.200          46.800          49.100          53.800  
E05  25236206.484    25236218.090    25236215.230    25236218.141   132617168.011    99032280.516   101615730.984   100324000.859          40.900          41.300          42.100          47.000  
E30  27126879.070    27126893.984    27126890.375    27126893.875   142552702.021   106451671.236   109228671.747   107840167.605          41.700          43.400          43.800          48.900  
C04  38457922.750    38457922.398   200260496.991   154854117.217          36.800          41.700  
C03  37443570.445    37443571.406   194978502.107   150769740.547          38.200          42.900  
C02  38916814.781    38916815.059   202650147.966   156701885.211          36.000          40.800  
C01  38001835.031    38001836.332   197885521.734   153017645.502          38.500          41.800  
C30  22420643.781                   116750170.516                          47.600                  
C29  21888926.148                   113981381.006                          48.800                  
C20  23307232.281                   121366874.893                          47.400                  
C13  38510491.320    38510499.742   200534233.815   155065776.410          40.600          41.700  
> 2025 04 10 07 07 25.0000000  0 31
G17  21179141.258                    21179149.211   111297135.300                    86725068.671          46.000                          45.800  
G11  22570415.805                    22570423.992   118608333.337                    92422110.341          42.200                          46.300  
G09  22809426.109                    22809437.965   119864348.374                    93400816.561          41.700                          42.900  
G19  19721831.797    19721835.637                   103638922.493    80757618.910                          48.300          42.600                  
G22  23045315.180    23045324.492                   121103942.545    94366742.964                          42.000          27.500                  
G03  23514952.109                    23514964.258   123571899.156                    96289842.583          42.300                          42.500  
G04  22983732.930                    22983743.289   120780332.178                    94114589.667          40.500                          41.700  
G06  20735476.914                    20735486.527   108965662.544                    84908349.911          47.900                          48.800  
G12  23311798.711                    23311807.074   122504337.297                    95457944.179          39.400                          40.900  
R24  22570865.656    22570864.957    22570876.637    22570876.297   120696555.053   120696546.098    93875088.122    93875094.123          40.100          40.000          42.800          44.600  
R18  20873999.102    20873998.613    20874007.410    20874006.969   111426852.488   111426817.490    86665302.896    86665306.907          45.600          43.900          47.600          47.500  
R03  22415763.367    22415761.875    22415774.848    22415775.176   119993338.388   119993324.387    93328153.438    93328159.440          41.700          40.900          44.000          45.000  
R02  20256381.844    20256380.523    20256389.547    20256389.488   108091931.296   108091921.278    84071495.021    84071501.032          48.500          46.400          47.600          47.900  
R16  21630438.578    21630438.004    21630447.980    21630447.098   115545918.266   115545903.263    89869035.550    89869042.568          46.400          44.700          46.100          47.100  
R17  19730308.102    19730306.934    19730315.145    19730314.418   105580855.822   105580842.813    82118435.598    82118440.601          49.900          47.600          48.700          49.900  
R01  21650130.805    21650128.469                                   115732353.648   115732340.639                                          41.500          40.500                                  
E03  26542071.398    26542084.141    26542081.469    26542083.934   139479528.721   104156775.444   106873908.468   105515334.065          42.100          43.100          44.400          49.600  
E13  25516993.375    25517002.980    25517001.762    25517003.676   134092713.480   100134144.118   102746337.845   101440236.588          42.700          45.400          47.000          52.200  
E15  23474725.117    23474732.445    23474730.664    23474732.977   123360511.444    92119882.622    94522949.439    93321474.640          48.600          48.000          49.600          55.300  
E21  26046472.453    26046481.164    26046478.633    26046481.656   136875136.308   102211973.919   104878369.731   103545194.934          41.500          43.400          44.700          49.600  
E27  24660010.094    24660018.219    24660016.340    24660018.824   129589225.392    96771157.726    99295622.229    98033383.087          46.800          47.000          48.600          53.600  
E05  25235364.984    25235375.266    25235373.578    25235375.762   132612742.655    99028975.897   101612340.143   100320653.128          40.300          40.500          42.800          47.300  
E30  27129329.766    27129344.160    27129341.535    27129344.434   142565578.614   106461286.819   109238538.171   107849908.608          42.400          42.700          43.800          48.700  
C04  38457347.203    38457346.895   200257500.434   154851800.107          37.300          41.100  
C03  37443015.531    37443015.727   194975607.972   150767502.620          38.500          43.000  
C02  38916235.914    38916236.074   202647133.443   156699554.189          35.500          41.300  
C01  38001286.195    38001287.945   197882665.624   153015436.966          37.700          42.800  
C30  22421509.375                   116754677.536                          48.100                  
C29  21887224.063                   113972519.205                          48.700                  
C20  23304241.875                   121351302.032                          47.400                  
C13  38508980.016    38508988.566   200526364.786   155059691.592          39.700          41.100  
> 2025 04 10 07 07 30.0000000  0 31
G17  21180249.148                    21180257.254   111302958.290                    86729606.064          44.800                          45.700  
G11  22567748.750                    22567756.891   118594316.623                    92411188.237          41.600                          46.000  
G09  22806496.813                    22806507.559   119848950.592                    93388818.286          41.900                          44.200  
G19  19721382.406    19721386.371                   103636562.627    80755780.048                          48.200          43.000                  
G22  23047755.961    23047765.477                   121116768.791    94376737.405                          41.700          28.900                  
G03  23517791.281                    23517803.699   123586819.252                    96301468.604          42.600                          43.100  
G04  22982230.914                    22982241.297   120772436.743                    94108437.400          40.500                          42.600  
G06  20734253.523                    20734263.203   108959233.868                    84903340.559          48.100                          48.900  
G12  23309422.031                    23309429.684   122491846.993                    95448211.451          40.400                          39.800  
R24  22572848.781    22572848.434    22572859.973    22572860.199   120707163.537   120707154.513    93883339.091    93883345.090          41.700          39.500          42.600          44.000  
R18  20871511.313    20871509.887    20871519.047    20871518.320   111413567.737   111413532.762    86654970.325    86654974.330          46.700          44.300          47.500          48.000  
R03  22411206.852    22411205.008    22411218.863    22411219.039   119968951.285   119968937.299    93309185.761    93309191.765          41.500          39.700          44.200          45.100  
R02  20254510.734    20254510.000    20254518.402    20254518.500   108081946.615   108081936.597    84063729.159    84063735.171          48.300          46.200          48.300          47.300  
R16  21630997.859    21630997.285    21631007.273    21631007.000   115548908.917   115548893.943    89871361.627    89871368.632          46.600          44.900          46.600          47.500  
R17  19730082.992    19730081.469    19730089.656    19730089.594   105579656.276   105579643.281    82117502.624    82117507.629          49.700          47.800          49.000          50.200  
R01  21651952.367    21651950.734                                   115742094.988   115742082.004                                          40.700          40.200                                  
E03  26539293.281    26539305.918    26539303.574    26539305.797   139464931.170   104145874.709   106862723.355   105504291.135          41.300          44.400          45.900          50.900  
E13  25514852.391    25514861.730    25514860.320    25514862.332   134081460.854   100125741.192   102737715.705   101431724.060          43.500          45.500          46.900          51.900  
E15  23474419.813    23474427.250    23474425.469    23474427.703   123358906.198    92118683.888    94521719.442    93320260.272          48.200          48.500          49.900          55.400  
E21  26044767.219    26044774.637    26044772.246    26044775.305   136866170.273   102205278.485   104871499.630   103538412.169          41.800          43.600          44.800          49.800  
E27  24660934.656    24660943.113    24660941.004    24660943.543   129594083.069    96774785.199    99299344.337    98037057.874          46.100          47.200          48.500          53.600  
E05  25234525.063    25234535.684    25234533.664    25234536.047   132608328.856    99025679.868   101608958.155   100317314.122          40.400          40.900          43.100          47.600  
E30  27131780.188    27131794.941    27131792.078    27131795.137   142578456.939   106470903.695   109248405.952   107859650.939          41.600          42.800          43.300          48.800  
C04  38456771.867    38456771.551   200254503.963   154849483.024          37.300          40.900  
C03  37442458.906    37442459.688   194972713.866   150765264.701          38.700          42.700  
C02  38915657.664    38915657.406   202644118.780   156697223.064          35.700          41.600  
C01  38000738.039    38000739.285   197879809.479   153013228.432          38.700          42.400  
C30  22422376.219                   116759190.987                          48.100                  
C29  21885523.617                   113963663.109                          48.700                  
C20  23301252.883                   121335738.573                          47.800                  
C13  38507469.609    38507477.555   200518498.610   155053608.958          40.500          41.300  
> 2025 04 10 07 07 35.0000000  0 31
G17  21181359.188                    21181367.133   111308790.688                    86734150.782          45.600                          45.800  
G11  22565081.547                    22565090.078   118580304.099                    92400269.404          42.500                          46.100  
G09  22803567.469                    22803579.496   119833561.123                    93376826.531          41.300                          44.300  
G19  19720935.977    19720940.004                   103634215.999    80753951.501                          48.500          43.200                  
G22  23050197.508    23050207.258                   121129599.915    94386735.645                          40.600          27.200                  
G03  23520631.508                    23520643.738   123601743.482                    96313097.843          43.200                          43.400  
G04  22980730.977                    22980741.105   120764554.718                    94102295.577          40.200                          43.200  
G06  20733031.039                    20733040.785   108952811.988                    84898336.495          47.800                          48.100  
G12  23307047.773                    23307055.992   122479370.815                    95438489.772          41.000                          40.300  
R24  22574833.719    22574833.020    22574844.645    22574844.309   120717775.541   120717766.557    93891592.842    93891598.839          40.800          39.200          43.400          43.600  
R18  20869022.422    20869021.816    20869031.535    20869030.738   111400286.697   111400251.699    86644640.639    86644644.643          45.200          43.600          47.400          48.400  
R03  22406650.563    22406651.184    22406664.348    22406664.566   119944568.876   119944554.885    93290221.781    93290227.779          40.900          39.400          44.000          44.600  
R02  20252642.875    20252642.492    20252650.699    20252651.680   108071983.071   108071973.083    84055979.748    84055985.767          48.100          46.300          47.400          48.000  
R16  21631561.219    21631560.176    21631569.664    21631570.348   115551919.660   115551904.672    89873703.304    89873710.314          45.100          43.300          45.400          46.400  
R17  19729861.000    19729858.891    19729867.555    19729867.270   105578464.359   105578451.358    82116575.566    82116580.571          49.100          47.400          48.800          50.300  
R01  21653777.305    21653776.023                                   115751854.092   115751841.079                                          40.400          40.100                                  
E03  26536516.023    26536528.992    26536526.691    26536529.027   139450338.316   104134977.477   106851541.845   105493251.767          41.500          43.200          45.500          50.400  
E13  25512711.547    25512721.191    25512719.504    25512721.434   134070210.747   100117340.155   102729095.514   101423213.441          42.300          46.100          46.700          52.200  
E15  23474114.922    23474122.395    23474120.563    23474122.813   123357304.405    92117487.746    94520492.090    93319048.525          48.300          48.800          50.100          55.100  
E21  26043061.969    26043070.535    26043067.676    26043071.031   136857214.415   102198590.664   104864637.352   103531637.116          42.900          43.300          44.000          49.500  
E27  24661861.008    24661869.301    24661867.660    24661869.789   129598950.601    96778420.042    99303074.011    98040740.134          46.900          47.000          48.700          53.300  
E05  25233687.438    25233697.559    25233695.496    25233698.215   132603926.029    99022392.077   101605584.575   100313983.432          41.300          41.000          42.500          47.000  
E30  27134231.305    27134246.254    27134242.691    27134246.043   142591336.421   106480521.419   109258274.571   107869394.101          42.000          42.100          42.900          48.000  
C04  38456196.500    38456195.582   200251506.928   154847165.533          36.700          41.400  
C03  37441903.383    37441903.434   194969819.161   150763026.339          39.600          42.000  
C02  38915078.266    38915078.504   202641103.521   156694891.469          36.500          40.600  
C01  38000189.406    38000190.988   197876952.778   153011019.443          39.000          41.600  
C30  22423244.219                   116763710.320                          48.400                  
C29  21883823.758                   113954812.091                          48.600                  
C20  23298265.477                   121320183.993                          46.900                  
C13  38505959.289    38505967.434   200510634.745   155047528.135          40.200          41.600  
> 2025 04 10 07 07 40.0000000  0 31
G17  21182471.539                    21182479.109   111314633.152                    86738703.337          45.800                          45.800  
G11  22562416.219                    22562424.781   118566296.517                    92389354.391          42.300                          45.700  
G09  22800641.664                    22800652.652   119818180.698                    93364841.820          41.900                          44.000  
G19  19720491.953    19720495.832                   103631883.307    80752133.807                          48.000          42.400                  
G22  23052640.133    23052649.563                   121142436.644    94396738.266                          39.300          24.600                  
G03  23523472.766                    23523484.668   123616672.411                    96324730.751          42.800                          43.800  
G04  22979233.656                    22979244.145   120756686.913                    94096164.860          40.500                          43.600  
G06  20731810.289                    20731820.281   108946397.580                    84893338.265          47.900                          48.600  
G12  23304676.313                    23304684.707   122466909.493                    95428779.637          41.600                          41.700  
R24  22576818.969    22576818.855    22576830.641    22576830.320   120728391.854   120728382.840    93899849.929    93899855.918          41.800          40.800          42.600          43.600  
R18  20866536.063    20866534.754    20866544.516    20866543.406   111387010.016   111386975.002    86634314.343    86634318.347          45.800          43.400          47.800          47.900  
R03  22402096.391    22402096.074    22402109.555    22402109.406   119920191.906   119920177.891    93271261.977    93271267.980          38.400          38.000          45.500          45.600  
R02  20250779.906    20250779.172    20250787.766    20250788.020   108062041.098   108062031.117    84048247.115    84048253.120          48.300          46.300          47.800          47.900  
R16  21632128.977    21632128.637    21632137.867    21632138.461   115554951.168   115554936.196    89876061.134    89876068.138          45.800          44.300          45.700          46.300  
R17  19729639.039    19729637.988    19729646.234    19729646.152   105577280.752   105577267.750    82115654.980    82115659.983          48.700          47.400          48.700          50.000  
R01  21655606.039    21655605.109                                   115761631.444   115761618.457                                          40.800          40.200                                  
E03  26533740.250    26533753.051    26533750.895    26533753.105   139435750.847   104124084.275   106840364.474   105482216.479          41.500          43.900          45.500          50.500  
E13  25510571.578    25510580.895    25510578.973    25510581.223   134058963.852   100108941.478   102720477.727   101414705.211          43.500          45.100          46.500          51.700  
E15  23473810.961    23473818.391    23473816.563    23473818.922   123355706.783    92116294.715    94519267.944    93317839.938          48.400          48.200          50.000          55.400  
E21  26041360.523    26041368.121    26041366.059    26041369.070   136848269.529   102191911.037   104857783.469   103524870.361          42.700          44.000          45.400          50.500  
E27  24662789.234    24662797.668    24662795.887    24662798.164   129603828.732    96782062.793    99306811.787    98044430.396          47.100          46.200          48.100          53.300  
E05  25232851.719    25232861.797    25232859.219    25232862.500   132599534.899    99019112.987   101602219.943   100310661.574          41.200          41.400          42.700          47.600  
E30  27136682.445    27136696.855    27136694.227    27136697.039   142604217.751   106490140.506   109268144.591   107879138.661          42.400          41.400          43.200          48.000  
C04  38455621.367    38455620.816   200248510.153   154844848.243          36.500          41.900  
C03  37441347.078    37441347.598   194966924.616   150760788.092          39.200          41.200  
C02  38914499.141    38914499.266   202638088.209   156692559.814          35.400          40.500  
C01  37999641.203    37999642.125   197874096.224   153008810.563          38.700          42.300  
C30  22424113.227                   116768236.177                          48.400                  
C29  21882125.227                   113945966.926                          49.000                  
C20  23295280.492                   121304639.006                          46.800                  
C13  38504450.172    38504457.590   200502773.919   155041449.666          41.400          41.300  
> 2025 04 10 07 07 45.0000000  0 31
G17  21183584.758                    21183592.656   111320485.759                    86743263.790          46.400                          45.300  
G11  22559751.805                    22559760.586   118552293.914                    92378443.281          42.500                          46.000  
G09  22797715.922                    22797727.871   119802809.354                    93352864.194          42.100                          45.200  
G19  19720050.633    19720054.719                   103629564.611    80750327.042                          47.900          42.600                  
G22  23055084.719    23055093.559                   121155279.022    94406745.299                          41.300          26.900                  
G03  23526314.586                    23526326.195   123631606.228                    96336367.455          42.600                          43.700  
G04  22977739.422                    22977749.840   120748833.339                    94090045.189          40.500                          44.100  
G06  20730591.289                    20730601.305   108939990.728                    84888345.906          48.600                          48.400  
G12  23302306.758                    23302315.664   122454463.071                    95419081.154          40.700                          42.100  
R24  22578805.773    22578805.543    22578816.953    22578816.992   120739012.464   120739003.503    93908110.425    93908116.421          41.600          40.300          44.000          44.300  
R18  20864049.953    20864049.348    20864058.508    20864057.285   111373737.804   111373702.828    86623991.518    86623995.515          45.700          44.200          48.000          48.000  
R03  22397545.258    22397544.000    22397557.219    22397557.098   119895820.626   119895806.647    93252306.628    93252312.631          40.100          39.000          44.100          46.400  
R02  20248921.328    20248920.242    20248928.684    20248929.238   108052120.872   108052110.876    84040531.389    84040537.393          48.100          46.700          48.100          48.500  
R16  21632701.289    21632700.129    21632709.047    21632709.535   115558003.532   115557988.521    89878435.171    89878442.181          46.000          45.400          45.800          45.100  
R17  19729419.875    19729418.352    19729426.492    19729426.258   105576105.339   105576092.329    82114740.759    82114745.756          49.000          47.300          49.000          50.000  
R01  21657439.688    21657438.523                                   115771427.158   115771414.172                                          42.500          40.200                                  
E03  26530965.352    26530978.180    26530975.738    26530978.277   139421168.886   104113195.188   106829191.317   105471185.360          41.100          44.200          45.400          50.200  
E13  25508431.773    25508441.219    25508439.531    25508441.566   134047720.179   100100545.252   102711862.474   101406199.473          43.300          44.900          47.100          51.800  
E15  23473507.672    23473515.121    23473513.199    23473515.602   123354113.437    92115104.881    94518047.062    93316634.576          49.300          48.400          49.400          55.200  
E21  26039660.180    26039668.473    26039666.031    26039668.996   136839335.666   102185239.646   104850938.042   103518111.952          42.400          44.000          45.400          50.200  
E27  24663719.383    24663727.535    24663726.035    24663728.211   129608717.465    96785713.468    99310557.701    98048128.693          47.000          47.300          48.900          54.000  
E05  25232018.406    25232028.059    25232026.418    25232029.109   132595155.586    99015842.722   101598864.373   100307348.658          41.200          41.400          42.600          47.500  
E30  27139134.547    27139149.051    27139145.676    27139148.918   142617100.943   106499760.994   109278016.049   107888884.630          42.600          41.600          43.600          48.300  
C04  38455045.320    38455045.051   200245513.629   154842531.137          36.800          41.500  
C03  37440791.172    37440792.270   194964030.313   150758550.028          38.600          42.400  
C02  38913920.258    38913920.113   202635073.031   156690228.330          35.600          40.900  
C01  37999092.320    37999093.926   197871239.865   153006601.856          38.900          42.600  
C30  22424983.453                   116772768.699                          47.900                  
C29  21880427.711                   113937127.662                          49.600                  
C20  23292297.125                   121289103.666                          46.800                  
C13  38502941.055    38502948.949   200494916.251   155035373.632          41.100          42.200  
> 2025 04 10 07 07 50.0000000  0 31
G17  21184700.500                    21184707.848   111326348.348                    86747832.029          46.800                          45.500  
G11  22557088.164                    22557096.402   118538296.197                    92367535.965          42.200                          46.400  
G09  22794792.734                    22794804.461   119787447.049                    93340893.577          41.300                          45.000  
G19  19719612.023    19719616.180                   103627259.832    80748531.106                          48.200          43.000                  
G22  23057528.625    23057538.410                   121168126.886    94416756.581                          41.200          27.300                  
G03  23529156.789                    23529168.938   123646544.686                    96348007.800          42.500                          44.100  
G04  22976247.742                    22976257.809   120740993.903                    94083936.583          40.900                          44.000  
G06  20729373.445                    20729383.242   108933591.354                    84883359.382          47.400                          48.100  
G12  23299942.141                    23299950.414   122442031.483                    95409394.200          40.000                          41.600  
R24  22580792.578    22580792.348    22580803.461    22580803.184   120749637.310   120749628.319    93916374.132    93916380.136          43.100          41.300          44.000          45.200  
R18  20861563.391    20861563.371    20861572.590    20861571.887   111360469.966   111360434.968    86613672.084    86613676.088          45.900          44.500          48.200          47.800  
R03  22392992.352    22392991.918    22393005.445    22393005.234   119871454.605   119871440.607    93233355.363    93233361.364          39.900          38.600          44.700          45.900  
R02  20247066.125    20247065.273    20247074.273    20247074.484   108042222.044   108042212.041    84032832.306    84032838.311          48.700          46.900          47.900          48.400  
R16  21633276.055    21633276.066    21633284.941    21633285.430   115561076.683   115561061.702    89880825.418    89880832.415          46.500          44.700          46.100          46.900  
R17  19729201.594    19729199.953    19729207.926    19729207.535   105574938.180   105574925.191    82113832.977    82113837.979          49.300          47.500          48.600          50.000  
R01  21659275.648    21659274.367                                   115781241.031   115781228.035                                          42.600          40.900                                  
E03  26528191.266    26528203.938    26528201.875    26528204.309   139406592.301   104102310.107   106818022.282   105460158.306          41.000          43.400          45.100          50.300  
E13  25506292.492    25506302.262    25506299.871    25506302.516   134036479.734   100092151.408   102703249.653   101397696.141          43.000          45.300          46.500          51.500  
E15  23473205.234    23473213.051    23473210.941    23473213.320   123352524.234    92113918.131    94516829.358    93315432.350          48.600          48.600          49.800          55.400  
E21  26037962.344    26037970.512    26037968.262    26037970.934   136830412.676   102178576.364   104844100.937   103511361.759          42.600          43.100          44.700          49.700  
E27  24664651.797    24664660.238    24664658.504    24664660.699   129613616.731    96789372.007    99314311.667    98051834.944          47.400          46.800          49.200          54.000  
E05  25231187.086    25231196.730    25231195.043    25231197.898   132590787.900    99012581.148   101595517.696   100304044.533          41.000          41.300          43.000          47.600  
E30  27141586.195    27141601.004    27141597.957    27141601.047   142629985.850   106509382.785   109287888.870   107898631.933          42.400          42.100          43.800          48.300  
C04  38454469.492    38454469.563   200242517.234   154840214.141          36.900          41.100  
C03  37440236.180    37440236.277   194961136.069   150756312.001          38.800          42.300  
C02  38913341.055    38913341.289   202632057.861   156687896.765          36.000          40.100  
C01  37998543.773    37998545.152   197868383.608   153004393.211          38.800          42.200  
C30  22425855.367                   116777307.721                          48.200                  
C29  21878731.211                   113928294.167                          49.700                  
C20  23289315.719                   121273577.904                          46.300                  
C13  38501432.523    38501440.258   200487061.512   155029299.849          41.000          42.200  
> 2025 04 10 07 07 55.0000000  0 31
G17  21185817.797                    21185826.148   111332221.240                    86752408.322          45.900                          45.800  
G11  22554424.359                    22554433.699   118524303.551                    92356632.606          42.500                          45.800  
G09  22791870.813                    22791883.168   119772093.945                    93328930.151          40.700                          44.900  
G19  19719176.242    19719180.184                   103624969.121    80746746.133                          47.900          43.400                  
G22  23059974.969    23059984.418                   121180980.461    94426772.331                          41.200          25.800                  
G03  23532000.797                    23532012.902   123661488.063                    96359651.974          42.600                          45.000  
G04  22974758.656                    22974768.621   120733168.865                    94077839.138          40.900                          44.400  
G06  20728156.789                    20728167.094   108927199.560                    84878378.766          47.700                          48.300  
G12  23297578.547                    23297587.973   122429614.955                    95399719.010          39.500                          40.500  
R24  22582779.227    22582779.699    22582792.051    22582791.887   120760266.494   120760257.500    93924641.259    93924647.256          40.600          38.400          43.900          44.900  
R18  20859079.516    20859078.793    20859087.816    20859087.031   111347206.695   111347171.689    86603356.218    86603360.222          46.200          44.300          47.500          48.300  
R03  22388441.352    22388440.445    22388454.699    22388454.613   119847094.311   119847080.325    93214408.570    93214414.562          40.800          39.400          44.400          45.600  
R02  20245215.641    20245214.086    20245223.336    20245223.355   108032345.196   108032335.207    84025150.309    84025156.319          48.200          46.900          47.800          48.600  
R16  21633855.734    21633854.691    21633864.328    21633864.090   115564170.702   115564155.713    89883231.872    89883238.874          46.900          45.000          46.300          47.200  
R17  19728985.648    19728983.891    19728992.008    19728991.832   105573779.448   105573766.439    82112931.735    82112936.739          49.100          47.200          49.500          50.400  
R01  21661115.016    21661113.500                                   115791073.327   115791060.345                                          42.300          41.100                                  
E03  26525418.227    26525431.313    26525429.109    26525431.703   139392021.336   104091429.236   106806857.557   105449135.502          40.600          43.600          45.100          50.400  
E13  25504154.273    25504163.695    25504161.723    25504164.184   134025242.566   100083760.035   102694639.372   101389195.310          43.000          44.300          45.700          51.100  
E15  23472903.398    23472911.391    23472909.375    23472911.668   123350939.334    92112734.605    94515614.955    93314233.385          47.900          48.300          49.300          55.300  
E21  26036266.523    26036274.785    26036272.535    26036275.055   136821500.799   102171921.409   104837272.370   103504619.995          42.500          42.700          44.400          49.500  
E27  24665586.133    24665594.699    24665592.965    24665595.086   129618526.683    96793038.514    99318073.833    98055549.282          46.600          47.100          49.200          54.200  
E05  25230358.172    25230367.773    25230366.414    25230369.094   132586432.104    99009328.444   101592180.134   100300749.394          40.600          41.200          42.500          47.100  
E30  27144038.313    27144053.184    27144050.324    27144053.281   142642872.819   106519006.082   109297763.211   107908380.755          42.800          41.200          43.300          47.700  
C04  38453894.609    38453894.379   200239521.200   154837897.409          36.900          41.300  
C03  37439680.164    37439680.641   194958242.109   150754074.220          38.700          41.600  
C02  38912762.531    38912762.063   202629042.892   156685565.400          35.100          40.200  
C01  37997995.648    37997997.090   197865527.650   153002184.784          38.800          42.200  
C30  22426728.258                   116781853.443                          48.100                  
C29  21877036.086                   113919466.672                          49.900                  
C20  23286335.789                   121258061.889                          46.700                  
C13  38499925.383    38499932.965   200479210.021   155023228.585          41.400          41.300  
> 2025 04 10 07 08  0.0000000  0 31
G17  21186937.266                    21186945.473   111338103.364                    86756991.783          46.300                          45.500  
G11  22551763.555                    22551771.805   118510314.995                    92345732.477          43.300                          45.500  
G09  22788950.695                    22788962.988   119756749.051                    93316973.097          41.800                          45.800  
G19  19718742.766    19718746.777                   103622691.544    80744971.374                          48.100          42.800                  
G22  23062421.664    23062431.594                   121193838.777    94436791.762                          40.600          27.600                  
G03  23534844.750                    23534857.313   123676435.313                    96371299.157          42.600                          43.200  
G04  22973271.031                    22973282.117   120725357.146                    94071752.112          39.800                          43.600  
G06  20726942.383                    20726952.121   108920814.433                    84873403.319          47.800                          48.300  
G12  23295219.695                    23295227.609   122417212.463                    95390054.711          38.700                          40.700  
R24  22584768.797    22584767.629    22584780.094    22584779.586   120770899.198   120770890.156    93932911.104    93932917.120          40.200          38.900          43.200          43.700  
R18  20856594.641    20856595.090    20856603.293    20856602.723   111333946.979   111333911.966    86593043.102    86593047.113          45.300          44.300          47.100          47.000  
R03  22383891.453    22383890.664    22383904.426    22383904.895   119822738.648   119822724.660    93195465.349    93195471.344          41.700          40.400          43.500          44.600  
R02  20243368.492    20243367.172    20243376.402    20243376.453   108022489.254   108022479.243    84017484.589    84017490.593          47.200          45.900          48.200          48.500  
R16  21634438.633    21634437.121    21634447.355    21634447.574   115567284.623   115567269.618    89885653.815    89885660.826          45.100          43.700          45.500          46.100  
R17  19728769.414    19728768.246    19728776.520    19728776.281   105572628.086   105572615.091    82112036.232    82112041.229          49.500          47.300          49.300          49.900  
R01  21662957.570    21662956.641                                   115800922.953   115800909.958                                          41.600          41.100                                  
E03  26522646.813    26522659.633    26522657.242    26522659.734   139377454.947   104080551.758   106795696.320   105438116.147          41.900          43.800          45.700          50.400  
E13  25502016.031    25502025.836    25502023.820    25502026.285   134014007.799   100075370.479   102686030.962   101380696.326          42.600          45.300          46.300          51.500  
E15  23472602.781    23472610.117    23472608.285    23472610.617   123349357.785    92111553.566    94514403.112    93313036.949          48.200          48.800          50.300          55.500  
E21  26034572.391    26034581.039    26034579.023    26034581.117   136812599.064   102165273.994   104830451.558   103497885.885          42.200          44.800          45.500          50.700  
E27  24666522.695    24666530.496    24666529.230    24666531.199   129623446.386    96796712.305    99321843.461    98059270.994          47.100          47.000          49.000          53.700  
E05  25229531.641    25229541.066    25229539.848    25229542.051   132582087.152    99006083.846   101588850.895   100297462.472          41.600          40.700          42.800          47.500  
E30  27146490.828    27146505.910    27146502.770    27146505.824   142655760.669   106528630.071   109307638.267   107918130.278          44.600          44.000          44.600          49.600  
C04  38453319.086    38453319.016   200236524.509   154835580.197          36.200          41.400  
C03  37439123.844    37439124.758   194955347.452   150751835.913          38.500          40.700  
C02  38912183.234    38912182.590   202626026.993   156683233.330          35.200          39.700  
C01  37997446.797    37997448.359   197862671.027   152999975.869          38.300          42.200  
C30  22427602.305                   116786404.903                          47.300                  
C29  21875341.516                   113910644.188                          49.600                  
C20  23283358.164                   121242554.700                          46.600                  
C13  38498418.078    38498425.547   200471360.677   155017159.004          41.600          41.700  
> 2025 04 10 07 08  5.0000000  0 31
G17  21188059.133                    21188066.605   111343995.532                    86761583.074          46.000                          45.500  
G11  22549102.484                    22549110.719   118496331.327                    92334836.133          42.600                          46.300  
G09  22786031.867                    22786044.547   119741413.308                    93305023.222          39.900                          45.600  
G19  19718311.977    19718316.277                   103620427.836    80743207.457                          47.900          42.400                  
G22  23064870.000    23064879.586                   121206702.636    94446815.500                          41.100          26.900                  
G03  23537690.156                    23537702.543   123691387.265                    96382950.018          43.000                          43.600  
G04  22971787.133                    22971798.715   120717559.622                    94065676.138          39.800                          44.000  
G06  20725729.141                    20725737.875   108914436.757                    84868433.723          48.500                          48.300  
G12  23292861.688                    23292869.902   122404824.802                    95380402.076          39.500                          39.800  
R24  22586756.219    22586755.520    22586769.355    22586768.215   120781536.010   120781527.060    93941184.166    93941190.170          39.200          37.900          43.000          44.300  
R18  20854112.414    20854110.988    20854119.695    20854119.457   111320691.657   111320656.651    86582733.420    86582737.424          45.700          44.600          47.500          46.800  
R03  22379343.266    22379341.891    22379355.422    22379355.852   119798388.583   119798374.576    93176526.499    93176532.508          42.300          40.700          44.200          45.400  
R02  20241525.617    20241524.648    20241533.328    20241533.250   108012654.771   108012644.766    84009835.560    84009841.571          47.200          46.000          47.800          47.500  
R16  21635024.242    21635023.668    21635033.586    21635033.461   115570419.256   115570404.260    89888091.852    89888098.854          44.600          43.500          47.100          47.400  
R17  19728556.313    19728555.262    19728563.453    19728563.438   105571484.984   105571471.983    82111147.144    82111152.154          49.300          47.500          49.100          50.600  
R01  21664803.344    21664802.531                                   115810790.772   115810777.784                                          40.900          40.500                                  
E03  26519875.719    26519888.344    26519886.469    26519888.930   139362894.063   104069678.427   106784539.321   105427100.979          41.300          43.000          45.500          49.800  
E13  25499878.875    25499888.742    25499886.211    25499889.000   134002776.190   100066983.212   102677424.896   101372199.660          43.000          45.400          46.600          51.900  
E15  23472302.742    23472310.160    23472308.098    23472310.637   123347780.383    92110375.640    94513194.461    93311843.657          48.900          49.100          49.900          55.500  
E21  26032881.484    26032888.645    26032886.816    26032889.227   136803708.272   102158634.796   104823639.159   103491160.086          42.800          43.500          44.700          50.000  
E27  24667460.672    24667468.980    24667467.105    24667469.273   129628376.542    96800393.910    99325621.117    98063000.621          46.400          47.600          49.400          54.300  
E05  25228706.961    25228716.547    25228715.469    25228717.449   132577753.884    99002847.978   101585530.615   100294184.402          42.100          40.900          43.000          47.600  
E30  27148944.148    27148958.496    27148955.965    27148958.551   142668650.320   106538255.380   109317514.687   107927881.142          44.700          43.100          43.800          48.400  
C04  38452743.625    38452743.055   200233527.983   154833263.098          36.200          40.700  
C03  37438567.734    37438568.352   194952452.892   150749597.626          38.000          41.500  
C02  38911603.789    38911604.195   202623011.203   156680901.361          35.200          40.700  
C01  37996897.805    37996899.398   197859814.485   152997766.999          38.400          42.600  
C30  22428477.813                   116790962.906                          47.800                  
C29  21873648.320                   113901827.508                          48.500                  
C20  23280382.234                   121227057.087                          47.400                  
C13  38496911.250    38496918.641   200463514.387   155011091.748          41.800          41.400  
> 2025 04 10 07 08 10.0000000  0 31
G17  21189181.422                    21189189.684   111349897.088                    86766181.682          46.300                          45.200  
G11  22546442.000                    22546450.844   118482351.943                    92323943.101          42.500                          45.800  
G09  22783114.930                    22783128.164   119726085.921                    93293079.852          41.000                          44.900  
G19  19717883.805    19717887.629                   103618177.439    80741453.895                          48.100          42.900                  
G22  23067318.703    23067328.426                   121219571.293    94456842.973                          41.400          28.500                  
G03  23540536.461                    23540548.859   123706343.183                    96394603.963          42.500                          43.100  
G04  22970306.484                    22970317.922   120709775.674                    94059610.737          39.400                          43.900  
G06  20724516.188                    20724525.930   108908065.883                    84863469.415          48.000                          49.100  
G12  23290505.930                    23290515.465   122392451.446                    95370760.466          38.900                          39.300  
R24  22588747.664    22588745.438    22588757.785    22588757.727   120792176.438   120792167.471    93949460.025    93949466.017          42.200          40.000          42.400          42.800  
R18  20851629.414    20851629.512    20851637.750    20851637.574   111307440.084   111307405.086    86572426.637    86572430.641          45.600          45.000          47.900          46.300  
R03  22374795.141    22374794.707    22374807.887    22374808.246   119774043.275   119774029.270    93157591.319    93157597.328          44.100          42.300          45.100          46.700  
R02  20239685.891    20239685.039    20239693.762    20239693.773   108002841.355   108002831.359    84002202.922    84002208.926          47.700          47.000          48.100          46.800  
R16  21635615.313    21635614.270    21635623.980    21635623.980   115573574.042   115573559.052    89890545.593    89890552.588          45.100          43.700          45.700          46.500  
R17  19728344.500    19728342.391    19728350.895    19728350.418   105570349.455   105570336.469    82110263.963    82110268.966          49.000          47.600          49.100          50.000  
R01  21666652.203    21666650.922                                   115820676.124   115820663.143                                          41.200          39.900                                  
E03  26517106.156    26517118.340    26517116.559    26517118.766   139348337.918   104058808.615   106773385.945   105416089.389          42.300          42.800          44.900          49.800  
E13  25497741.992    25497751.711    25497749.648    25497752.020   133991547.141   100058597.900   102668820.835   101363704.973          43.600          45.700          46.500          51.900  
E15  23472003.008    23472010.586    23472008.758    23472011.199   123346206.477    92109200.315    94511988.470    93310653.001          48.400          48.000          49.500          55.400  
E21  26031190.703    26031198.941    26031197.020    26031199.410   136794827.790   102152003.255   104816834.614   103484442.038          42.600          43.500          44.800          49.900  
E27  24668401.000    24668409.180    24668407.164    24668409.375   129633316.598    96804082.915    99329406.346    98066737.739          46.900          47.300          48.800          54.000  
E05  25227884.180    25227894.664    25227893.117    25227895.250   132573431.691    98999620.342   101582218.787   100290914.677          41.900          40.600          43.100          47.300  
E30  27151397.063    27151411.613    27151408.895    27151411.762   142681541.075   106547881.545   109327391.970   107937632.870          45.000          43.500          44.700          49.600  
C04  38452168.555    38452167.809   200230530.977   154830945.624          36.300          41.100  
C03  37438012.617    37438012.676   194949557.833   150747358.995          38.100          41.100  
C02  38911024.313    38911025.145   202619994.707   156678568.775          35.200          40.500  
C01  37996349.445    37996351.074   197856957.418   152995557.748          37.900          42.000  
C30  22429354.125                   116795526.811                          48.400                  
C29  21871956.508                   113893016.050                          49.000                  
C20  23277407.641                   121211568.497                          46.800                  
C13  38495404.641    38495412.113   200455670.495   155005026.369          42.500          41.700  
> 2025 04 10 07 08 15.0000000  0 30
G17  21190306.805                    21190314.531   111355808.328                    86770787.836          46.400                          45.600  
G11  22543782.938                    22543791.805   118468377.100                    92313053.620          41.600                          45.500  
G09  22780200.078                    22780212.809   119710767.379                    93281143.348          40.600                          45.600  
G19  19717458.445    19717462.023                   103615940.613    80739710.922                          48.200          42.500                  
G22  23069768.469    23069778.086                   121232445.101    94466874.478                          40.700          27.400                  
G03  23543382.766                    23543395.176   123721303.512                    96406261.320          42.400                          43.600  
G04  22968826.555                    22968838.359   120702005.548                    94053556.130          39.200                          43.600  
G06  20723305.211                    20723315.094   108901702.146                    84858510.659          48.200                          48.500  
G12  23288155.773                    23288163.715   122380092.598                    95361130.199          40.300                          39.900  
R24  22590738.117    22590736.477    22590748.969    22590748.605   120802820.784   120802811.795    93957738.914    93957744.916          42.100          39.600          42.400          43.000  
R18  20849148.930    20849147.973    20849156.074    20849155.906   111294192.571   111294157.581    86562123.026    86562127.023          46.800          45.500          47.200          47.200  
R03  22370248.422    22370248.105    22370260.688    22370261.285   119749703.317   119749689.317    93138660.319    93138666.322          41.700          41.000          44.100          45.200  
R02  20237851.180    20237850.211    20237858.984    20237859.199   107993049.451   107993039.463    83994586.980    83994592.992          48.200          47.000          48.000          47.900  
R16  21636210.141    21636209.098    21636218.352    21636218.480   115576749.122   115576734.127    89893015.091    89893022.102          44.500          42.600          46.100          46.500  
R17  19728133.070    19728131.902    19728140.609    19728139.832   105569221.897   105569208.902    82109386.975    82109391.979          49.600          47.500          50.100          50.600  
R01  21668504.992    21668504.063                                   115830579.468   115830566.487                                          41.400          40.900                                  
E03  26514337.602    26514349.227    26514347.117    26514349.852   139333786.943   104047942.631   106762236.516   105405081.679          40.900          43.400          46.300          50.500  
E13  25495605.813    25495615.660    25495613.035    25495615.777   133980320.959   100050214.711   102660218.960   101355212.444          43.500          45.400          46.700          51.900  
E15  23471704.297    23471711.777    23471709.855    23471712.359   123344636.413    92108027.856    94510785.431    93309465.253          48.500          48.500          49.900          55.400  
E21  26029502.891    26029510.691    26029508.723    26029511.387   136785957.950   102145379.676   104810038.245   103477732.071          43.600          43.900          44.900          49.900  
E27  24669342.578    24669350.906    24669349.313    24669351.336   129638266.826    96807779.492    99333199.365    98070482.532          46.600          47.000          48.500          53.700  
E05  25227064.375    25227074.430    25227072.930    25227074.695   132569120.874    98996401.240   101578915.699   100287653.574          42.300          41.600          43.000          47.400  
E30  27153850.367    27153865.004    27153862.656    27153865.246   142694433.283   106557508.790   109337270.379   107947385.693          43.900          42.800          44.700          49.300  
C04  38451592.430    38451592.090   200227533.813   154828628.019          36.700          40.700  
C03  37437456.281    37437456.484   194946662.572   150745120.197          38.800          40.700  
C02  38910444.617    38910445.281   202616977.995   156676236.077          35.600          40.200  
C30  22430231.719                   116800096.917                          47.200                  
C29  21870265.195                   113884210.052                          48.500                  
C20  23274434.977                   121196089.176                          47.000                  
C13  38493898.258    38493906.219   200447829.168   154998962.995          41.200          41.400  
> 2025 04 10 07 08 20.0000000  0 30
G17  21191433.383                    21191441.094   111361729.681                    86775401.860          45.800                          46.000  
G11  22541124.383                    22541133.078   118454407.279                    92302168.037          42.400                          45.200  
G09  22777286.945                    22777299.461   119695458.048                    93269214.036          40.600                          45.200  
G19  19717035.273    19717038.840                   103613717.850    80737978.892                          48.200          42.500                  
G22  23072219.563    23072228.625                   121245324.380    94476910.274                          41.600          28.700                  
G03  23546230.883                    23546242.613   123736268.534                    96417922.362          41.400                          43.600  
G04  22967350.625                    22967362.480   120694249.825                    94047512.712          38.000                          43.000  
G06  20722095.570                    20722105.191   108895345.987                    84853557.811          48.100                          48.700  
G12  23285805.719                    23285814.035   122367748.757                    95351511.629          38.900                          38.800  
R24  22592729.820    22592729.004    22592740.355    22592740.199   120813469.515   120813460.515    93966021.214    93966027.226          42.100          40.700          41.500          43.100  
R18  20846668.219    20846666.676    20846674.996    20846674.707   111280949.589   111280914.612    86551822.897    86551826.894          47.200          44.900          47.400          46.900  
R03  22365702.734    22365701.125    22365714.434    22365714.785   119725368.955   119725354.979    93119733.709    93119739.705          43.400          42.100          43.000          44.500  
R02  20236020.563    20236019.125    20236027.695    20236027.680   107983279.280   107983269.270    83986987.967    83986993.972          47.900          46.800          48.000          47.300  
R16  21636809.031    21636808.105    21636816.777    21636817.168   115579945.014   115579930.018    89895500.805    89895507.808          46.500          44.700          46.000          45.900  
R17  19727924.688    19727923.047    19727932.000    19727931.277   105568102.558   105568089.584    82108516.379    82108521.384          49.700          47.500          49.800          50.700  
R01  21670360.680    21670358.578                                   115840500.807   115840487.818                                          40.900          39.400                                  
E03  26511569.797    26511581.617    26511579.414    26511582.039   139319241.524   104037080.825   106751091.354   105394078.192          41.600          43.100          44.900          50.100  
E13  25493470.188    25493480.176    25493477.504    25493480.313   133969097.991   100041833.942   102651619.557   101346722.357          42.600          44.200          46.600          51.600  
E15  23471406.250    23471413.758    23471411.883    23471414.340   123343070.590    92106858.580    94509585.646    93308280.720          48.100          48.200          50.100          55.200  
E21  26027817.023    26027824.867    26027822.992    26027825.742   136777099.183   102138764.353   104803250.356   103471030.464          42.900          43.400          44.900          49.800  
E27  24670286.711    24670295.180    24670293.113    24670295.363   129643227.665    96811484.014    99337000.517    98074235.368          47.000          47.300          48.500          53.700  
E05  25226246.008    25226256.156    25226254.938    25226256.727   132564821.756    98993190.857   101575621.582   100284401.325          40.600          40.900          43.000          47.500  
E30  27156304.164    27156318.844    27156315.699    27156318.727   142707327.271   106567137.347   109347150.114   107957139.836          43.600          41.000          42.300          47.000  
C04  38451016.102    38451016.719   200224536.907   154826310.628          36.300          40.600  
C03  37436900.313    37436900.820   194943767.539   150742881.566          37.700          41.800  
C02  38909865.852    38909866.426   202613961.283   156673903.365          36.300          40.300  
C30  22431110.820                   116804673.690                          48.300                  
C29  21868575.352                   113875410.017                          48.200                  
C20  23271463.523                   121180619.625                          46.600                  
C13  38492393.633    38492401.152   200439991.059   154992902.042          41.400          41.600  
> 2025 04 10 07 08 25.0000000  0 30
G17  21192562.172                    21192569.750   111367660.740                    86780023.438          46.300                          46.700  
G11  22538467.102                    22538475.160   118440442.010                    92291286.044          42.800                          45.400  
G09  22774375.695                    22774388.328   119680157.486                    93257291.564          41.900                          45.500  
G19  19716614.969    19716618.711                   103611508.692    80736257.472                          48.000          41.900                  
G22  23074671.461    23074680.953                   121258208.859    94486950.073                          42.700          29.000                  
G03  23549079.531                    23549091.773   123751237.956                    96429586.802          42.200                          43.600  
G04  22965878.813                    22965889.500   120686507.873                    94041480.026          39.600                          42.700  
G06  20720887.625                    20720897.219   108888996.943                    84848610.483          47.000                          48.300  
G12  23283461.102                    23283468.254   122355419.568                    95341904.477          40.800                          40.400  
R24  22594721.805    22594721.809    22594733.008    22594733.098   120824122.121   120824113.129    93974306.563    93974312.574          42.600          41.100          42.400          44.200  
R18  20844186.922    20844186.785    20844195.414    20844194.824   111267710.659   111267675.661    86541525.956    86541529.968          46.700          44.600          47.000          47.600  
R03  22361156.789    22361155.883    22361169.781    22361170.371   119701039.788   119701025.784    93100811.063    93100817.066          42.100          40.200          45.100          45.900  
R02  20234192.758    20234191.789    20234201.070    20234201.203   107973530.357   107973520.369    83979405.471    83979411.476          47.500          46.700          47.700          48.400  
R16  21637410.852    21637410.043    21637419.121    21637419.457   115583161.313   115583146.323    89898002.371    89898009.374          46.000          43.900          46.000          46.000  
R17  19727716.094    19727715.043    19727723.992    19727723.445   105566991.188   105566978.210    82107651.966    82107656.970          49.100          47.800          49.400          50.800  
R01  21672220.492    21672218.977                                   115850440.062   115850427.095                                          41.300          40.100                                  
E03  26508802.414    26508814.816    26508812.754    26508815.047   139304701.209   104026222.835   106739950.110   105383078.578          43.200          44.100          45.600          50.600  
E13  25491335.141    25491345.023    25491342.676    25491345.148   133957877.850   100033455.295   102643022.328   101338234.418          42.700          44.700          46.500          51.300  
E15  23471109.148    23471116.727    23471114.758    23471117.113   123341508.544    92105692.109    94508388.754    93307099.037          48.300          48.200          50.100          55.300  
E21  26026133.680    26026141.297    26026139.375    26026141.961   136768250.985   102132156.969   104796470.600   103464336.891          42.200          42.700          44.600          49.700  
E27  24671232.828    24671240.977    24671238.914    24671241.336   129648198.673    96815196.130    99340809.473    98077995.908          47.200          47.400          47.900          53.600  
E05  25225429.813    25225440.789    25225439.102    25225440.930   132560534.112    98989989.030   101572336.246   100281157.744          40.200          41.500          43.300          48.000  
E30  27158758.141    27158772.902    27158770.230    27158772.754   142720222.728   106576767.006   109357030.989   107966895.110          44.600          41.600          42.300          47.000  
C04  38450441.016    38450440.961   200221539.871   154823993.125          36.900          40.600  
C03  37436344.391    37436344.559   194940872.208   150740642.757          37.600          41.800  
C02  38909286.234    38909286.535   202610944.213   156671570.399          35.100          41.300  
C30  22431990.625                   116809256.653                          48.000                  
C29  21866886.406                   113866615.472                          48.400                  
C20  23268494.984                   121165159.372                          47.500                  
C13  38490888.820    38490896.535   200432155.525   154986843.139          41.600          41.000  
> 2025 04 10 07 08 30.0000000  0 30
G17  21193692.750                    21193700.566   111373601.418                    86784652.539          46.000                          46.400  
G11  22535810.641                    22535818.785   118426481.277                    92280407.544          43.100                          46.000  
G09  22771465.430                    22771477.867   119664865.664                    93245375.873          40.900                          44.500  
G19  19716197.086    19716200.648                   103609313.111    80734546.623                          47.900          43.100                  
G22  23077124.289    23077133.820                   121271098.438    94496993.859                          42.500          29.300                  
G03  23551928.445                    23551940.816   123766211.518                    96441254.489          43.000                          43.200  
G04  22964408.570                    22964418.852   120678779.829                    94035458.199          40.400                          43.000  
G06  20719680.750                    20719689.934   108882654.955                    84843668.685          47.600                          48.500  
G12  23281116.914                    23281124.742   122343104.793                    95332308.564          39.200                          41.100  
R24  22596714.219    22596714.223    22596725.883    22596725.211   120834778.511   120834769.507    93982594.854    93982600.866          42.200          41.000          42.600          44.100  
R18  20841708.008    20841707.285    20841715.891    20841715.348   111254475.753   111254440.754    86531232.166    86531236.170          45.600          45.000          46.700          46.500  
R03  22356611.594    22356611.863    22356625.129    22356625.621   119676715.843   119676701.849    93081892.517    93081898.513          40.900          39.800          43.700          43.900  
R02  20232370.672    20232369.820    20232378.688    20232378.629   107963802.790   107963792.787    83971839.605    83971845.617          46.700          47.000          47.600          47.600  
R16  21638016.055    21638015.480    21638024.438    21638024.844   115586397.816   115586382.820    89900519.636    89900526.639          46.100          44.700          46.200          46.300  
R17  19727509.859    19727509.160    19727517.676    19727516.961   105565887.748   105565874.752    82106793.731    82106798.742          48.800          48.000          49.300          50.200  
R01  21674083.555    21674081.453                                   115860397.054   115860384.057                                          41.100          39.400                                  
E03  26506036.328    26506048.898    26506046.836    26506049.215   139290165.994   104015368.646   106728812.769   105372082.813          42.700          44.000          46.000          50.600  
E13  25489200.828    25489209.949    25489208.355    25489210.387   133946660.551   100025078.738   102634427.253   101329748.604          42.100          44.800          46.300          51.300  
E15  23470812.461    23470820.191    23470818.316    23470820.625   123339950.253    92104528.458    94507194.743    93305920.207          48.500          48.600          50.500          55.400  
E21  26024451.828    26024459.914    26024456.867    26024460.227   136759413.410   102125557.470   104789698.938   103457651.313          42.300          43.600          44.200          49.800  
E27  24672180.734    24672188.637    24672186.805    24672189.203   129653179.751    96818915.764    99344626.150    98081764.063          47.400          47.600          48.600          54.000  
E05  25224615.852    25224626.941    25224625.160    25224626.902   132556257.789    98986795.704   101569059.586   100277922.753          40.600          40.500          42.300          47.300  
E30  27161212.250    27161227.051    27161223.910    27161226.918   142733119.458   106586397.642   109366912.855   107976651.354          43.600          40.700          41.700          46.800  
C04  38449866.094    38449865.242   200218542.623   154821675.455          37.100          41.200  
C03  37435787.828    37435788.609   194937976.679   150738403.721          37.600          42.300  
C02  38908707.289    38908707.340   202607926.837   156669237.157          35.300          41.800  
C30  22432871.734                   116813845.768                          47.800                  
C29  21865198.805                   113857826.394                          49.300                  
C20  23265527.781                   121149708.403                          47.800                  
C13  38489384.297    38489392.098   200424322.788   154980786.371          40.600          41.300  
> 2025 04 10 07 08 35.0000000  0 30
G17  21194824.766                    21194832.523   111379552.109                    86789289.420          47.000                          45.300  
G11  22533154.828                    22533162.723   118412525.435                    92269532.894          42.800                          45.200  
G09  22768557.398                    22768569.531   119649583.007                    93233467.356          40.700                          45.300  
G19  19715782.180    19715785.664                   103607131.425    80732846.601                          48.100          42.800                  
G22  23079578.391    23079587.547                   121283993.444    94507041.905                          41.400          27.600                  
G03  23554779.383                    23554791.180   123781189.713                    96452925.787          42.400                          43.300  
G04  22962939.914                    22962950.563   120671066.029                    94029447.441          40.000                          42.700  
G06  20718475.258                    20718484.555   108876320.366                    84838732.646          48.100                          48.000  
G12  23278776.359                    23278784.176   122330804.945                    95322724.260          39.900                          40.600  
R24  22598707.703    22598707.355    22598720.480    22598719.535   120845439.152   120845430.183    93990886.449    93990892.461          40.800          39.200          43.300          43.800  
R18  20839229.125    20839228.285    20839236.703    20839235.785   111241245.160   111241210.169    86520941.707    86520945.711          45.900          44.800          47.900          47.000  
R03  22352069.719    22352069.871    22352082.996    22352083.449   119652397.592   119652383.584    93062978.397    93062984.401          40.200          40.500          44.200          44.800  
R02  20230551.211    20230550.477    20230559.352    20230559.254   107954097.126   107954087.138    83964290.749    83964296.753          46.900          47.000          47.800          47.900  
R16  21638625.852    21638625.629    21638635.195    21638634.801   115589655.063   115589640.067    89903053.061    89903060.064          44.500          43.000          46.100          46.400  
R17  19727305.922    19727303.813    19727312.461    19727312.043   105564792.436   105564779.439    82105941.828    82105946.839          48.900          47.300          49.300          50.000  
R01  21675949.328    21675948.281                                   115870372.099   115870359.100                                          42.200          40.100                                  
E03  26503270.516    26503283.563    26503281.688    26503284.148   139275636.252   104004518.562   106717679.626   105361091.202          41.000          43.700          45.400          50.400  
E13  25487066.266    25487075.711    25487074.539    25487076.508   133935446.340   100016704.507   102625834.564   101321265.144          42.700          44.200          46.200          51.000  
E15  23470516.789    23470524.242    23470522.410    23470524.777   123338396.103    92103367.886    94506003.892    93304744.493          48.500          48.200          50.300          55.500  
E21  26022772.453    26022780.055    26022777.664    26022780.785   136750586.771   102118966.138   104782935.668   103450974.007          42.700          44.000          44.600          50.200  
E27  24673130.320    24673138.715    24673136.512    24673139.035   129658171.289    96822643.198    99348450.809    98085540.110          47.100          46.400          47.700          53.300  
E05  25223804.664    25223815.293    25223813.371    25223815.586   132551993.013    98983610.970   101565791.798   100274696.489          41.200          41.200          43.500          48.300  
E30  27163666.930    27163681.684    27163678.824    27163681.602   142746017.924   106596029.543   109376796.032   107986408.894          44.200          41.900          41.800          47.200  
C04  38449290.766    38449289.840   200215545.532   154819357.924          36.800          40.900  
C03  37435232.078    37435232.492   194935081.218   150736164.781          38.500          42.100  
C02  38908127.672    38908128.180   202604909.381   156666903.886          35.400          40.900  
C30  22433754.477                   116818441.419                          47.900                  
C29  21863511.844                   113849043.137                          49.100                  
C20  23262562.375                   121134267.062                          47.600                  
C13  38487880.328    38487888.746   200416492.941   154974731.849          40.800          40.900  
> 2025 04 10 07 08 40.0000000  0 30
G17  21195959.313                    21195966.949   111385512.332                    86793933.774          46.900                          45.400  
G11  22530499.516                    22530508.039   118398574.018                    92258661.645          43.000                          46.400  
G09  22765651.438                    22765663.074   119634309.019                    93221565.558          42.200                          44.600  
G19  19715369.563    19715373.250                   103604963.208    80731157.078                          48.500          42.300                  
G22  23082032.797    23082041.648                   121296893.328    94517093.733                          41.500          27.900                  
G03  23557629.789                    23557642.449   123796172.010                    96464600.296          41.500                          43.000  
G04  22961475.430                    22961485.297   120663365.921                    94023447.393          41.400                          42.500  
G06  20717271.070                    20717281.004   108869992.802                    84833802.089          47.400                          48.500  
G12  23276438.078                    23276446.508   122318519.585                    95313151.258          39.900                          40.100  
R24  22600702.680    22600702.332    22600714.297    22600713.641   120856103.493   120856094.556    93999180.875    93999186.872          41.100          39.000          43.200          44.300  
R18  20836751.930    20836750.973    20836759.512    20836759.113   111228018.554   111227983.570    86510654.393    86510658.396          45.900          44.700          47.300          46.800  
R03  22347528.172    22347527.617    22347540.164    22347540.590   119628084.479   119628070.490    93044068.269    93044074.272          43.200          42.600          44.600          45.500  
R02  20228736.438    20228735.938    20228744.742    20228744.840   107944412.503   107944402.478    83956758.277    83956764.281          47.000          46.700          48.200          49.300  
R16  21639238.734    21639238.863    21639248.730    21639248.797   115592932.330   115592917.313    89905602.021    89905609.018          44.600          42.700          45.900          46.500  
R17  19727102.094    19727100.453    19727109.461    19727108.984   105563704.976   105563691.981    82105096.020    82105101.022          49.700          47.300          49.800          49.900  
R01  21677818.727    21677817.914                                   115880364.613   115880351.635                                          42.600          40.600                                  
E03  26500507.250    26500519.422    26500517.828    26500520.023   139261111.555   103993672.257   106706550.367   105350103.418          40.800          43.300          44.900          50.400  
E13  25484933.234    25484942.320    25484941.148    25484943.090   133924234.866   100008332.307   102617243.963   101312783.741          43.400          44.400          46.100          51.300  
E15  23470222.008    23470229.246    23470227.602    23470229.898   123336845.597    92102210.022    94504815.836    93303571.539          49.100          47.800          50.300          55.100  
E21  26021094.352    26021102.559    26021099.840    26021102.953   136741770.664   102112382.700   104776180.484   103444304.700          42.300          43.700          44.500          49.900  
E27  24674081.898    24674090.445    24674088.477    24674090.965   129663172.867    96826378.128    99352283.188    98089323.766          46.600          47.000          48.800          53.700  
E05  25222995.273    25223005.418    25223003.586    25223005.996   132547739.570    98980434.713   101562532.663   100271478.791          41.800          40.700          43.500          47.800  
E30  27166121.609    27166136.430    27166133.523    27166136.445   142758917.664   106605662.332   109386680.142   107996167.350          44.500          42.200          44.000          48.900  
C04  38448714.859    38448714.391   200212548.133   154817040.168          36.400          40.400  
C03  37434675.922    37434676.559   194932185.391   150733925.528          38.600          41.500  
C02  38907547.969    38907547.891   202601891.469   156664570.258          36.200          41.100  
C30  22434638.281                   116823043.127                          48.300                  
C29  21861826.172                   113840265.282                          48.400                  
C20  23259599.117                   121118834.945                          46.900                  
C13  38486377.305    38486385.176   200408665.606   154968679.226          40.600          41.700  
> 2025 04 10 07 08 45.0000000  0 30
G17  21197095.523                    21197102.766   111391482.440                    86798585.796          46.400                          45.200  
G11  22527845.852                    22527854.023   118384627.353                    92247794.121          43.400                          46.200  
G09  22762746.406                    22762757.969   119619044.071                    93209670.797          41.300                          44.800  
G19  19714959.219    19714963.074                   103602808.784    80729478.306                          47.900          41.900                  
G22  23084488.813    23084497.863                   121309798.495    94527149.706                          39.200          25.300                  
G03  23560482.320                    23560494.223   123811158.766                    96476278.291          42.000                          42.300  
G04  22960012.672                    22960022.262   120655679.922                    94017458.340          41.600                          43.200  
G06  20716068.023                    20716077.992   108863672.510                    84828877.188          47.800                          48.600  
G12  23274102.523                    23274110.941   122306248.991                    95303589.755          38.900                          38.800  
R24  22602698.672    22602697.031    22602709.176    22602708.555   120866771.896   120866762.926    94007478.487    94007484.484          41.700          40.400          43.600          44.900  
R18  20834274.664    20834273.473    20834282.293    20834282.273   111214796.187   111214761.188    86500370.318    86500374.322          46.200          44.700          47.400          46.000  
R03  22342988.211    22342987.305    22342999.941    22343000.047   119603776.974   119603762.963    93025162.533    93025168.535          42.000          41.600          43.300          43.200  
R02  20226925.750    20226924.781    20226934.004    20226933.840   107934749.501   107934739.490    83949242.613    83949248.618          47.800          47.000          48.000          48.600  
R16  21639856.852    21639856.980    21639866.215    21639866.156   115596230.114   115596215.113    89908166.963    89908173.966          45.300          44.500          46.000          45.900  
R17  19726900.273    19726899.457    19726907.672    19726907.098   105562625.557   105562612.555    82104256.463    82104261.466          48.800          47.300          49.500          50.500  
R01  21679692.086    21679691.273                                   115890375.188   115890362.185                                          41.800          40.400                                  
E03  26497744.125    26497757.078    26497754.547    26497757.156   139246592.229   103982829.896   106695425.171   105339119.643          41.700          44.300          45.600          50.700  
E13  25482800.656    25482809.445    25482808.367    25482810.105   133913026.380    99999962.349   102608655.657   101304304.608          44.500          44.800          46.700          51.800  
E15  23469927.633    23469935.027    23469933.523    23469935.703   123335299.059    92101055.141    94503630.820    93302401.586          48.600          47.700          49.400          55.100  
E21  26019418.227    26019427.281    26019423.906    26019427.285   136732965.331   102105807.289   104769433.533   103437643.517          41.600          43.000          43.500          48.700  
E27  24675035.547    24675043.871    24675042.371    24675044.645   129668184.741    96830120.738    99356123.433    98093115.194          45.900          47.000          48.200          53.800  
E05  25222188.172    25222198.441    25222196.613    25222198.836   132543497.620    98977267.042   101559282.354   100268269.803          41.200          41.500          42.800          47.600  
E30  27168576.898    27168591.168    27168588.820    27168591.422   142771818.901   106615296.313   109396565.449   108005926.990          44.600          41.900          43.500          48.100  
C04  38448139.242    38448138.859   200209550.721   154814722.360          36.500          41.400  
C03  37434119.953    37434119.883   194929289.534   150731686.230          39.600          40.700  
C02  38906968.508    38906968.590   202598873.399   156662236.448          36.000          41.600  
C30  22435523.328                   116827651.231                          47.900                  
C29  21860141.430                   113831493.109                          48.200                  
C20  23256637.094                   121103412.353                          47.000                  
C13  38484874.297    38484882.664   200400841.124   154962628.875          40.200          42.400  
> 2025 04 10 07 08 50.0000000  0 30
G17  21198233.461                    21198240.848   111397462.077                    86803245.244          46.100                          45.800  
G11  22525192.711                    22525201.156   118370685.021                    92236929.985          43.400                          45.600  
G09  22759843.094                    22759854.977   119603787.775                    93197782.824          40.500                          45.200  
G19  19714551.625    19714555.535                   103600667.718    80727809.940                          48.500          43.100                  
G22  23086945.820    23086954.543                   121322708.522    94537209.404                          41.600          27.700                  
G03  23563334.992                    23563346.504   123826149.523                    96487959.387          43.100                          41.400  
G04  22958552.406                    22958563.023   120648007.631                    94011479.946          41.400                          42.600  
G06  20714867.078                    20714876.883   108857359.096                    84823957.637          48.400                          49.100  
G12  23271771.023                    23271778.672   122293992.751                    95294039.440          38.500                          40.100  
R24  22604692.969    22604692.621    22604704.672    22604704.020   120877443.993   120877434.962    94015778.985    94015784.980          40.700          39.400          43.500          44.600  
R18  20831797.445    20831797.191    20831805.813    20831805.422   111201577.656   111201542.651    86490089.246    86490093.243          45.300          44.100          46.400          46.400  
R03  22338447.477    22338446.922    22338459.711    22338459.902   119579474.353   119579460.377    93006260.563    93006266.566          43.000          41.200          44.400          44.600  
R02  20225118.578    20225118.551    20225127.512    20225127.469   107925107.532   107925097.537    83941743.318    83941749.323          47.400          47.100          47.800          47.400  
R16  21640477.273    21640477.402    21640487.258    21640487.152   115599547.906   115599532.916    89910747.456    89910754.459          44.200          42.600          46.000          46.000  
R17  19726700.406    19726698.766    19726707.367    19726706.863   105561553.812   105561540.837    82103422.880    82103427.885          49.000          47.000          49.400          50.800  
R01  21681568.617    21681566.398                                   115900403.062   115900390.086                                          41.700          40.600                                  
E03  26494981.953    26494994.711    26494992.977    26494995.137   139232077.845   103971991.278   106684303.802   105328139.648          40.900          43.900          45.500          50.600  
E13  25480668.094    25480677.672    25480675.516    25480677.832   133901820.488    99991594.311   102600069.319   101295827.423          42.500          45.500          46.800          51.900  
E15  23469633.688    23469641.301    23469639.801    23469642.027   123333756.101    92099902.925    94502448.552    93301234.346          49.100          48.400          49.900          55.500  
E21  26017745.047    26017753.355    26017751.012    26017753.688   136724170.496   102099239.723   104762694.646   103430990.291          40.800          44.400          44.500          50.200  
E27  24675991.688    24675999.988    24675997.738    24676000.316   129673206.515    96833870.752    99359971.274    98096914.124          47.100          46.000          47.800          53.200  
E05  25221383.008    25221393.055    25221391.551    25221393.633   132539266.853    98974107.706   101556040.600   100265069.259          42.300          40.900          41.900          47.300  
E30  27171031.977    27171046.563    27171044.078    27171046.754   142784721.250   106624931.113   109406451.606   108015687.473          42.700          42.300          43.800          48.500  
C04  38447563.094    38447562.844   200206552.877   154812404.238          36.100          40.900  
C03  37433563.859    37433564.223   194926393.246   150729446.643          38.100          41.600  
C02  38906388.602    38906389.148   202595854.780   156659902.298          35.400          40.900  
C30  22436409.469                   116832265.300                          47.600                  
C29  21858457.984                   113822726.229                          48.700                  
C20  23253676.844                   121087998.916                          45.800                  
C13  38483372.859    38483380.305   200393019.063   154956580.364          41.300          40.800  
> 2025 04 10 07 08 55.0000000  0 30
G17  21199372.516                    21199381.008   111403452.184                    86807912.845          46.100                          45.600  
G11  22522540.172                    22522548.758   118356748.111                    92226070.071          42.900                          46.800  
G09  22756940.789                    22756953.809   119588541.135                    93185902.335          41.600                          44.600  
G19  19714147.570    19714151.465                   103598541.099    80726152.825                          48.800          43.700                  
G22  23089403.508    23089412.531                   121335624.422    94547273.732                          40.900          27.000                  
G03  23566188.102                    23566200.426   123841145.316                    96499644.408          42.000                          42.000  
G04  22957095.703                    22957105.430   120640350.104                    94005513.034          40.800                          43.400  
G06  20713667.484                    20713676.711   108851053.638                    84819044.307          48.300                          48.900  
G12  23269440.531                    23269449.867   122281751.970                    95284501.176          38.300                          40.300  
R24  22606689.406    22606688.941    22606701.574    22606701.102   120888120.730   120888111.721    94024083.085    94024089.089          40.500          39.800          44.200          45.600  
R18  20829323.250    20829321.355    20829330.426    20829329.445   111188364.074   111188329.068    86479812.035    86479816.039          46.300          45.000          46.800          47.200  
R03  22333908.922    22333908.016    22333920.922    22333920.934   119555178.164   119555164.184    92987363.588    92987369.592          43.600          41.800          44.200          44.500  
R02  20223315.945    20223314.859    20223323.918    20223323.941   107915487.961   107915477.957    83934261.428    83934267.439          47.900          47.500          47.700          48.100  
R16  21641102.625    21641101.934    21641111.766    21641111.934   115602886.813   115602871.800    89913344.376    89913351.395          44.000          42.700          45.500          46.400  
R17  19726501.805    19726500.520    19726508.961    19726508.512   105560490.929   105560477.935    82102596.188    82102601.192          49.300          47.400          49.700          50.500  
R01  21683447.867    21683445.293                                   115910449.643   115910436.633                                          42.200          40.000                                  
E03  26492221.203    26492233.816    26492231.660    26492234.063   139217569.428   103961157.124   106673186.999   105317164.170          42.400          43.300          45.500          50.100  
E13  25478535.539    25478545.543    25478543.855    25478545.832   133890618.258    99983229.037   102591485.817   101287353.036          42.100          45.300          46.400          51.700  
E15  23469341.172    23469348.402    23469347.043    23469349.094   123332217.768    92098754.170    94501269.830    93300070.608          48.900          48.500          49.900          55.500  
E21  26016073.141    26016081.633    26016079.570    26016082.102   136715387.063   102092680.673   104755964.477   103424345.683          41.300          43.900          44.600          50.100  
E27  24676949.070    24676957.711    24676955.367    24676958.031   129678239.252    96837628.951    99363827.512    98100721.335          47.000          45.900          48.800          53.600  
E05  25220580.539    25220590.121    25220588.668    25220590.742   132535048.240    98970957.449   101552808.153   100261877.908          42.000          40.400          42.600          47.200  
E30  27173487.609    27173502.039    27173500.023    27173502.492   142797625.810   106634567.574   109416339.463   108025449.624          41.900          42.000          43.600          48.300  
C04  38446987.570    38446987.699   200203555.710   154810086.644          36.100          39.900  
C03  37433007.594    37433008.219   194923497.527   150727207.487          39.400          41.700  
C02  38905809.398    38905810.023   202592836.631   156657568.461          36.100          40.900  
C30  22437296.867                   116836886.402                          47.900                  
C29  21856775.828                   113813965.719                          48.800                  
C20  23250718.633                   121072595.639                          44.700                  
C13  38481871.234    38481878.918   200385200.519   154950534.588          40.700          41.300  
> 2025 04 10 07 09  0.0000000  0 30
G17  21200514.813                    21200522.672   111409452.131                    86812588.125          45.800                          45.500  
G11  22519889.266                    22519897.969   118342815.873                    92215213.802          43.000                          46.300  
G09  22754042.063                    22754053.039   119573303.590                    93174028.962          40.600                          44.700  
G19  19713745.414    19713749.164                   103596428.234    80724506.441                          48.800          42.700                  
G22  23091861.984    23091871.195                   121348545.457    94557342.001                          41.700          27.600                  
G03  23569042.195                    23569054.777   123856145.479                    96511332.805          42.000                          42.000  
G04  22955641.578                    22955651.129   120632706.604                    93999557.072          41.300                          44.000  
G06  20712468.695                    20712478.246   108844755.385                    84814136.572          48.400                          49.100  
G12  23267115.555                    23267122.926   122269525.932                    95274974.401          39.200                          39.000  
R24  22608688.008    22608686.250    22608698.918    22608698.141   120898801.585   120898792.573    94032390.373    94032396.375          40.100          38.300          44.000          45.400  
R18  20826848.500    20826847.309    20826856.059    20826855.402   111175154.724   111175119.726    86469538.079    86469542.075          46.600          44.500          47.300          47.800  
R03  22329370.531    22329370.098    22329383.375    22329383.613   119530887.384   119530873.393    92968470.828    92968476.839          44.600          43.200          45.100          46.100  
R02  20221517.852    20221516.180    20221525.309    20221525.313   107905889.854   107905879.850    83926796.242    83926802.246          47.800          46.700          48.200          48.500  
R16  21641731.992    21641730.715    21641740.633    21641741.070   115606246.057   115606231.075    89915957.105    89915964.107          46.300          44.000          46.100          46.100  
R17  19726304.164    19726302.758    19726311.773    19726311.070   105559436.104   105559423.126    82101775.766    82101780.761          49.600          47.200          48.900          50.300  
R01  21685328.672    21685328.563                                   115920513.987   115920500.991                                          41.600          39.900                                  
E03  26489461.367    26489473.918    26489471.523    26489474.320   139203066.367   103950326.941   106662074.294   105306192.723          41.600          43.600          45.500          50.500  
E13  25476405.039    25476414.801    25476411.613    25476414.727   133879419.010    99974865.936   102582904.561   101278880.857          41.700          45.900          47.400          52.200  
E15  23469049.039    23469056.633    23469054.945    23469057.160   123330683.336    92097608.320    94500094.083    93298909.809          48.600          48.500          50.500          55.300  
E21  26014405.016    26014412.191    26014410.453    26014412.703   136706614.441   102086129.717   104749242.631   103417709.282          41.500          42.700          43.600          49.000  
E27  24677908.555    24677917.246    24677915.512    24677917.586   129683282.214    96841394.797    99367691.598    98104536.301          46.500          46.800          48.100          53.400  
E05  25219780.273    25219789.898    25219787.742    25219790.305   132530841.162    98967815.809   101549584.565   100258695.295          41.400          42.100          43.000          48.000  
E30  27175943.531    27175958.609    27175955.703    27175958.422   142810531.742   106644205.035   109426228.340   108035212.796          43.600          42.300          44.200          48.800  
C04  38446412.172    38446411.926   200200558.523   154807769.019          36.500          40.200  
C03  37432451.797    37432451.953   194920601.700   150724968.279          38.200          41.600  
C02  38905229.609    38905229.887   202589818.323   156655234.519          36.400          42.100  
C30  22438185.500                   116841513.822                          47.600                  
C29  21855094.375                   113805210.832                          48.500                  
C20  23247762.750                   121057201.871                          46.000                  
C13  38480370.383    38480378.180   200377384.791   154944490.942          42.500          41.300  
> 2025 04 10 07 09  5.0000000  0 30
G17  21201658.102                    21201665.770   111415461.556                    86817270.782          46.000                          45.100  
G11  22517239.688                    22517246.922   118328887.984                    92204360.903          43.300                          46.000  
G09  22751143.578                    22751155.617   119558074.666                    93162162.291          40.800                          43.800  
G19  19713345.031    19713349.641                   103594328.764    80722870.479                          48.300          43.000                  
G22  23094322.055    23094331.016                   121361471.249    94567414.014                          42.300          29.200                  
G03  23571898.328                    23571910.375   123871149.606                    96523024.312          42.400                          42.400  
G04  22954189.016                    22954199.371   120625076.895                    93993611.850          40.000                          43.000  
G06  20711271.656                    20711280.855   108838464.001                    84809234.194          48.700                          48.800  
G12  23264792.109                    23264799.832   122257314.262                    95265458.776          40.700                          39.900  
R24  22610685.516    22610684.348    22610697.160    22610696.980   120909486.025   120909477.019    94040700.485    94040706.489          40.800          39.300          43.900          45.400  
R18  20824374.563    20824373.957    20824382.945    20824382.137   111161949.188   111161914.175    86459267.103    86459271.107          46.500          45.100          47.300          48.200  
R03  22324834.219    22324832.961    22324846.055    22324846.512   119506601.760   119506587.767    92949582.094    92949588.103          43.200          42.600          45.300          45.600  
R02  20219722.281    20219721.898    20219730.551    20219730.824   107896313.011   107896303.021    83919347.581    83919353.586          47.600          47.100          48.000          48.100  
R16  21642364.117    21642363.543    21642372.828    21642373.293   115609625.441   115609610.474    89918585.504    89918592.515          45.800          43.600          46.100          46.900  
R17  19726108.789    19726107.621    19726116.160    19726115.719   105558388.952   105558375.965    82100961.316    82100966.313          49.500          47.300          49.200          51.300  
R01  21687215.000    21687213.719                                   115930595.735   115930582.777                                          40.500          39.600                                  
E03  26486702.727    26486715.418    26486712.793    26486715.516   139188568.297   103939500.510   106650965.432   105295225.080          41.600          44.200          45.800          51.000  
E13  25474274.711    25474283.723    25474281.660    25474284.078   133868222.339    99966504.815   102574325.321   101270410.674          42.800          45.200          47.100          52.000  
E15  23468757.594    23468765.152    23468763.605    23468765.793   123329152.436    92096465.120    94498921.065    93297751.701          48.500          47.900          50.100          55.400  
E21  26012737.211    26012744.777    26012743.418    26012745.465   136697852.269   102079586.521   104742528.738   103411080.737          41.700          43.000          44.400          49.400  
E27  24678870.633    24678878.961    24678876.805    24678879.102   129688335.029    96845168.004    99371563.230    98108358.725          46.400          46.600          48.600          53.500  
E05  25218981.133    25218991.016    25218989.516    25218991.773   132526645.268    98964682.513   101546369.514   100255521.118          40.900          41.700          42.400          47.700  
E30  27178399.531    27178414.414    27178412.258    27178414.750   142823438.851   106653843.389   109436118.134   108044976.870          43.100          42.600          44.900          49.500  
C04  38445836.531    38445835.973   200197560.930   154805451.096          36.400          40.500  
C03  37431895.664    37431896.191   194917705.431   150722728.699          38.100          41.700  
C02  38904649.586    38904650.332   202586799.436   156652900.114          35.800          40.800  
C30  22439075.188                   116846147.226                          47.500                  
C29  21853413.969                   113796461.276                          48.600                  
C20  23244808.602                   121041817.250                          46.400                  
C13  38478869.859    38478877.605   200369571.463   154938449.212          42.000          39.900  
> 2025 04 10 07 09 10.0000000  0 30
G17  21202803.477                    21202811.184   111421480.264                    86821960.667          46.200                          45.700  
G11  22514589.289                    22514597.855   118314964.339                    92193511.316          43.000                          45.900  
G09  22748248.047                    22748259.340   119542854.325                    93150302.297          42.000                          43.900  
G19  19712948.602    19712952.777                   103592242.549    80721244.859                          48.800          43.200                  
G22  23096782.258    23096791.824                   121374401.655    94577489.655                          41.200          28.900                  
G03  23574754.734                    23574766.043   123886157.504                    96534718.770          42.300                          42.500  
G04  22952739.609                    22952750.180   120617460.691                    93987677.158          40.400                          43.200  
G06  20710075.352                    20710085.117   108832179.360                    84804337.076          48.000                          48.200  
G12  23262470.836                    23262478.809   122245116.908                    95255954.347          40.400                          40.200  
R24  22612683.828    22612682.660    22612695.992    22612695.195   120920173.891   120920164.929    94049013.213    94049019.207          41.800          39.800          43.000          43.200  
R18  20821901.320    20821900.832    20821909.672    20821909.176   111148747.377   111148712.386    86448999.056    86449003.052          46.700          44.900          47.000          48.000  
R03  22320298.148    22320297.594    22320310.289    22320310.559   119482321.096   119482307.088    92930697.199    92930703.205          43.400          42.200          45.200          46.400  
R02  20217932.055    20217931.320    20217939.852    20217939.969   107886757.185   107886747.183    83911915.296    83911921.308          46.900          46.600          48.200          47.600  
R16  21643000.305    21643000.199    21643009.582    21643010.309   115613024.607   115613009.617    89921229.310    89921236.306          45.300          44.100          46.700          47.400  
R17  19725915.125    19725913.133    19725921.113    19725920.531   105557349.325   105557336.323    82100152.701    82100157.704          49.100          47.800          49.300          50.500  
R01  21689103.398    21689102.586                                   115940694.815   115940681.820                                          41.700          39.700                                  
E03  26483944.531    26483957.633    26483954.582    26483957.531   139174075.064   103928677.658   106639860.243   105284261.060          40.700          44.500          45.700          51.000  
E13  25472144.766    25472153.570    25472151.508    25472154.020   133857028.090    99958145.477   102565747.907   101261942.300          43.200          45.900          47.600          52.400  
E15  23468467.023    23468474.488    23468472.848    23468475.078   123327624.955    92095324.471    94497750.652    93296596.169          47.800          47.700          49.300          55.300  
E21  26011071.508    26011079.523    26011077.836    26011080.086   136689100.383   102073051.019   104735822.750   103404459.992          41.600          43.000          44.400          49.300  
E27  24679834.172    24679842.148    24679840.508    24679842.555   129693397.605    96848948.476    99375442.338    98112188.518          47.000          46.800          48.600          53.700  
E05  25218185.258    25218194.570    25218193.398    25218195.523   132522460.330    98961557.404   101543162.878   100252355.246          41.600          40.000          42.800          47.300  
E30  27180856.297    27180871.074    27180868.496    27180871.125   142836346.846   106663482.392   109446008.598   108054741.600          43.100          41.600          44.000          48.600  
C04  38445260.719    38445260.742   200194562.818   154803132.767          36.200          40.900  
C03  37431339.922    37431339.793   194914808.542   150720488.631          38.800          41.300  
C02  38904069.367    38904070.781   202583779.773   156650565.115          35.700          40.500  
C30  22439966.055                   116850786.463                          47.600                  
C29  21851734.523                   113787716.880                          48.400                  
C20  23241855.406                   121026441.673                          46.100                  
C13  38477370.375    38477377.605   200361760.473   154932409.276          43.200          40.800  
> 2025 04 10 07 09 15.0000000  0 30
G17  21203950.836                    21203958.707   111427508.896                    86826658.285          46.400                          45.900  
G11  22511940.227                    22511949.285   118301045.417                    92182665.405          42.500                          45.600  
G09  22745353.305                    22745364.547   119527643.066                    93138449.395          41.600                          45.100  
G19  19712554.305    19712558.207                   103590170.178    80719630.020                          49.100          43.000                  
G22  23099243.688    23099253.258                   121387337.269    94587569.294                          39.900          28.400                  
G03  23577611.031                    23577623.176   123901169.842                    96546416.677          43.200                          42.300  
G04  22951293.180                    22951303.676   120609858.656                    93981753.508          41.300                          42.900  
G06  20708881.063                    20708890.586   108825902.058                    84799445.681          47.900                          48.900  
G12  23260152.578                    23260160.801   122232934.411                    95246461.494          40.200                          40.000  
R24  22614682.570    22614682.340    22614694.191    22614694.426   120930865.990   120930857.026    94057329.292    94057335.281          39.900          39.600          42.300          43.300  
R18  20819429.484    20819427.941    20819436.719    20819435.980   111135549.856   111135514.844    86438734.308    86438738.312          46.400          44.000          47.700          47.400  
R03  22315762.414    22315762.215    22315775.555    22315775.945   119458046.344   119458032.363    92911816.923    92911822.934          42.500          41.400          44.300          45.000  
R02  20216145.648    20216144.211    20216153.246    20216153.488   107877222.968   107877212.973    83904499.799    83904505.804          47.200          46.400          48.000          47.600  
R16  21643642.203    21643640.223    21643650.016    21643649.348   115616444.222   115616429.232    89923888.999    89923896.009          45.300          43.700          46.500          46.800  
R17  19725721.586    19725720.535    19725728.734    19725728.961   105556317.806   105556304.796    82099350.420    82099355.415          49.400          47.500          49.400          50.100  
R01  21690996.664    21690995.031                                   115950811.640   115950798.653                                          42.300          40.000                                  
E03  26481187.258    26481200.207    26481198.004    26481200.445   139159587.301   103917858.912   106628759.267   105273301.198          40.800          44.500          46.200          51.300  
E13  25470014.852    25470023.816    25470021.613    25470024.219   133845836.869    99949788.411   102557172.821   101253476.226          42.700          45.400          47.100          52.100  
E15  23468177.313    23468184.957    23468183.035    23468185.375   123326101.446    92094186.784    94496583.290    93295443.643          48.700          48.000          50.100          55.300  
E21  26009408.383    26009416.141    26009414.359    26009416.730   136680359.365   102066523.618   104729125.071   103397847.453          41.200          42.500          44.800          49.400  
E27  24680799.289    24680807.566    24680805.457    24680807.992   129698470.459    96852736.636    99379329.319    98116026.081          46.900          47.000          48.600          53.700  
E05  25217391.219    25217400.375    25217398.641    25217401.234   132518287.003    98958440.956   101539965.133   100249198.151          43.800          41.200          42.400          47.400  
E30  27183312.852    27183327.848    27183325.270    27183327.879   142849256.391   106673122.586   109455900.283   108064507.543          43.100          43.600          45.200          49.700  
C04  38444685.656    38444684.816   200191564.708   154800814.469          37.200          40.500  
C03  37430783.430    37430783.539   194911911.687   150718248.580          39.000          41.100  
C02  38903490.344    38903490.066   202580759.976   156648230.025          35.700          39.900  
C30  22440858.508                   116855432.120                          48.100                  
C29  21850056.930                   113778978.220                          48.800                  
C20  23238904.773                   121011075.728                          46.200                  
C13  38475869.953    38475878.070   200353952.330   154926371.532          40.900          41.400  
> 2025 04 10 07 09 20.0000000  0 30
G17  21205100.234                    21205107.645   111433547.690                    86831363.831          46.700                          46.000  
G11  22509292.711                    22509301.148   118287131.613                    92171823.479          43.600                          45.000  
G09  22742459.703                    22742471.953   119512441.260                    93126603.877          41.300                          44.900  
G19  19712162.539    19712166.613                   103588111.978    80718026.223                          48.900          42.700                  
G22  23101706.094    23101715.828                   121400278.397    94597653.291                          40.900          27.400                  
G03  23580469.180                    23580480.855   123916186.851                    96558118.193          43.000                          42.600  
G04  22949848.805                    22949859.191   120602271.106                    93975841.163          40.300                          42.500  
G06  20707688.164                    20707697.391   108819632.348                    84794560.186          47.700                          48.600  
G12  23257837.578                    23257844.949   122220767.139                    95236980.515          42.100                          41.100  
R24  22616684.055    22616683.355    22616694.930    22616694.922   120941562.514   120941553.515    94065648.771    94065654.767          41.100          40.600          42.200          44.200  
R18  20816958.320    20816956.895    20816965.477    20816964.652   111122356.994   111122321.981    86428473.196    86428477.201          46.000          44.700          47.900          48.200  
R03  22311229.438    22311228.883    22311242.176    22311242.777   119433777.513   119433763.529    92892941.227    92892947.223          44.600          42.600          44.800          46.900  
R02  20214363.078    20214361.641    20214370.734    20214370.727   107867710.781   107867700.756    83897101.438    83897107.449          47.800          46.700          47.800          48.100  
R16  21644285.234    21644284.074    21644294.059    21644294.121   115619884.662   115619869.659    89926564.886    89926571.882          44.500          42.500          46.000          47.100  
R17  19725530.766    19725528.891    19725537.082    19725537.227   105555294.854   105555281.867    82098554.784    82098559.787          49.200          47.100          48.600          50.000  
R01  21692894.094    21692891.992                                   115960946.690   115960933.695                                          41.400          39.200                                  
E03  26478431.805    26478444.602    26478442.352    26478444.773   139145105.256   103907044.453   106617662.689   105262345.683          39.100          44.000          45.700          50.600  
E13  25467885.273    25467894.949    25467892.559    25467895.199   133834648.961    99941433.818   102548600.287   101245012.664          43.500          45.200          46.100          51.400  
E15  23467888.031    23467895.402    23467893.762    23467896.063   123324582.290    92093052.352    94495419.258    93294294.410          48.200          48.100          49.400          55.400  
E21  26007746.828    26007754.188    26007753.203    26007755.441   136671629.580   102060004.620   104722436.002   103391243.419          43.000          43.500          45.100          50.100  
E27  24681766.508    24681774.691    24681772.910    24681775.457   129703553.971    96856532.753    99383224.472    98119871.721          46.900          47.200          48.900          53.900  
E05  25216598.758    25216608.977    25216606.961    25216609.621   132514125.542    98955333.376   101536776.511   100246050.049          41.700          41.600          43.200          47.700  
E30  27185770.156    27185784.688    27185782.438    27185784.832   142862167.754   106682764.136   109465793.370   108074274.858          44.100          43.100          43.700          48.900  
C04  38444109.039    38444109.129   200188566.968   154798496.411          36.500          40.400  
C03  37430226.352    37430226.914   194909015.089   150716008.772          38.300          41.700  
C02  38902910.375    38902910.805   202577740.455   156645895.122          35.600          40.900  
C30  22441751.922                   116860084.515                          48.200                  
C29  21848380.055                   113770245.663                          48.800                  
C20  23235956.117                   120995719.680                          47.500                  
C13  38474371.484    38474379.172   200346147.391   154920336.270          40.700          41.400  
> 2025 04 10 07 09 25.0000000  0 30
G17  21206251.438                    21206259.289   111439596.544                    86836077.215          46.300                          46.100  
G11  22506646.063                    22506654.898   118273222.707                    92160985.406          43.200                          45.500  
G09  22739568.820                    22739581.414   119497248.771                    93114765.590          40.800                          44.700  
G19  19711773.516    19711777.336                   103586067.710    80716433.287                          49.200          43.000                  
G22  23104169.945    23104179.754                   121413224.886    94607741.398                          40.800          26.200                  
G03  23583327.070                    23583338.988   123931208.378                    96569823.265          42.300                          41.400  
G04  22948407.266                    22948418.191   120594697.860                    93969939.944          40.200                          43.200  
G06  20706496.461                    20706505.695   108813370.118                    84789680.532          47.900                          48.600  
G12  23255523.773                    23255532.777   122208614.924                    95227511.267          40.800                          41.700  
R24  22618686.180    22618684.777    22618695.602    22618695.668   120952263.244   120952254.257    94073971.528    94073977.540          42.000          40.900          41.900          43.200  
R18  20814486.344    20814486.441    20814495.609    20814494.801   111109168.579   111109133.589    86418215.564    86418219.568          45.200          43.900          48.100          48.800  
R03  22306697.945    22306696.219    22306709.434    22306709.703   119409514.385   119409500.389    92874069.975    92874075.971          45.000          43.200          46.000          47.000  
R02  20212583.945    20212583.801    20212592.246    20212592.129   107858220.470   107858210.467    83889720.086    83889726.091          48.100          46.800          47.700          48.600  
R16  21644933.102    21644932.645    21644942.410    21644941.680   115623345.557   115623330.567    89929256.704    89929263.700          44.500          43.500          46.400          47.500  
R17  19725340.188    19725339.371    19725347.879    19725347.875   105554280.151   105554267.163    82097765.571    82097770.574          49.100          47.400          49.000          50.400  
R01  21694792.086    21694791.156                                   115971099.629   115971086.648                                          41.100          39.900                                  
E03  26475676.695    26475689.672    26475686.902    26475689.891   139130628.857   103896234.188   106606570.408   105251394.407          39.700          43.900          44.200          50.200  
E13  25465757.281    25465766.059    25465764.793    25465766.824   133823464.288    99933081.641   102540030.229   101236551.542          43.600          44.900          46.600          51.900  
E15  23467599.656    23467607.410    23467605.629    23467607.906   123323067.188    92091920.940    94494258.335    93293148.246          48.800          48.000          49.500          55.400  
E21  26006088.008    26006095.363    26006093.676    26006096.289   136662910.800   102053493.825   104715755.377   103384647.709          43.700          43.600          45.700          50.500  
E27  24682735.789    24682744.172    24682742.246    24682744.754   129708647.880    96860336.627    99387127.580    98123725.211          45.800          47.200          48.700          53.900  
E05  25215809.203    25215819.055    25215817.414    25215819.820   132509975.866    98952234.599   101533596.887   100242910.851          41.500          41.300          42.700          47.600  
E30  27188227.586    27188242.113    27188239.395    27188242.199   142875080.764   106692406.886   109475687.663   108084043.380          43.700          42.200          43.000          48.400  
C04  38443533.234    38443533.207   200185569.352   154796178.466          36.300          40.400  
C03  37429670.383    37429670.711   194906118.600   150713769.028          38.400          42.000  
C02  38902330.852    38902330.668   202574720.911   156643560.211          35.900          40.400  
C30  22442646.266                   116864743.434                          47.900                  
C29  21846703.563                   113761518.971                          48.500                  
C20  23233008.516                   120980373.418                          46.900                  
C13  38472873.563    38472880.621   200338345.499   154914303.367          40.500          40.900  
> 2025 04 10 07 09 30.0000000  0 30
G17  21207404.727                    21207412.012   111445655.345                    86840798.354          46.500                          46.400  
G11  22503999.922                    22504008.359   118259318.703                    92150151.104          42.600                          45.100  
G09  22736679.727                    22736692.074   119482065.485                    93102934.512          40.600                          44.700  
G19  19711387.328    19711391.160                   103584037.402    80714851.229                          49.500          42.100                  
G22  23106635.359    23106644.297                   121426176.603    94617833.621                          40.800          26.700                  
G03  23586186.711                    23586198.930   123946234.272                    96581531.714          42.100                          41.400  
G04  22946969.602                    22946980.051   120587138.896                    93964049.876          40.600                          42.300  
G06  20705306.289                    20705315.570   108807115.235                    84784806.601          48.000                          48.700  
G12  23253214.586                    23253222.813   122196477.595                    95218053.628          41.400                          41.200  
R24  22620687.055    22620686.238    22620697.605    22620697.902   120962968.102   120962959.122    94082297.534    94082303.554          42.800          40.000          41.300          43.000  
R18  20812017.484    20812016.527    20812025.574    20812025.086   111095984.562   111095949.556    86407961.315    86407965.319          47.000          44.800          48.000          48.400  
R03  22302166.531    22302165.391    22302178.344    22302178.727   119385257.102   119385243.104    92855203.283    92855209.281          43.900          42.400          45.600          46.700  
R02  20210809.688    20210809.543    20210818.012    20210818.141   107848751.854   107848741.857    83882355.603    83882361.606          48.400          47.200          48.100          48.400  
R16  21645584.789    21645583.863    21645593.973    21645593.777   115626826.979   115626811.983    89931964.453    89931971.448          45.300          43.700          46.400          46.700  
R17  19725153.609    19725152.324    19725160.496    19725160.176   105553273.648   105553260.653    82096982.727    82096987.716          49.500          47.400          49.200          50.000  
R01  21696694.625    21696694.047                                   115981270.345   115981257.329                                          40.600          39.900                                  
E03  26472923.000    26472936.215    26472933.215    26472936.000   139116157.924   103885428.023   106595482.328   105240447.285          40.200          43.700          45.600          50.300  
E13  25463629.734    25463638.441    25463637.266    25463639.188   133812282.657    99924731.737   102531462.492   101228092.720          43.700          45.100          46.300          51.800  
E15  23467311.969    23467319.785    23467318.004    23467320.344   123321556.182    92090792.592    94493100.551    93292005.174          48.000          48.200          50.300          55.400  
E21  26004430.820    26004438.371    26004436.637    26004439.297   136654202.947   102046991.217   104709083.124   103378060.275          44.200          43.600          44.800          50.100  
E27  24683707.469    24683714.898    24683713.629    24683715.914   129713752.156    96864148.257    99391038.635    98127586.553          46.200          46.400          48.600          53.800  
E05  25215022.086    25215032.215    25215030.387    25215032.270   132505837.770    98949144.495   101530426.149   100239780.431          41.700          41.200          43.100          47.600  
E30  27190685.109    27190699.516    27190697.078    27190699.855   142887995.271   106702050.754   109485583.127   108093813.049          44.200          43.200          44.000          49.300  
C04  38442957.656    38442957.828   200182571.934   154793860.667          36.400          40.500  
C03  37429113.984    37429114.926   194903222.154   150711529.311          38.800          42.500  
C02  38901750.898    38901750.547   202571701.293   156641225.256          36.800          41.100  
C30  22443542.094                   116869408.832                          47.000                  
C29  21845029.102                   113752798.099                          48.400                  
C20  23230063.867                   120965036.860                          47.100                  
C13  38471375.742    38471382.832   200330546.520   154908272.708          39.900          40.900  
> 2025 04 10 07 09 35.0000000  0 30
G17  21208559.234                    21208566.523   111451723.777                    86845526.982          46.400                          45.800  
G11  22501355.039                    22501363.723   118245419.214                    92139320.354          43.500                          45.900  
G09  22733791.758                    22733804.609   119466891.179                    93091110.416          40.700                          45.500  
G19  19711003.688    19711007.371                   103582020.702    80713279.768                          48.600          42.800                  
G22  23109100.391    23109109.895                   121439133.185    94627929.636                          41.300          27.500                  
G03  23589046.219                    23589058.293   123961264.316                    96593243.409          41.100                          41.700  
G04  22945533.375                    22945543.371   120579593.915                    93958170.661          40.800                          42.700  
G06  20704117.203                    20704126.801   108800867.445                    84779938.183          48.200                          48.300  
G12  23250907.734                    23250916.477   122184354.934                    95208607.409          40.900                          41.700  
R24  22622690.789    22622688.797    22622699.680    22622700.246   120973676.844   120973667.850    94090626.549    94090632.583          43.600          40.900          42.400          43.500  
R18  20809547.766    20809546.926    20809556.309    20809555.656   111082804.610   111082769.590    86397710.255    86397714.252          46.300          44.900          48.300          48.600  
R03  22297635.258    22297634.941    22297647.668    22297648.234   119361005.461   119360991.455    92836340.972    92836346.973          43.700          42.300          46.400          46.800  
R02  20209039.273    20209038.422    20209046.992    20209047.121   107839304.651   107839294.647    83875007.785    83875013.790          48.200          47.000          47.900          48.200  
R16  21646240.125    21646239.316    21646249.563    21646249.426   115630328.604   115630313.606    89934687.928    89934694.938          44.700          42.900          46.400          46.600  
R17  19724965.367    19724964.551    19724973.398    19724972.949   105552275.111   105552262.118    82096206.097    82096211.100          48.900          47.200          49.400          50.000  
R01  21698601.523    21698599.891                                   115991458.682   115991445.686                                          40.900          40.300                                  
E03  26470170.500    26470183.359    26470180.219    26470183.367   139101692.236   103874625.766   106584398.277   105229504.127          40.800          43.500          44.900          50.000  
E13  25461501.656    25461510.762    25461509.727    25461511.762   133801103.833    99916383.918   102522896.903   101219636.016          43.200          44.900          46.500          51.600  
E15  23467025.367    23467032.957    23467031.129    23467033.480   123320048.904    92089667.021    94491945.621    93290864.928          48.200          48.300          49.800          55.500  
E21  26002775.602    26002783.719    26002781.605    26002784.328   136645505.796   102040496.589   104702419.068   103371480.935          43.200          43.700          45.600          50.300  
E27  24684680.500    24684688.367    24684687.289    24684689.262   129718866.485    96867967.390    99394957.394    98131455.499          46.900          47.300          49.200          54.100  
E05  25214236.438    25214247.059    25214244.574    25214246.938   132501711.071    98946062.864   101527264.144   100236658.609          41.100          41.300          42.900          47.600  
E30  27193142.938    27193157.590    27193155.246    27193157.746   142900911.052   106711695.604   109495479.588   108103583.709          44.000          43.300          44.100          49.200  
C04  38442382.508    38442381.969   200179574.212   154791542.646          36.600          40.000  
C03  37428558.258    37428558.281   194900325.481   150709289.417          39.000          41.700  
C02  38901170.469    38901170.906   202568681.316   156638890.040          35.500          40.600  
C30  22444439.680                   116874080.428                          47.800                  
C29  21843355.445                   113744082.752                          48.500                  
C20  23227119.922                   120949709.721                          47.200                  
C13  38469878.289    38469885.801   200322750.142   154902244.062          40.400          40.900  
> 2025 04 10 07 09 40.0000000  0 30
G17  21209715.961                    21209723.418   111457801.732                    86850263.061          46.800                          46.200  
G11  22498711.266                    22498719.473   118231524.156                    92128493.032          44.000                          45.900  
G09  22730905.945                    22730918.039   119451725.764                    93079293.266          41.000                          45.000  
G19  19710622.375    19710626.129                   103580017.450    80711718.790                          48.400          42.700                  
G22  23111567.008    23111576.410                   121452094.568    94638029.384                          40.600          27.500                  
G03  23591907.172                    23591919.664   123976298.212                    96604958.117          40.800                          41.000  
G04  22944100.375                    22944110.020   120572062.697                    93952302.202          40.700                          43.000  
G06  20702929.375                    20702939.434   108794626.592                    84775075.182          48.400                          48.400  
G12  23248604.219                    23248611.961   122172246.789                    95199172.489          41.700                          41.400  
R24  22624693.461    22624692.410    22624703.262    22624703.438   120984389.334   120984380.329    94098958.438    94098964.440          42.500          41.500          42.600          43.700  
R18  20807080.039    20807079.082    20807088.301    20807087.348   111069628.519   111069593.521    86387462.197    86387466.194          46.100          44.200          47.700          49.000  
R03  22293105.492    22293105.293    22293118.004    22293118.160   119336758.985   119336744.969    92817482.682    92817488.678          42.300          41.400          45.600          46.800  
R02  20207273.805    20207272.133    20207281.141    20207281.098   107829878.847   107829868.843    83867676.612    83867682.617          48.400          47.600          47.700          48.300  
R16  21646898.891    21646899.137    21646908.711    21646908.758   115633850.166   115633835.183    89937426.915    89937433.926          44.700          42.500          46.600          46.500  
R17  19724780.648    19724779.832    19724788.281    19724787.902   105551284.332   105551271.329    82095435.487    82095440.499          49.500          47.500          49.300          50.300  
R01  21700509.625    21700509.164                                   116001664.305   116001651.337                                          40.800          40.000                                  
E03  26467417.906    26467431.301    26467428.254    26467431.453   139087231.658   103863827.313   106573318.116   105218564.819          39.300          43.800          44.300          50.100  
E13  25459374.914    25459384.352    25459383.180    25459385.203   133789927.646    99908038.072   102514333.348   101211181.313          43.200          44.800          47.100          51.700  
E15  23466739.406    23466746.727    23466744.945    23466747.281   123318545.231    92088544.141    94490793.450    93289727.406          48.000          48.300          50.000          55.400  
E21  26001122.414    26001130.840    26001128.590    26001131.285   136636819.149   102034009.808   104695763.071   103364909.550          43.200          43.500          44.800          50.100  
E27  24685655.867    24685663.523    24685662.211    24685664.266   129723990.699    96871793.898    99398883.733    98135331.925          46.900          46.800          48.900          53.900  
E05  25213452.820    25213464.367    25213461.602    25213463.816   132497595.583    98942989.622   101524110.732   100233545.286          40.500          41.900          42.300          48.000  
E30  27195600.836    27195615.594    27195612.828    27195615.688   142913828.003   106721341.275   109505376.892   108113355.188          44.100          42.600          44.100          49.100  
C04  38441806.727    38441805.824   200176576.205   154789224.409          36.900          40.500  
C03  37428001.367    37428001.824   194897428.381   150707049.181          38.600          42.200  
C02  38900590.125    38900590.184   202565660.836   156636554.393          35.700          40.800  
C30  22445337.609                   116878758.029                          47.200                  
C29  21841682.523                   113735372.823                          48.400                  
C20  23224178.172                   120934391.880                          47.200                  
C13  38468381.219    38468389.043   200314956.333   154896217.381          40.500          41.400  
> 2025 04 10 07 09 45.0000000  0 30
G17  21210874.391                    21210881.535   111463888.518                    86855006.001          47.100                          45.900  
G11  22496067.945                    22496075.754   118217632.769                    92117668.596          43.300                          46.000  
G09  22728022.125                    22728033.941   119436568.396                    93067482.345          41.700                          45.400  
G19  19710243.516    19710247.586                   103578026.987    80710167.778                          48.300          42.800                  
G22  23114034.391    23114044.055                   121465059.950    94648132.233                          40.100          27.400                  
G03  23594769.195                    23594780.949   123991335.400                    96616675.385          42.000                          41.800  
G04  22942670.055                    22942679.371   120564544.618                    93946443.977          41.700                          42.000  
G06  20701742.758                    20701752.707   108788391.914                    84770216.993          47.800                          48.900  
G12  23246302.164                    23246310.188   122160152.513                    95189748.401          41.400                          41.900  
R24  22626697.789    22626696.387    22626707.434    22626707.512   120995104.744   120995095.731    94107292.634    94107298.625          41.300          41.400          43.300          44.500  
R18  20804612.219    20804611.848    20804620.555    20804619.559   111056455.714   111056420.700    86377216.681    86377220.685          46.000          44.500          48.100          48.600  
R03  22288577.016    22288575.992    22288588.617    22288589.148   119312517.208   119312503.222    92798628.032    92798634.028          42.600          42.100          46.200          46.700  
R02  20205510.516    20205509.078    20205518.813    20205518.422   107820473.604   107820463.594    83860361.430    83860367.441          47.800          46.700          47.800          48.700  
R16  21647562.656    21647561.730    21647570.469    21647570.895   115637390.983   115637375.988    89940180.863    89940187.867          44.700          43.400          45.700          46.600  
R17  19724596.867    19724595.816    19724604.445    19724603.594   105550300.493   105550287.506    82094670.279    82094675.289          49.300          47.500          49.400          49.900  
R01  21702421.492    21702420.914                                   116011886.517   116011873.561                                          40.300          38.900                                  
E03  26464666.914    26464680.195    26464677.711    26464680.547   139072775.453   103853032.123   106562241.313   105207628.826          39.700          43.300          45.200          50.100  
E13  25457248.586    25457257.938    25457256.531    25457258.684   133778753.370    99899693.671   102505771.262   101202728.075          43.100          44.900          46.800          51.900  
E15  23466453.531    23466461.180    23466459.445    23466461.762   123317044.404    92087423.395    94489643.470    93288592.041          48.500          48.100          50.100          55.400  
E21  25999471.719    25999480.043    25999477.230    25999480.168   136628142.335   102027530.370   104689114.601   103358345.591          43.400          44.200          44.900          50.200  
E27  24686632.648    24686640.754    24686639.066    24686641.195   129729124.075    96875627.266    99402817.096    98139215.284          47.300          47.100          48.500          53.800  
E05  25212672.125    25212682.859    25212680.984    25212682.488   132493490.570    98939924.201   101520965.333   100230439.872          41.200          42.100          43.100          48.100  
E30  27198058.914    27198073.633    27198070.914    27198073.746   142926745.237   106730987.207   109515274.471   108123126.944          43.300          43.000          44.800          49.500  
C04  38441230.688    38441230.629   200173577.146   154786905.351          36.900          39.900  
C03  37427444.977    37427445.578   194894530.196   150704808.136          39.000          41.200  
C02  38900010.156    38900010.145   202562639.102   156634217.805          35.100          41.100  
C30  22446237.523                   116883440.981                          47.600                  
C29  21840010.914                   113726667.576                          48.000                  
C20  23221238.359                   120919082.586                          47.300                  
C13  38466884.820    38466892.809   200307164.305   154890192.108          41.000          41.000  
> 2025 04 10 07 09 50.0000000  0 30
G17  21212033.898                    21212041.637   111469985.068                    86859756.556          46.100                          46.000  
G11  22493424.742                    22493433.926   118203746.117                    92106847.832          42.900                          45.500  
G09  22725139.672                    22725151.254   119421420.233                    93055678.603          42.100                          45.100  
G19  19709867.469    19709871.465                   103576050.291    80708627.489                          48.100          42.700                  
G22  23116501.664    23116511.719                   121478030.376    94658239.016                          40.000          26.500                  
G03  23597630.938                    23597643.461   124006376.770                    96628395.911          41.100                          40.500  
G04  22941242.578                    22941251.766   120557040.670                    93940596.747          41.300                          41.400  
G06  20700557.711                    20700567.656   108782164.464                    84765364.438          47.300                          49.300  
G12  23244001.938                    23244011.254   122148073.003                    95180335.798          39.800                          40.800  
R24  22628700.758    22628700.059    22628712.371    22628712.129   121005824.112   121005815.138    94115629.891    94115635.887          42.100          40.500          43.700          44.500  
R18  20802145.789    20802144.129    20802152.633    20802152.102   111043287.147   111043252.142    86366974.464    86366978.461          45.800          45.000          47.900          47.700  
R03  22284049.891    22284048.984    22284061.699    22284062.066   119288281.067   119288267.067    92779777.760    92779783.763          43.600          42.600          46.300          47.100  
R02  20203752.617    20203750.711    20203759.824    20203759.984   107811090.030   107811080.027    83853063.113    83853069.118          48.300          47.200          47.900          49.300  
R16  21648229.594    21648228.668    21648237.320    21648237.367   115640952.110   115640937.114    89942950.615    89942957.618          45.500          44.200          45.600          46.400  
R17  19724414.578    19724414.113    19724422.051    19724421.938   105549324.695   105549311.709    82093911.322    82093916.332          49.200          47.400          49.300          50.100  
R01  21704337.344    21704335.359                                   116022126.541   116022113.554                                          41.300          39.000                                  
E03  26461917.078    26461930.152    26461927.711    26461930.594   139058324.634   103842240.993   106551168.653   105196696.933          38.600          43.200          44.200          49.700  
E13  25455123.383    25455132.270    25455130.395    25455132.848   133767582.060    99891351.459   102497211.423   101194277.052          43.100          45.100          46.600          51.800  
E15  23466168.836    23466176.473    23466174.410    23466176.883   123315547.483    92086305.568    94488496.475    93287459.628          48.000          48.200          49.700          55.400  
E21  25997822.461    25997830.840    25997827.508    25997830.953   136619476.276   102021058.982   104682474.395   103351789.801          43.600          44.200          44.700          50.100  
E27  24687611.219    24687619.516    24687617.781    24687619.922   129734267.649    96879468.232    99406758.258    98143106.351          47.300          47.400          48.700          53.700  
E05  25211893.352    25211904.188    25211901.934    25211903.699   132489397.099    98936867.407   101517828.799   100227343.213          40.000          42.300          43.100          48.000  
E30  27200517.320    27200532.164    27200529.160    27200532.258   142939663.872   106740634.122   109525173.049   108132899.698          43.900          43.400          44.400          49.500  
C04  38440654.680    38440654.078   200170577.995   154784586.213          36.000          40.500  
C03  37426888.328    37426888.504   194891631.903   150702566.977          38.700          41.400  
C02  38899430.031    38899429.707   202559617.158   156631881.047          36.100          40.500  
C30  22447137.594                   116888130.231                          47.700                  
C29  21838340.078                   113717968.024                          49.100                  
C20  23218299.383                   120903782.902                          46.900                  
C13  38465388.555    38465396.926   200299375.079   154884168.989          40.500          40.900  
> 2025 04 10 07 09 55.0000000  0 30
G17  21213195.688                    21213203.434   111476090.771                    86864514.248          46.300                          45.700  
G11  22490782.961                    22490791.727   118189863.495                    92096030.219          42.100                          45.000  
G09  22722257.945                    22722270.125   119406280.555                    93043881.475          41.800                          45.000  
G19  19709493.727    19709497.566                   103574086.772    80707097.476                          48.000          42.400                  
G22  23118971.000    23118980.973                   121491005.191    94668349.222                          40.000          27.000                  
G03  23600493.828                    23600505.633   124021421.736                    96640119.232          41.000                          40.700  
G04  22939816.797                    22939826.211   120549550.238                    93934760.025          40.900                          42.200  
G06  20699374.203                    20699383.711   108775943.607                    84760517.015          47.500                          49.100  
G12  23241707.500                    23241716.426   122136007.773                    95170934.344          39.400                          41.400  
R24  22630706.555    22630705.387    22630717.945    22630717.668   121016546.914   121016537.939    94123969.795    94123975.813          42.600          39.000          43.900          44.700  
R18  20799679.000    20799677.926    20799686.723    20799685.953   111030122.112   111030087.122    86356735.004    86356739.008          45.900          44.100          47.400          47.300  
R03  22279523.063    22279522.156    22279535.238    22279535.512   119264050.097   119264036.106    92760931.528    92760937.537          43.300          41.800          46.600          47.200  
R02  20201997.531    20201996.328    20202005.578    20202005.215   107801727.556   107801717.552    83845781.183    83845787.188          48.200          46.700          48.000          48.700  
R16  21648899.258    21648898.801    21648908.113    21648907.910   115644532.831   115644517.843    89945735.625    89945742.628          45.100          43.600          45.900          46.300  
R17  19724233.883    19724232.715    19724241.055    19724240.953   105548356.408   105548343.421    82093158.212    82093163.209          49.300          48.000          48.800          50.000  
R01  21706256.289    21706255.008                                   116032383.469   116032370.497                                          41.400          38.700                                  
E03  26459168.094    26459181.254    26459178.676    26459181.621   139043878.642   103831453.445   106540099.692   105185768.678          38.700          43.300          44.300          49.700  
E13  25452998.023    25453007.570    25453005.273    25453007.531   133756413.017    99883010.948   102488653.335   101185827.746          43.500          45.300          46.300          51.700  
E15  23465884.820    23465892.164    23465890.430    23465892.695   123314053.824    92085190.170    94487351.978    93286329.684          48.800          48.200          49.200          55.400  
E21  25996175.781    25996183.887    25996180.559    25996183.859   136610820.512   102014595.259   104675842.055   103345241.766          43.700          43.800          44.800          50.400  
E27  24688591.656    24688600.441    24688598.473    24688600.531   129739420.743    96883316.314    99410706.727    98147004.630          46.800          47.400          47.700          53.600  
E05  25211116.633    25211127.066    25211125.098    25211127.047   132485314.553    98933818.761   101514700.617   100224254.795          42.000          41.500          42.800          47.800  
E30  27202976.008    27202990.613    27202987.844    27202990.762   142952583.229   106750281.633   109535072.252   108142673.055          44.100          42.700          44.200          49.200  
C04  38440078.641    38440078.035   200167578.204   154782266.584          36.800          40.400  
C03  37426332.180    37426332.047   194888732.858   150700325.254          38.800          41.700  
C02  38898848.922    38898849.215   202556594.344   156629543.625          35.800          41.100  
C30  22448038.953                   116892825.191                          47.200                  
C29  21836670.492                   113709273.533                          48.000                  
C20  23215363.320                   120888492.195                          46.300                  
C13  38463893.586    38463901.621   200291588.035   154878147.562          40.400          40.900  
> 2025 04 10 07 10  0.0000000  0 30
G17  21214359.383                    21214367.234   111482206.231                    86869279.524          46.200                          46.000  
G11  22488142.594                    22488150.559   118175985.546                    92085216.240          41.800                          45.700  
G09  22719379.578                    22719390.965   119391149.991                    93032091.452          42.300                          44.800  
G19  19709122.555    19709126.727                   103572136.999    80705578.166                          48.500          42.600                  
G22  23121441.344    23121451.105                   121503984.907    94678463.263                          39.900          27.000                  
G03  23603357.680                    23603369.926   124036470.791                    96651845.743          40.300                          41.100  
G04  22938394.250                    22938403.188   120542073.847                    93928934.282          41.100                          41.600  
G06  20698191.805                    20698201.402   108769729.903                    84755675.166          47.900                          48.900  
G12  23239414.141                    23239422.695   122123957.286                    95161544.333          40.000                          41.800  
R24  22632712.711    22632710.953    22632724.363    22632723.324   121027273.585   121027264.593    94132312.714    94132318.726          41.200          38.700          43.800          44.600  
R18  20797213.258    20797212.301    20797221.402    20797220.496   111016961.279   111016926.289    86346498.814    86346502.812          45.700          44.400          48.000          48.000  
R03  22274995.594    22274995.980    22275008.918    22275009.637   119239824.728   119239810.745    92742089.652    92742095.654          42.700          41.700          46.400          47.800  
R02  20200247.531    20200246.328    20200255.211    20200255.082   107792386.427   107792376.424    83838515.866    83838521.878          48.500          47.000          47.700          48.100  
R16  21649573.656    21649571.793    21649582.281    21649581.973   115648133.711   115648118.695    89948536.315    89948543.333          45.600          43.600          46.000          46.700  
R17  19724054.914    19724053.863    19724061.668    19724061.375   105547396.116   105547383.106    82092411.313    82092416.309          49.500          48.100          49.000          50.100  
R01  21708178.750    21708178.055                                   116042657.897   116042644.915                                          41.100          39.700                                  
E03  26456420.273    26456433.191    26456430.754    26456433.676   139029438.044   103820669.914   106529034.834   105174844.485          38.500          43.000          44.700          49.900  
E13  25450872.789    25450882.656    25450880.359    25450882.531   133745246.844    99874672.584   102480097.442   101177380.618          43.200          45.400          46.100          51.600  
E15  23465601.195    23465608.527    23465606.934    23465609.121   123312563.952    92084077.606    94486210.392    93285202.605          48.200          48.500          49.300          55.400  
E21  25994529.844    25994538.469    25994535.469    25994538.758   136602175.456   102008139.534   104669217.919   103338701.839          43.300          43.900          45.100          50.300  
E27  24689574.172    24689583.078    24689580.500    24689583.023   129744583.945    96887171.936    99414662.931    98150910.540          46.800          47.100          48.200          53.900  
E05  25210341.688    25210352.148    25210350.086    25210352.074   132481243.410    98930778.621   101511581.171   100221175.004          41.600          41.400          42.600          47.500  
E30  27205434.539    27205449.488    27205447.000    27205449.832   142965503.846   106759930.061   109544972.387   108152447.336          43.500          43.300          44.500          49.500  
C04  38439502.914    38439502.004   200164578.289   154779946.854          36.600          40.600  
C03  37425774.664    37425775.059   194885833.679   150698083.408          38.200          41.600  
C02  38898268.469    38898268.414   202553571.291   156627205.995          35.900          40.300  
C30  22448942.289                   116897526.413                          47.600                  
C29  21835002.156                   113700584.673                          48.800                  
C20  23212429.414                   120873211.016                          46.200                  
C13  38462398.313    38462406.465   200283803.601   154872128.153          40.200          41.300  
> 2025 04 10 07 10  5.0000000  0 30
G17  21215525.000                    21215532.742   111488331.915                    86874052.766          46.200                          46.700  
G11  22485503.461                    22485511.488   118162112.755                    92074406.290          43.300                          45.900  
G09  22716501.969                    22716513.512   119376029.101                    93020308.945          41.600                          44.900  
G19  19708753.938    19708758.414                   103570201.496    80704069.982                          48.200          42.200                  
G22  23123912.477    23123922.313                   121516970.154    94688581.595                          40.400          26.800                  
G03  23606222.594                    23606234.367   124051524.509                    96663575.915          40.300                          40.700  
G04  22936972.961                    22936984.000   120534612.124                    93923119.958          40.400                          42.000  
G06  20697010.906                    20697020.582   108763523.859                    84750839.284          48.800                          48.600  
G12  23237124.016                    23237132.969   122111922.148                    95152166.331          40.800                          42.100  
R24  22634718.695    22634717.762    22634730.531    22634729.535   121038004.830   121037995.860    94140659.237    94140665.229          41.000          39.200          43.300          43.600  
R18  20794748.766    20794748.512    20794757.438    20794756.094   111003805.223   111003770.195    86336266.314    86336270.333          45.700          44.900          47.700          48.200  
R03  22270472.781    22270472.227    22270485.250    22270485.656   119215605.700   119215591.702    92723252.693    92723258.697          43.400          42.300          46.200          47.600  
R02  20198501.930    20198499.789    20198508.621    20198508.688   107783067.710   107783057.692    83831267.991    83831273.996          48.500          46.600          47.700          48.200  
R16  21650250.922    21650250.465    21650260.422    21650260.238   115651755.376   115651740.388    89951353.154    89951360.151          45.000          43.900          46.000          46.000  
R17  19723876.250    19723875.551    19723883.445    19723883.313   105546444.362   105546431.369    82091671.056    82091676.053          48.500          47.500          49.900          50.600  
R01  21710104.992    21710103.242                                   116052950.523   116052937.528                                          41.800          40.200                                  
E03  26453673.570    26453686.375    26453684.078    26453686.723   139015003.284   103809890.753   106517974.484   105163924.724          39.100          43.100          44.900          50.000  
E13  25448748.750    25448758.707    25448755.895    25448758.422   133734084.058    99866336.740   102471544.150   101168936.054          43.500          46.000          47.000          52.100  
E15  23465318.258    23465326.016    23465324.234    23465326.453   123311078.448    92082968.294    94485072.144    93284078.827          48.400          47.900          49.400          55.500  
E21  25992887.320    25992895.348    25992892.297    25992895.691   136593541.723   102001692.268   104662602.462   103332170.471          43.700          44.600          44.500          50.300  
E27  24690558.844    24690567.910    24690565.422    24690567.727   129749757.788    96891035.499    99418627.287    98154824.502          46.700          47.000          48.300          53.900  
E05  25209568.906    25209579.234    25209577.688    25209579.664   132477184.293    98927747.458   101508470.938   100218104.307          42.300          41.600          43.100          47.700  
E30  27207893.602    27207908.340    27207905.617    27207908.680   142978426.311   106769579.889   109554873.952   108162223.033          43.300          43.100          44.700          49.400  
C04  38438926.180    38438926.117   200161578.765   154777627.440          36.200          40.500  
C03  37425217.492    37425218.563   194882934.842   150695841.872          38.100          42.100  
C02  38897688.117    38897688.215   202550548.447   156624868.559          35.400          40.300  
C30  22449846.219                   116902234.414                          48.100                  
C29  21833334.563                   113691901.985                          49.100                  
C20  23209497.008                   120857939.938                          47.000                  
C13  38460904.383    38460912.094   200276022.525   154866111.338          40.200          41.400  
> 2025 04 10 07 10 10.0000000  0 30
G17  21216692.859                    21216700.391   111494467.290                    86878833.562          46.000                          45.900  
G11  22482863.977                    22482871.785   118148244.603                    92063599.941          43.700                          46.200  
G09  22713626.086                    22713638.129   119360917.274                    93008533.526          41.700                          44.700  
G19  19708388.953    19708392.957                   103568279.679    80702572.446                          48.100          42.200                  
G22  23126384.969    23126393.980                   121529960.169    94698703.661                          40.600          27.800                  
G03  23609087.570                    23609100.293   124066582.303                    96675309.205          40.500                          41.100  
G04  22935556.320                    22935566.699   120527164.430                    93917316.573          40.500                          42.900  
G06  20695830.906                    20695841.043   108757324.975                    84746008.998          48.300                          49.200  
G12  23234836.594                    23234845.063   122099901.791                    95142799.812          41.300                          41.700  
R24  22636724.617    22636725.793    22636738.078    22636737.660   121048739.853   121048730.878    94149008.684    94149014.680          41.400          40.600          43.000          44.200  
R18  20792285.016    20792284.293    20792293.234    20792292.504   110990653.294   110990618.304    86326037.047    86326041.051          46.300          44.700          47.700          48.500  
R03  22265949.180    22265948.746    22265962.031    22265962.496   119191392.252   119191378.242    92704420.086    92704426.090          44.300          42.200          46.100          47.900  
R02  20196758.094    20196757.359    20196765.590    20196765.563   107773770.361   107773760.373    83824036.725    83824042.736          48.700          47.200          48.000          47.600  
R16  21650933.508    21650932.816    21650942.098    21650942.016   115655397.019   115655382.045    89954185.534    89954192.544          45.400          44.200          45.900          47.200  
R17  19723701.016    19723699.965    19723707.793    19723707.445   105545500.670   105545487.667    82090937.060    82090942.063          48.800          47.700          49.800          50.300  
R01  21712033.414    21712031.430                                   116063260.476   116063247.493                                          41.400          40.000                                  
E03  26450928.117    26450940.316    26450938.672    26450940.805   139000573.928   103799115.623   106506918.263   105153009.051          40.200          42.700          45.000          50.100  
E13  25446624.992    25446634.809    25446632.371    25446634.730   133722924.118    99858003.036   102462993.035   101160493.645          43.700          45.300          46.900          51.900  
E15  23465036.438    23465044.137    23465042.215    23465044.559   123309596.715    92081861.804    94483936.793    93282957.906          48.200          48.000          49.300          55.500  
E21  25991245.930    25991254.488    25991251.910    25991254.965   136584918.728   101995253.021   104655995.233   103325647.233          43.100          43.900          45.300          50.300  
E27  24691545.508    24691554.367    24691551.742    24691554.043   129754941.671    96894906.581    99422599.358    98158746.075          47.100          47.400          48.500          53.800  
E05  25208798.516    25208808.754    25208807.301    25208809.602   132473136.556    98924724.805   101505369.440   100215042.231          42.300          41.700          42.600          47.500  
E30  27210353.133    27210367.656    27210365.125    27210368.082   142991349.996   106779230.610   109564776.449   108171999.639          42.900          43.100          44.500          49.400  
C04  38438350.805    38438350.082   200158579.114   154775307.915          36.500          40.800  
C03  37424661.242    37424661.988   194880035.785   150693600.127          38.400          42.100  
C02  38897106.930    38897107.570   202547525.312   156622530.861          35.900          40.900  
C30  22450751.750                   116906948.686                          47.300                  
C29  21831668.109                   113683224.904                          48.500                  
C20  23206566.430                   120842678.389                          47.100                  
C13  38459410.328    38459418.801   200268244.044   154860096.541          38.800          41.200  
> 2025 04 10 07 10 15.0000000  0 30
G17  21217862.438                    21217869.563   111500612.592                    86883622.099          46.800                          45.600  
G11  22480225.461                    22480233.613   118134381.300                    92052797.372          44.200                          45.000  
G09  22710751.883                    22710763.734   119345814.879                    92996765.446          41.600                          44.900  
G19  19708026.008    19708029.727                   103566371.802    80701085.787                          48.800          42.600                  
G22  23128857.945    23128867.289                   121542955.378    94708829.730                          40.800          27.700                  
G03  23611954.922                    23611966.207   124081644.395                    96687045.893          40.100                          40.500  
G04  22934141.477                    22934152.574   120519731.068                    93911524.373          40.800                          42.800  
G06  20694652.898                    20694662.566   108751133.437                    84741184.427          47.300                          49.200  
G12  23232551.742                    23232560.465   122087896.473                    95133445.021          41.400                          41.600  
R24  22638734.484    22638734.957    22638747.059    22638746.867   121059479.229   121059470.267    94157361.492    94157367.496          41.300          40.300          43.600          45.200  
R18  20789821.961    20789821.707    20789830.055    20789829.348   110977505.738   110977470.726    86315811.169    86315815.181          45.800          44.600          47.300          47.900  
R03  22261427.586    22261426.094    22261439.492    22261439.773   119167184.957   119167170.953    92685592.270    92685598.272          44.100          43.000          46.300          47.200  
R02  20195020.492    20195018.938    20195027.234    20195027.777   107764494.836   107764484.840    83816822.424    83816828.435          48.800          47.000          48.100          48.500  
R16  21651618.992    21651618.535    21651627.563    21651627.180   115659059.122   115659044.135    89957033.806    89957040.810          45.900          45.000          45.500          46.800  
R17  19723525.719    19723524.668    19723532.715    19723532.645   105544565.204   105544552.208    82090209.485    82090214.488          49.600          47.800          49.400          50.300  
R01  21713965.406    21713963.891                                   116073588.109   116073575.135                                          42.100          40.500                                  
E03  26448183.586    26448195.965    26448193.762    26448195.926   138986150.178   103788344.686   106495866.331   105142097.617          40.600          43.800          45.600          50.100  
E13  25444501.859    25444511.801    25444508.988    25444511.602   133711767.289    99849671.647   102454444.304   101152053.583          43.100          45.600          46.800          52.000  
E15  23464755.273    23464762.668    23464761.074    23464763.246   123308119.017    92080758.327    94482804.528    93281840.034          48.200          48.300          49.900          55.400  
E21  25989607.359    25989615.719    25989612.953    25989615.996   136576306.738   101988821.993   104649396.438   103319132.324          42.500          44.100          45.500          50.300  
E27  24692534.102    24692542.453    24692539.965    24692542.500   129760135.888    96898785.359    99426579.327    98162675.453          46.800          47.100          48.900          53.800  
E05  25208030.836    25208040.609    25208039.063    25208041.609   132469100.530    98921710.884   101502276.904   100211989.002          41.900          41.300          42.300          47.500  
E30  27212812.484    27212827.691    27212824.410    27212827.672   143004275.181   106788882.465   109574680.093   108181777.392          43.200          43.400          44.500          49.400  
C04  38437774.594    38437774.227   200155579.571   154772988.482          36.600          40.000  
C03  37424104.727    37424104.875   194877136.800   150691358.453          38.500          41.700  
C02  38896526.758    38896527.008   202544502.133   156620193.135          35.500          41.100  
C30  22451658.063                   116911669.425                          47.600                  
C29  21830002.898                   113674553.710                          48.500                  
C20  23203637.430                   120827426.664                          47.200                  
C13  38457917.422    38457925.688   200260468.608   154854084.092          39.400          41.400  
> 2025 04 10 07 10 20.0000000  0 30
G17  21219033.539                    21219041.594   111506767.930                    86888418.454          45.600                          45.400  
G11  22477588.500                    22477597.105   118120522.979                    92041998.690          43.800                          45.000  
G09  22707879.563                    22707891.574   119330721.953                    92985004.751          41.900                          44.100  
G19  19707665.133    19707669.328                   103564477.989    80699610.087                          47.900          42.900                  
G22  23131331.141    23131340.652                   121555955.718    94718959.821                          41.000          28.000                  
G03  23614821.469                    23614833.496   124096710.905                    96698786.018          40.400                          41.600  
G04  22932729.680                    22932740.512   120512312.109                    93905743.388          40.500                          43.000  
G06  20693476.383                    20693486.246   108744949.386                    84736365.675          47.500                          48.800  
G12  23230270.586                    23230279.258   122075906.274                    95124102.016          41.800                          41.300  
R24  22640744.953    22640743.785    22640756.293    22640756.086   121070222.750   121070213.771    94165717.542    94165723.538          42.600          40.400          43.800          44.100  
R18  20787359.898    20787359.176    20787367.793    20787367.156   110964362.795   110964327.805    86305588.897    86305592.909          45.900          44.600          47.400          48.300  
R03  22256905.758    22256905.086    22256918.652    22256918.512   119142983.659   119142969.676    92666769.105    92666775.109          43.400          41.700          46.500          47.500  
R02  20193285.617    20193284.766    20193293.453    20193294.117   107755241.414   107755231.403    83809625.315    83809631.320          48.400          47.300          48.000          48.300  
R16  21652308.555    21652307.746    21652316.734    21652316.848   115662741.813   115662726.796    89959898.092    89959905.101          45.300          43.800          46.000          45.800  
R17  19723352.227    19723350.941    19723359.063    19723358.988   105543638.078   105543625.092    82089488.383    82089493.387          49.300          47.800          49.100          49.700  
R01  21715899.109    21715898.414                                   116083933.638   116083920.680                                          41.400          39.500                                  
E03  26445439.641    26445452.414    26445450.020    26445452.219   138971732.181   103777578.033   106484818.805   105131190.526          41.700          43.200          44.800          50.200  
E13  25442379.797    25442389.367    25442386.648    25442389.258   133700613.633    99841342.627   102445898.005   101143615.929          43.200          45.200          47.200          52.000  
E15  23464474.938    23464482.207    23464480.520    23464482.785   123306645.467    92079657.951    94481675.441    93280725.304          48.300          48.200          49.600          55.500  
E21  25987970.672    25987978.758    25987976.508    25987979.422   136567705.896   101982399.284   104642806.184   103312625.839          42.300          44.200          45.100          50.400  
E27  24693524.625    24693532.840    24693530.402    24693533.012   129765340.490    96902671.901    99430567.266    98166612.694          47.000          47.400          49.200          53.800  
E05  25207264.766    25207274.430    25207272.742    25207275.738   132465076.265    98918705.768   101499193.392   100208944.691          42.100          40.900          42.800          47.400  
E30  27215272.422    27215287.383    27215284.801    27215287.648   143017201.951   106798535.497   109584584.959   108191556.337          43.100          43.200          44.600          49.500  
C04  38437198.672    38437197.793   200152580.219   154770669.200          36.900          40.600  
C03  37423547.805    37423548.219   194874237.955   150689116.876          38.300          42.000  
C02  38895946.313    38895946.695   202541478.938   156617855.423          35.400          40.700  
C30  22452565.773                   116916396.752                          48.000                  
C29  21828339.078                   113665888.479                          48.900                  
C20  23200709.875                   120812184.826                          46.800                  
C13  38456425.023    38456432.848   200252696.229   154848074.011          38.600          41.300  
> 2025 04 10 07 10 25.0000000  0 30
G17  21220206.555                    21220214.309   111512933.221                    86893222.570          46.300                          45.900  
G11  22474951.914                    22474960.516   118106669.484                    92031203.768          43.000                          45.900  
G09  22705009.180                    22705021.227   119315638.375                    92973251.344          41.600                          43.600  
G19  19707307.570    19707311.508                   103562598.104    80698145.249                          48.100          42.500                  
G22  23133806.695    23133816.012                   121568961.150    94729093.884                          42.000          27.800                  
G03  23617688.453                    23617701.531   124111781.618                    96710529.393          40.900                          42.400  
G04  22931321.234                    22931331.633   120504907.508                    93899973.589          40.400                          44.900  
G06  20692300.727                    20692310.586   108738772.696                    84731552.682          47.500                          48.400  
G12  23227990.516                    23227999.570   122063931.149                    95114770.764          40.500                          39.200  
R24  22642754.367    22642754.254    22642766.031    22642765.727   121080970.379   121080961.395    94174076.768    94174082.767          40.900          39.900          42.700          44.400  
R18  20784898.328    20784898.309    20784906.375    20784905.832   110951224.232   110951189.233    86295370.024    86295374.035          46.000          44.900          47.900          48.400  
R03  22252385.758    22252385.441    22252399.137    22252399.668   119118788.293   119118774.298    92647950.565    92647956.568          43.800          42.200          46.000          46.400  
R02  20191555.852    20191554.883    20191563.809    20191563.734   107746009.713   107745999.710    83802445.101    83802451.104          47.800          47.000          48.100          48.100  
R16  21653002.125    21653000.730    21653009.609    21653010.227   115666444.636   115666429.631    89962778.029    89962785.040          46.000          44.400          46.100          46.000  
R17  19723180.898    19723179.258    19723187.387    19723186.969   105542719.190   105542706.203    82088773.692    82088778.695          49.500          48.100          49.000          50.300  
R01  21717839.430    21717837.680                                   116094296.879   116094283.891                                          41.100          39.500                                  
E03  26442697.719    26442709.586    26442707.570    26442709.715   138957319.802   103766815.566   106473775.568   105120287.669          41.800          42.600          45.000          49.900  
E13  25440257.992    25440267.383    25440264.664    25440267.309   133689463.049    99833015.895   102437354.048   101135180.580          44.800          45.600          46.000          51.600  
E15  23464195.164    23464202.590    23464200.996    23464203.117   123305175.937    92078560.567    94480549.430    93279613.605          48.400          48.200          49.400          55.200  
E21  25986336.016    25986344.371    25986341.980    25986344.762   136559116.049   101975984.787   104636224.347   103306127.674          42.000          44.200          44.800          50.100  
E27  24694516.820    24694525.066    24694522.863    24694525.402   129770555.367    96906566.128    99434563.077    98170557.714          46.800          46.800          48.100          53.300  
E05  25206501.602    25206510.270    25206509.145    25206512.023   132461063.702    98915709.389   101496118.838   100205909.217          42.300          40.200          42.000          46.700  
E30  27217732.594    27217747.418    27217745.168    27217747.832   143030130.152   106808189.602   109594490.913   108201336.370          43.900          44.100          45.300          50.300  
C04  38436622.297    38436621.848   200149581.008   154768350.014          36.900          41.700  
C03  37422991.461    37422991.527   194871339.145   150686875.332          38.400          41.100  
C02  38895365.820    38895365.926   202538456.699   156615517.576          35.200          38.200  
C30  22453474.844                   116921130.537                          48.100                  
C29  21826675.602                   113657229.117                          48.400                  
C20  23197784.586                   120796952.812                          47.200                  
C13  38454932.633    38454940.844   200244926.701   154842066.128          39.400          40.900  
> 2025 04 10 07 10 30.0000000  0 30
G17  21221381.992                    21221389.824   111519108.309                    86898034.323          47.000                          45.600  
G11  22472317.219                    22472325.418   118092820.771                    92020412.581          43.500                          46.100  
G09  22702141.500                    22702152.957   119300564.104                    92961505.175          42.700                          42.800  
G19  19706952.852    19706956.168                   103560732.104    80696691.222                          48.400          42.800                  
G22  23136282.391    23136291.406                   121581971.528    94739231.818                          41.100          27.500                  
G03  23620558.156                    23620569.992   124126856.465                    96722276.011          40.800                          42.800  
G04  22929914.453                    22929925.180   120497517.132                    93894214.882          40.200                          43.900  
G06  20691127.023                    20691136.758   108732603.227                    84726745.299          47.900                          48.800  
G12  23225715.617                    23225723.840   122051970.877                    95105451.074          41.100                          39.500  
R24  22644764.359    22644764.598    22644776.063    22644775.680   121091722.046   121091713.081    94182439.198    94182445.197          41.700          40.800          42.100          43.500  
R18  20782438.133    20782436.238    20782445.332    20782445.332   110938089.953   110938054.971    86285154.466    86285158.470          46.400          44.700          47.800          47.800  
R03  22247867.227    22247866.793    22247880.180    22247880.445   119094598.834   119094584.828    92629136.603    92629142.606          44.200          42.800          46.800          47.400  
R02  20189830.375    20189828.820    20189838.035    20189838.246   107736799.834   107736789.831    83795281.872    83795287.876          47.800          47.200          48.200          48.600  
R16  21653698.656    21653698.082    21653707.227    21653707.645   115670167.706   115670152.718    89965673.760    89965680.763          44.600          43.200          46.000          45.900  
R17  19723010.500    19723009.094    19723017.500    19723017.195   105541808.368   105541795.361    82088065.286    82088070.289          49.400          47.900          49.300          50.000  
R01  21719781.219    21719779.586                                   116104677.500   116104664.496                                          41.000          39.100                                  
E03  26439956.086    26439967.676    26439966.598    26439968.176   138942912.897   103756057.198   106462736.555   105109388.981          43.300          41.300          44.300          48.900  
E13  25438136.336    25438145.746    25438144.012    25438146.016   133678315.427    99824691.388   102428812.387   101126747.495          43.600          44.800          47.000          51.700  
E15  23463916.570    23463923.770    23463922.082    23463924.348   123303710.281    92077466.087    94479426.403    93278504.852          48.500          48.500          49.900          55.500  
E21  25984703.836    25984712.273    25984709.410    25984712.484   136550537.025   101969578.382   104629650.827   103299637.715          42.500          43.800          45.100          50.200  
E27  24695511.008    24695519.551    24695517.254    24695519.688   129775780.414    96910467.929    99438566.673    98174510.408          47.000          47.400          48.600          53.900  
E05  25205740.219    25205749.414    25205748.004    25205750.957   132457062.677    98912721.611   101493053.140   100202882.484          41.500          40.300          43.100          47.600  
E30  27220193.039    27220208.238    27220205.516    27220208.402   143043059.695   106817844.689   109604397.880   108211117.394          43.100          43.300          44.200          49.600  
C04  38436046.195    38436046.488   200146581.714   154766030.789          35.800          40.000  
C03  37422434.602    37422434.883   194868440.256   150684633.722          39.300          42.100  
C02  38894784.711    38894785.922   202535433.319   156613179.805          35.500          40.700  
C30  22454385.641                   116925870.705                          47.800                  
C29  21825014.031                   113648575.515                          48.600                  
C20  23194861.117                   120781730.468                          46.800                  
C13  38453441.172    38453449.523   200237160.050   154836060.474          40.700          41.200  
> 2025 04 10 07 10 35.0000000  0 30
G17  21222558.945                    21222565.973   111525292.763                    86902853.363          46.100                          46.000  
G11  22469683.156                    22469691.004   118078976.342                    92009624.696          44.000                          46.300  
G09  22699274.172                    22699285.914   119285498.655                    92949765.916          40.600                          44.300  
G19  19706600.383    19706604.074                   103558879.571    80695247.673                          48.400          42.600                  
G22  23138758.922    23138768.117                   121594986.414    94749373.258                          41.800          28.000                  
G03  23623427.227                    23623439.898   124141935.150                    96734025.614          40.600                          43.100  
G04  22928510.805                    22928521.480   120490140.536                    93888466.913          39.500                          43.800  
G06  20689954.734                    20689964.004   108726440.582                    84721943.243          48.200                          48.300  
G12  23223441.703                    23223450.180   122040025.136                    95096142.724          41.300                          39.500  
R24  22646776.477    22646775.895    22646787.246    22646786.957   121102477.282   121102468.322    94190804.350    94190810.339          43.000          40.900          42.800          43.600  
R18  20779977.977    20779977.488    20779986.266    20779985.715   110924959.563   110924924.565    86274941.955    86274945.974          44.600          44.100          47.800          48.700  
R03  22243349.555    22243348.883    22243361.895    22243362.027   119070414.800   119070400.810    92610326.892    92610332.902          41.100          40.300          45.700          46.700  
R02  20188107.648    20188106.914    20188115.996    20188116.031   107727611.219   107727601.216    83788135.191    83788141.195          48.200          47.200          47.800          48.700  
R16  21654399.172    21654397.777    21654407.633    21654408.047   115673910.576   115673895.608    89968584.857    89968591.854          45.300          43.900          45.800          46.600  
R17  19722842.289    19722840.883    19722849.238    19722848.852   105540905.312   105540892.323    82087362.888    82087367.896          49.300          47.400          48.900          50.000  
R01  21721726.617    21721725.102                                   116115075.258   116115062.286                                          41.500          39.500                                  
E03  26437215.328    26437227.469    26437225.406    26437227.445   138928511.137   103745302.646   106451701.448   105098494.156          41.500          43.100          45.300          50.500  
E13  25436015.227    25436024.844    25436022.922    25436025.035   133667170.283    99816368.727   102420272.603   101118316.270          44.000          45.300          47.100          52.000  
E15  23463638.250    23463645.672    23463643.656    23463646.031   123302248.098    92076374.194    94478306.028    93277398.716          48.200          47.900          49.700          55.500  
E21  25983073.430    25983081.285    25983079.270    25983081.773   136541968.502   101963179.803   104623085.329   103293155.678          43.300          43.700          44.600          50.100  
E27  24696507.320    24696515.020    24696513.895    24696515.785   129781015.195    96914377.005    99442577.726    98178470.474          47.100          47.200          48.400          53.700  
E05  25204981.273    25204989.750    25204988.297    25204991.543   132453072.766    98909742.145   101489995.953   100199864.157          42.200          40.000          43.100          47.200  
E30  27222653.539    27222668.621    27222665.949    27222668.941   143055990.116   106827500.471   109614305.555   108220899.118          43.300          42.100          43.200          48.400  
C04  38435470.164    38435469.898   200143582.006   154763711.217          36.900          41.600  
C03  37421878.297    37421878.527   194865540.850   150682391.738          39.000          41.200  
C02  38894204.242    38894204.586   202532409.274   156610841.414          35.400          40.500  
C30  22455297.172                   116930616.783                          47.800                  
C29  21823353.094                   113639927.239                          48.100                  
C20  23191939.602                   120766517.410                          46.400                  
C13  38451950.242    38451958.734   200229395.725   154830056.607          40.600          40.900  
