     2.11           OBSERVATION DATA    G (GPS)             RINEX VERSION / TYPE
RinEdit             Dataflow Processing 20250128 080004 UTC PGM / RUN BY / DATE
ADE3                                                        MARKER NAME
50109S001                                                   MARKER NUMBER
Monitor Station     NGA                                     OBSERVER / AGENCY
NR035               NOV OEM6            D28CBA70            REC # / TYPE / VERS
762-11400           TPSCR.G5        TPSH                    ANT # / TYPE
 -3939218.6120  3467085.8240 -3613160.7130                  APPROX POSITION XYZ
        0.0000        0.0000        0.0000                  ANTENNA: DELTA H/E/N
     8    P1    L1    D1    S1    P2    L2    D2    S2      # / TYPES OF OBSERV
     1     1                                                WAVELENGTH FACT L1/2
  2025     1    27     0     0    0.0000000     GPS         TIME OF FIRST OBS
                                                            END OF HEADER
 25  1 27  0  0  0.0000000  0  8G10G15G16G18G23G26G27G29
  21159907.93809 -19842880.85309      2167.78809        53.62509  21159910.93809
 -15226992.29009      1689.18609        55.37509
  23110849.31208  -8456916.36308     -1567.91708        47.43808  23110851.21908
  -6352313.16808     -1221.75408        49.06208
  22425720.68808 -14510011.59108       -84.65808        42.75008  22425721.81208
 -11072042.45408       -65.96708        43.81208
  21486231.40608 -19129784.49608     -1196.61908        46.25008  21486232.37509
 -14671646.18809      -932.43009        50.06209
  20059203.34408 -24725998.79708      -775.22508        46.75008  20059203.34409
 -19031660.76509      -604.07109        54.87509
  22843591.56208 -11725806.32608     -2019.62408        46.12508  22843597.34408
  -8902853.53608     -1573.73308        49.00008
  23203142.96908 -10670019.82108      3154.16308        46.81208  23203146.46909
  -8080495.75309      2457.78909        50.62509
  23274046.12508  -9059541.61708     -3034.83908        45.81208  23274050.40608
  -6825430.21308     -2364.81008        49.06208
 25  1 27  0  0 30.0000000  0  8G10G15G16G18G23G26G27G29
  21147574.96909 -19907690.55909      2153.08109        53.75009  21147577.87509
 -15277493.31909      1677.72509        55.06209
  23119843.09408  -8409653.70608     -1582.42708        47.31208  23119844.84408
  -6315485.15508     -1233.06008        48.43808
  22426256.68808 -14507193.17308      -103.16208        42.68808  22426257.81208
 -11069846.33508       -80.38608        43.37508
  21493078.31208 -19093803.38008     -1201.91708        46.43808  21493079.43808
 -14643609.00508      -936.55808        49.62508
  20063672.68808 -24702512.39008      -790.44708        46.75008  20063672.56209
 -19013359.68809      -615.93309        54.62509
  22855152.53108 -11665050.84308     -2030.36408        45.81208  22855158.68808
  -8855511.72208     -1582.10208        48.68808
  23185150.68808 -10764567.20608      3149.03308        47.00008  23185154.15608
  -8154168.96108      2453.79208        49.87508
  23291396.12508  -8968365.53308     -3043.31308        45.43808  23291400.37508
  -6754384.11408     -2371.41308        48.12508
 25  1 27  0  1  0.0000000  0  9G10G15G16G18G23G26G27G29G32
  21135326.50009 -19972057.63309      2138.25209        53.68809  21135329.43809
 -15327649.45509      1666.17009        55.31209
  23128920.15608  -8361954.07708     -1597.15308        47.68808  23128922.25008
  -6278316.68308     -1244.53508        49.00008
  22426898.65608 -14503822.07608      -121.40108        42.62508  22426899.34408
 -11067219.56008       -94.59808        43.56208
  21499955.78108 -19057663.00108     -1207.31708        46.43808  21499956.75008
 -14615447.72108      -940.76608        49.68808
  20068228.65608 -24678570.38208      -805.52708        46.62508  20068228.87509
 -18994703.59209      -627.68409        54.68809
  22866776.12508 -11603972.30408     -2041.21608        46.18808  22866781.21908
  -8807918.18408     -1590.55808        48.62508
  23167188.68808 -10858959.25508      3143.77008        47.37508  23167192.59409
  -8227721.15609      2449.69009        50.75009
  23308795.15608  -8876937.16708     -3051.77508        45.81208  23308798.93808
  -6683141.43708     -2378.00608        48.12508
  25331211.06207    960320.61607      3719.38007        36.68807  25331224.25008
    989668.28908      2898.21808        43.00008
 25  1 27  0  1 30.0000000  0  9G10G15G16G18G23G26G27G29G32
  21123162.03109 -20035981.50609      2123.51809        53.93809  21123165.15609
 -15377460.21909      1654.68909        55.37509
  23138080.03108  -8313818.85508     -1611.63108        47.43808  23138082.34408
  -6240808.75108     -1255.81608        48.62508
  22427645.31208 -14499899.07408      -140.00708        42.62508  22427645.93808
 -11064162.69908      -109.09708        43.50008
  21506863.40608 -19021363.67908     -1212.57308        46.56208  21506864.25008
 -14587162.56908      -944.86208        49.75008
  20072871.31208 -24654174.86408      -820.64908        46.75008  20072870.90609
 -18975694.11509      -639.46709        54.50009
  22878459.40608 -11542573.85508     -2051.76008        45.87508  22878465.46908
  -8760075.36508     -1598.77408        48.75008
  23149256.56208 -10953193.77708      3138.57208        47.56208  23149259.84409
  -8301150.57409      2445.64009        50.56209
  23326241.12508  -8785258.25508     -3060.07608        45.87508  23326245.18808
  -6611703.53008     -2384.47508        48.43808
  25309966.25008    848670.92408      3723.78708        41.93808  25309977.12508
    902668.61908      2901.65208        41.12508
 25  1 27  0  2  0.0000000  0  9G10G15G16G18G23G26G27G29G32
  21111082.37509 -20099461.15109      2108.72809        53.87509  21111085.28109
 -15426924.84909      1643.16509        55.50009
  23147322.59408  -8265249.31108     -1625.94508        47.56208  23147324.96908
  -6202962.42008     -1266.97008        49.00008
  22428496.46908 -14495424.94408      -158.16908        42.62508  22428497.21908
 -11060676.40408      -123.24908        43.43808
  21513801.21908 -18984905.15608     -1217.83208        46.43808  21513802.03108
 -14558753.39308      -948.96008        49.68808
  20077599.34408 -24629327.37808      -835.69308        46.68808  20077599.34409
 -18956332.47209      -651.19009        54.56209
  22890204.03108 -11480858.10408     -2062.40708        46.12508  22890209.75008
  -8711985.30808     -1607.07108        48.93808
  23131354.59408 -11047268.19108      3133.15208        47.25008  23131358.21909
  -8374455.25909      2441.41709        50.56209
  23343734.75008  -8693330.09008     -3068.26208        45.93808  23343738.53108
  -6540071.41908     -2390.85308        48.43808
  25288696.37508    736900.58308      3727.62008        43.12508  25288708.53108
    815574.85108      2904.63908        43.12508
 25  1 27  0  2 30.0000000  0 10G10G13G15G16G18G23G26G27G29G32
  21099087.37509 -20162495.92509      2093.87709        53.81209  21099090.00009
 -15476042.81609      1631.59209        55.37509
  25102936.43806     33434.78106     -1988.49106        25.12506  25102941.25006
     22724.88906     -1549.47406        27.37506
  23156647.06208  -8216247.03508     -1640.51308        47.06208  23156649.71908
  -6164778.89808     -1278.32208        48.81208
  22429452.87508 -14490400.29108      -176.64808        42.56208  22429453.56208
 -11056761.12808      -137.64808        43.43808
  21520769.28108 -18948287.61508     -1223.21008        46.62508  21520770.28108
 -14530220.28208      -953.15108        49.43808
  20082413.09408 -24604029.90608      -850.66208        46.37508  20082413.18809
 -18936620.15509      -662.85309        54.43809
  22902008.34408 -11418828.11608     -2072.81008        45.68808  22902013.28108
  -8663650.37308     -1615.17708        48.43808
  23113483.34408 -11141180.20908      3127.72508        47.18808  23113487.15609
  -8447633.37509      2437.18809        50.62509
  23361275.15608  -8601153.91508     -3076.53608        45.62508  23361279.28108
  -6468246.03708     -2397.30108        48.25008
  25267405.25008    625011.75908      3731.44808        43.31208  25267416.75008
    728388.79408      2907.62208        44.00008
 25  1 27  0  3  0.0000000  0  9G10G15G16G18G23G26G27G29G32
  21087177.09409 -20225085.04609      2078.88909        53.87509  21087179.68809
 -15524813.52809      1619.91409        55.75009
  23166054.06208  -8166813.26008     -1655.01708        47.37508  23166056.43808
  -6126259.13508     -1289.62408        49.37508
  22430513.62508 -14484826.19908      -195.09508        42.87508  22430514.12508
 -11052417.71608      -152.02208        43.50008
  21527767.93808 -18911511.03808     -1228.59108        46.62508  21527768.50008
 -14501563.27108      -957.34408        49.68808
  20087312.62508 -24578284.25908      -865.60108        46.43808  20087312.56209
 -18916558.63209      -674.49409        54.68809
  22913870.62508 -11356486.72508     -2083.13708        45.50008  22913877.06208
  -8615072.79408     -1623.22408        48.87508
  23095644.31208 -11234927.39508      3122.29708        47.56208  23095647.25009
  -8520683.07509      2432.95909        50.37509
  23378863.09408  -8508731.56808     -3084.81008        45.50008  23378867.09408
  -6396228.84608     -2403.74808        48.37508
  25246091.40607    513006.83007      3735.16107        39.56207  25246101.87508
    641112.31708      2910.51508        42.31208
 25  1 27  0  3 30.0000000  0  9G10G15G16G18G23G26G27G29G32
  21075351.78109 -20287227.67109      2063.99409        53.93809  21075354.37509
 -15573236.31709      1608.30709        55.50009
  23175542.65608  -8116949.51708     -1669.20908        47.00008  23175545.78109
  -6087404.32209     -1300.68209        50.06209
  22431678.75008 -14478703.10008      -213.02008        42.81208  22431679.65608
 -11047646.50708      -165.99008        43.50008
  21534796.62508 -18874575.30808     -1233.77908        46.75008  21534797.31208
 -14472782.22708      -961.38608        49.43808
  20092296.62508 -24552092.17408      -880.37808        46.43808  20092296.78109
 -18896149.22609      -686.00909        54.56209
  22925792.84408 -11293836.69608     -2093.34508        45.12508  22925799.25008
  -8566254.72508     -1631.17808        48.81208
  23077836.37508 -11328507.14808      3116.50608        47.43808  23077839.71909
  -8593602.31709      2428.44709        50.43809
  23396496.90608  -8416064.45408     -3093.05408        45.62508  23396501.15608
  -6324020.93808     -2410.17208        47.87508
  25224756.28108    400888.46308      3739.24808        42.25008  25224766.68808
    553747.49008      2913.70008        40.31208
 25  1 27  0  4  0.0000000  0 10G10G13G15G16G18G23G26G27G29G32
  21063611.40609 -20348923.23109      2049.08709        53.81209  21063614.06209
 -15621310.75709      1596.69109        55.62509
  25137342.56206    214232.84106     -2029.11606        27.12506          .00000
          .00000          .00000          .00000
  23185113.06208  -8066657.36608     -1683.53808        46.68808  23185116.18809
  -6048215.72409     -1311.84809        50.75009
  22432948.28108 -14472031.95608      -231.46208        42.81208  22432949.62508
 -11042448.26708      -180.36008        43.68808
  21541855.65608 -18837480.57308     -1239.25308        46.56208  21541856.18808
 -14443877.28408      -965.65208        49.50008
  20097365.28108 -24525455.68108      -895.43208        46.31208  20097365.62509
 -18875393.55209      -697.73909        54.75009
  22937773.18808 -11230881.09408     -2103.78408        45.50008  22937778.75008
  -8517198.56408     -1639.31208        48.43808
  23060061.15608 -11421917.27808      3110.80808        47.18808  23060064.43809
  -8666389.37909      2424.00609        50.81209
  23414177.18808  -8323154.06108     -3101.04508        45.37508  23414182.00008
  -6251623.45108     -2416.39908        48.25008
  25203399.31208    288659.02508      3742.86908        43.18808  25203410.53108
    466295.96308      2916.52108        42.12508
 25  1 27  0  4 30.0000000  0 10G10G13G15G16G18G23G26G27G29G32
  21051956.28109 -20410170.62009      2034.24309        53.68809  21051959.12509
 -15669035.97309      1585.12509        55.37509
  25148962.59406    275298.35906     -2042.18306        26.37506          .00000
          .00000          .00000          .00000
  23194765.06208  -8015938.10208     -1697.57808        47.56208  23194767.68808
  -6008694.31308     -1322.78808        49.06208
  22434322.18808 -14464813.42008      -249.52608        42.81208  22434322.93808
 -11036823.46908      -194.43608        43.56208
  21548944.84408 -18800226.51608     -1244.41908        46.68808  21548945.59408
 -14414848.20408      -969.67708        49.37508
  20102518.46908 -24498376.30208      -909.88508        46.50008  20102518.68809
 -18854292.75909      -709.00209        54.37509
  22949811.09408 -11167622.51008     -2113.46408        45.62508  22949816.68808
  -8467906.29408     -1646.85508        48.06208
  23042317.84408 -11515154.96508      3105.19308        46.93808  23042322.46909
  -8739042.05909      2419.63109        51.06209
  23431903.93808  -8230001.60408     -3108.94008        45.37508  23431908.46908
  -6179037.38508     -2422.55108        48.25008
  25182021.81208    176321.29308      3746.40908        41.68808  25182032.78108
    378760.14008      2919.28008        43.31208
 25  1 27  0  5  0.0000000  0  9G10G15G16G18G23G26G27G29G32
  21040386.50009 -20470969.52109      2019.12609        53.62509  21040389.37509
 -15716411.70309      1573.34509        55.31209
  23204497.25008  -7964793.40108     -1712.05608        47.43808  23204499.68808
  -5968841.35108     -1334.06908        48.50008
  22435799.71908 -14457048.60708      -267.99608        43.00008  22435800.62508
 -11030773.00808      -208.82808        43.50008
  21556064.43808 -18762813.42308     -1249.87108        46.68808  21556065.00008
 -14385695.17308      -973.92508        49.06208
  20107755.50008 -24470856.18108      -924.70208        46.50008  20107755.43809
 -18832848.53509      -720.54709        54.43809
  22961905.78108 -11104064.15708     -2123.60608        45.62508  22961912.00008
  -8418380.43308     -1654.75808        48.37508
  23024608.68808 -11608218.05208      3099.12608        47.56208  23024612.50009
  -8811558.69209      2414.90309        50.87509
  23449676.28108  -8136608.90108     -3117.24108        45.50008  23449680.34408
  -6106264.09308     -2429.01908        47.62508
  25160624.06208     63877.49008      3749.67308        41.06208  25160636.56208
    291141.66608      2921.82308        44.37508
 25  1 27  0  5 30.0000000  0  9G10G15G16G18G23G26G27G29G32
  21028902.43809 -20531318.98809      2004.21109        53.93809  21028905.25009
 -15763437.22509      1561.72309        55.62509
  23214311.18808  -7913224.59808     -1725.88608        48.18808  23214312.71908
  -5928657.90208     -1344.84608        48.25008
  22437381.12508 -14448738.42608      -286.02308        42.75008  22437382.46908
 -11024297.58308      -222.87508        44.00008
  21563213.87508 -18725241.08508     -1255.08508        46.56208  21563214.78108
 -14356418.06808      -977.98908        49.43808
  20113075.78108 -24442897.08008      -939.15308        46.68808  20113075.93809
 -18811062.23009      -731.80709        54.56209
  22974056.93808 -11040208.78108     -2133.33308        45.18808  22974063.28108
  -8368623.14108     -1662.33708        48.56208
  23006933.06208 -11701103.90408      3093.24008        47.56208  23006936.68809
  -8883937.21609      2410.31709        50.93809
  23467493.65608  -8042977.46108     -3124.98308        45.68808  23467498.12508
  -6033304.74808     -2435.05208        47.93808
  25139206.37507    -48669.79807      3753.40607        38.81207  25139218.71908
    203442.67508      2924.73208        43.56208
 25  1 27  0  6  0.0000000  0  9G10G15G16G18G23G26G27G29G32
  21017503.81209 -20591218.36409      1988.90409        53.87509  21017506.75009
 -15810112.03309      1549.79509        55.62509
  23224204.46908  -7861233.35308     -1740.32008        47.18808  23224206.56208
  -5888145.31708     -1356.09308        48.62508
  22439065.78108 -14439883.35408      -304.60208        42.68808  22439067.65608
 -11017397.56308      -237.35208        44.06208
  21570394.09408 -18687509.44708     -1260.55408        46.37508  21570394.84408
 -14327016.81908      -982.25008        49.50008
  20118479.62508 -24414500.77208      -953.98908        46.68808  20118479.78109
 -18788935.26009      -743.36809        54.75009
  22986264.53108 -10976059.20308     -2143.50608        45.18808  22986271.31208
  -8318636.61708     -1670.26408        48.87508
  22989291.65608 -11793810.02508      3086.92908        47.37508  22989294.81209
  -8956175.68509      2405.39909        50.43809
  23485356.25008  -7949108.60308     -3133.04408        45.37508  23485360.93808
  -5960160.42808     -2441.33308        48.12508
  25117771.37508   -161317.64008      3756.43608        43.25008  25117781.96908
    115665.17808      2927.09308        40.75008
 25  1 27  0  6 30.0000000  0  9G10G15G16G18G23G26G27G29G32
  21006191.06209 -20650667.03409      1974.13109        53.81209  21006194.06209
 -15856435.64809      1538.28409        55.43809
  23234177.96908  -7808821.25308     -1754.16308        47.12508  23234180.28108
  -5847304.78208     -1366.88008        48.62508
  22440854.56208 -14430484.75808      -322.40008        42.87508  22440855.81208
 -11010074.02808      -251.22108        43.75008
  21577604.43808 -18649618.48508     -1265.79608        46.31208  21577605.06208
 -14297491.43208      -986.33408        49.00008
  20123966.12508 -24385669.25308      -968.39408        46.75008  20123966.40609
 -18766469.17009      -754.59209        54.43809
  22998527.15608 -10911618.48308     -2152.92008        45.25008  22998533.93808
  -8268423.21208     -1677.60008        48.31208
  22971685.03108 -11886333.98408      3081.04208        47.31208  22971688.78109
  -9028272.20609      2400.81209        51.00009
  23503263.75008  -7855003.76708     -3140.84008        45.00008  23503268.90608
  -5886832.22808     -2447.40808        47.75008
  25096315.75008   -274063.75608      3759.69208        43.56208  25096327.90608
     27810.97008      2929.63008        41.43808
 25  1 27  0  7  0.0000000  0  9G10G15G16G18G23G26G27G29G32
  20994964.06209 -20709664.22909      1959.07509        53.93809  20994967.15609
 -15902407.46409      1526.55209        55.37509
  23244231.87508  -7755989.47008     -1767.92208        47.50008  23244233.96908
  -5806137.22708     -1377.60208        48.68808
  22442746.31208 -14420543.19008      -340.41008        42.81208  22442747.90608
 -11002327.38008      -265.25508        43.75008
  21584845.09408 -18611568.07808     -1271.03808        46.43808  21584846.00008
 -14267841.80308      -990.41908        49.06208
  20129534.96908 -24356404.29708      -982.62708        46.75008  20129535.18809
 -18743665.33109      -765.68309        54.37509
  23010845.68808 -10846889.35308     -2162.54608        45.87508  23010851.18808
  -8217985.08208     -1685.10108        47.93808
  22954113.56208 -11978673.18008      3074.82708        47.81208  22954117.40609
  -9100224.74309      2395.96909        51.56209
  23521216.46908  -7760664.38408     -3148.48608        45.68808  23521221.90608
  -5813321.25608     -2453.36608        48.43808
  25074840.62507   -386905.60007      3762.77607        36.37507  25074854.84408
    -60117.64908      2932.03308        44.87508
 25  1 27  0  7 30.0000000  0  9G10G15G16G18G23G26G27G29G32
  20983823.31209 -20768209.46409      1943.97909        53.75009  20983826.37509
 -15948027.09009      1514.78909        55.75009
  23254365.21908  -7702739.87308     -1781.87308        47.50008  23254367.59408
  -5764644.08508     -1388.47208        49.12508
  22444741.28108 -14410059.76308      -358.39608        42.50008  22444742.68808
 -10994158.52508      -279.27008        43.81208
  21592116.25008 -18573358.36008     -1276.19108        46.37508  21592117.21908
 -14238068.01408      -994.43508        49.43808
  20135186.18808 -24326707.94408      -997.01208        46.68808  20135186.25009
 -18720525.33909      -776.89209        54.56209
  23023217.06208 -10781874.97608     -2171.87308        45.12508  23023222.28108
  -8167324.66208     -1692.36808        47.50008
  22936577.62508 -12070825.29108      3068.66208        47.93808  22936581.18809
  -9172031.50209      2391.16509        51.50009
  23539213.21908  -7666092.50508     -3156.18708        45.31208  23539218.03108
  -5739629.13208     -2459.36608        48.37508
  25053352.21908   -499840.66008      3765.99608        42.12508  25053364.21908
   -148118.79608      2934.54208        45.81208
 25  1 27  0  8  0.0000000  0  9G10G15G16G18G23G26G27G29G32
  20972768.71909 -20826302.00609      1928.77709        54.06209  20972771.65609
 -15993293.97209      1502.94309        55.56209
  23264577.43808  -7649073.71808     -1795.77908        47.93808  23264579.53108
  -5722826.38208     -1399.30808        48.37508
  22446839.21908 -14399035.41708      -376.45508        43.00008  22446840.62508
 -10985568.15608      -293.34208        43.75008
  21599417.62508 -18534989.15508     -1281.73308        46.56208  21599418.75008
 -14208169.95608      -998.75308        49.25008
  20140918.87508 -24296582.01708     -1011.31308        46.68808  20140919.15609
 -18697050.61009      -788.03609        54.50009
  23035642.43808 -10716578.12208     -2181.34508        45.25008  23035648.71908
  -8116444.13908     -1699.75008        48.00008
  22919077.65608 -12162787.69108      3062.23608        48.06208  22919081.18809
  -9243690.43809      2386.15809        51.31209
  23557254.21908  -7571289.42408     -3163.94308        45.31208  23557259.12508
  -5665756.83708     -2465.41008        47.87508
  25031844.53108   -612866.09108      3768.99908        44.68808  25031856.12508
   -236190.49908      2936.88208        43.56208
 25  1 27  0  8 30.0000000  0  9G10G15G16G18G23G26G27G29G32
  20961800.43809 -20883941.36609      1913.82309        53.93809  20961803.28109
 -16038207.72109      1491.29109        55.62509
  23274868.53108  -7594992.86408     -1809.53108        47.56208  23274871.18808
  -5680685.50208     -1410.02408        49.56208
  22449039.96908 -14387471.45908      -394.45108        42.75008  22449040.87508
 -10976557.31908      -307.36408        43.50008
  21606749.43808 -18496460.44708     -1287.05808        46.31208  21606750.56208
 -14178147.62008     -1002.90208        49.31208
  20146733.15608 -24266028.47108     -1025.57408        46.75008  20146733.06209
 -18673242.67609      -799.14809        54.18809
  23048121.25008 -10651001.82108     -2190.49108        45.00008  23048128.15608
  -8065345.86508     -1706.87608        48.25008
  22901614.15608 -12254557.98308      3055.79808        47.87508  22901617.37509
  -9315199.68909      2381.14209        51.06209
  23575337.90608  -7476256.63208     -3171.62808        44.68808  23575343.28108
  -5591705.55108     -2471.39908        47.43808
  25010319.00008   -725979.44208      3771.74108        41.87508  25010330.43808
   -324330.76408      2939.01908        41.56208
 25  1 27  0  9  0.0000000  0  9G10G15G16G18G23G26G27G29G32
  20950918.53109 -20941126.84509      1898.68209        54.06209  20950921.12509
 -16082767.81309      1479.49209        55.56209
  23285238.28108  -7540498.89808     -1823.40808        46.93808  23285241.21908
  -5638222.77608     -1420.83808        49.81208
  22451343.34408 -14375368.85908      -412.49808        42.87508  22451344.37508
 -10967126.79408      -321.42708        43.68808
  21614111.68808 -18457772.13708     -1292.39008        46.56208  21614112.59408
 -14148000.92108     -1007.05708        49.12508
  20152628.09408 -24235049.22708     -1039.71408        46.75008  20152628.31209
 -18649103.03909      -810.16709        54.31209
  23060652.43808 -10585148.96708     -2199.74408        44.68808  23060659.71908
  -8014032.12908     -1714.08608        48.25008
  22884187.75008 -12346133.55808      3049.14808        48.06208  22884190.81209
  -9386557.23009      2375.95909        51.06209
  23593465.65608  -7380995.75408     -3179.21608        45.00008  23593471.03108
  -5517476.55308     -2477.31208        47.68808
  24988776.00007   -839178.34507      3774.67507        38.62507  24988788.56208
   -412537.67508      2941.30508        40.43808
 25  1 27  0  9 30.0000000  0  9G10G15G16G18G23G26G27G29G32
  20940123.00009 -20997857.85809      1883.47709        54.06209  20940125.43809
 -16126973.77309      1467.64409        55.68809
  23295686.43808  -7485593.25708     -1837.07808        46.56208  23295689.28108
  -5595439.24408     -1431.48908        49.43808
  22453748.53108 -14362728.55108      -430.22508        42.56208  22453749.65608
 -10957277.24108      -335.24008        43.50008
  21621504.50008 -18418924.14808     -1297.54408        46.50008  21621505.12508
 -14117729.79808     -1011.07308        49.18808
  20158604.03108 -24203646.17708     -1053.67408        46.68808  20158604.09409
 -18624633.16009      -821.04509        54.18809
  23073236.71908 -10519022.46508     -2208.56008        45.12508  23073242.43808
  -7962505.12608     -1720.95608        47.25008
  22866798.96908 -12437511.87908      3042.66408        48.12508  22866802.50009
  -9457761.06209      2370.90709        51.12509
  23611637.06208  -7285508.03908     -3186.62808        45.25008  23611641.96908
  -5443070.78608     -2483.08708        48.12508
  24967221.96908   -952459.82708      3777.40508        43.18808  24967233.00008
   -500808.88108      2943.43208        45.25008
 25  1 27  0 10  0.0000000  0  9G10G15G16G18G23G26G27G29G32
  20929413.87509 -21054133.89809      1868.33509        54.18809  20929416.59409
 -16170825.19909      1455.84509        56.06209
  23306213.25008  -7430277.73408     -1850.65408        46.43808  23306215.46908
  -5552336.34708     -1442.06808        48.87508
  22456255.56208 -14349551.51608      -448.06208        42.50008  22456257.09408
 -10947009.46108      -349.13908        43.56208
  21628927.40608 -18379916.41608     -1302.95208        46.56208  21628928.40608
 -14087334.19508     -1015.28708        49.62508
  20164660.03108 -24171821.27508     -1067.85908        46.75008  20164660.25009
 -18599834.55609      -832.09809        54.50009
  23085871.50008 -10452625.28508     -2217.59308        45.43808  23085878.12508
  -7910767.22108     -1727.99408        48.37508
  22849448.34408 -12528690.47708      3035.90308        48.31208  22849452.40609
  -9528809.26109      2365.63909        52.06209
  23629850.21908  -7189795.36908     -3194.13308        44.87508  23629855.71908
  -5368489.74208     -2488.93508        48.68808
  24945649.75008  -1065821.28608      3780.08508        44.50008  24945661.62508
   -589142.39808      2945.52108        46.75008
 25  1 27  0 10 30.0000000  0  9G10G15G16G18G23G26G27G29G32
  20918791.50009 -21109954.57309      1853.18609        53.75009  20918794.15609
 -16214321.80909      1444.04109        56.06209
  23316816.90608  -7374553.99308     -1864.38708        46.31208  23316819.40608
  -5508915.30108     -1452.76908        48.06208
  22458865.56208 -14335839.07508      -466.06708        42.50008  22458866.34408
 -10936324.51108      -363.16908        43.68808
  21636380.90608 -18340749.01708     -1308.21308        46.43808  21636381.31208
 -14056814.18408     -1019.38708        49.25008
  20170795.93808 -24139576.62708     -1081.72408        46.56208  20170796.21909
 -18574708.88509      -842.90209        54.43809
  23098557.31208 -10385960.55008     -2226.62808        44.81208  23098563.81208
  -7858820.83608     -1735.03508        47.62508
  22832136.06208 -12619666.92208      3028.95308        47.93808  22832139.46909
  -9599699.94709      2360.22309        51.56209
  23648106.40608  -7093859.32808     -3201.67508        44.18808  23648111.50008
  -5293734.66108     -2494.81208        47.75008
  24924060.96908  -1179260.40908      3782.54608        40.62508  24924073.75008
   -677536.45708      2947.43908        42.43808
 25  1 27  0 11  0.0000000  0  9G10G15G16G18G23G26G27G29G32
  20908255.90609 -21165319.29009      1837.81209        54.06209  20908258.56209
 -16257463.13209      1432.06209        56.12509
  23327498.25008  -7318423.56408     -1877.78608        46.93808  23327500.81208
  -5465177.38908     -1463.21008        48.06208
  22461576.56208 -14321592.41008      -483.69608        42.87508  22461578.03108
 -10925223.26308      -376.90608        43.87508
  21643864.43808 -18301421.82108     -1313.61108        46.50008  21643865.21908
 -14026169.66508     -1023.59308        49.25008
  20177011.37508 -24106914.12308     -1095.63008        46.75008  20177011.65609
 -18549257.60909      -853.73809        54.31209
  23111293.81208 -10319031.16708     -2235.39108        44.75008  23111300.43808
  -7806668.22408     -1741.86308        47.87508
  22814863.06208 -12710438.67708      3022.33408        48.56208  22814866.18809
  -9670431.13009      2355.06509        51.31209
  23666405.40608  -6997701.79508     -3208.83108        44.93808  23666409.81208
  -5218806.95108     -2500.38708        47.18808
  24902460.87507  -1292774.56407      3785.00507        39.75007  24902471.00007
   -765989.00207      2949.35407        39.93807
 25  1 27  0 11 30.0000000  0  9G10G15G16G18G23G26G27G29G32
  20897807.18809 -21220227.53909      1822.67309        54.18809  20897809.90609
 -16300248.76209      1420.26509        56.12509
  23338256.65608  -7261888.35908     -1891.21308        47.37508  23338259.59408
  -5421124.07008     -1473.67308        48.87508
  22464388.96908 -14306812.67008      -501.68208        43.00008  22464390.71908
 -10913706.63408      -390.92108        44.12508
  21651378.50008 -18261934.73208     -1318.90108        46.75008  21651379.43808
 -13995400.55408     -1027.71508        49.31208
  20183306.15608 -24073835.71808     -1109.51908        46.93808  20183306.34409
 -18523482.26009      -864.56009        54.31209
  23124080.43808 -10251840.07408     -2244.07708        45.25008  23124086.50008
  -7754311.71708     -1748.63208        48.00008
  22797629.00008 -12801003.07608      3015.20508        48.75008  22797632.00009
  -9741000.77609      2349.51009        51.25009
  23684746.28108  -6901323.96708     -3216.18708        45.75008  23684750.90608
  -5143707.60408     -2506.11908        48.00008
  24880846.81208  -1406360.92508      3787.41708        43.31208  24880857.50008
   -854497.79408      2951.23408        42.12508
 25  1 27  0 12  0.0000000  0  9G10G15G16G18G23G26G27G29G32
  20887445.53109 -21274678.57209      1807.45409        53.93809  20887448.25009
 -16342678.12009      1408.40509        56.12509
  23349092.18808  -7204949.48508     -1904.60208        47.81208  23349095.25008
  -5376756.18908     -1484.10508        49.00008
  22467303.09408 -14291500.76108      -519.34608        42.75008  22467304.00008
 -10901775.32408      -404.68508        43.62508
  21658923.43808 -18222287.39008     -1324.20208        46.62508  21658924.12508
 -13964506.56008     -1031.84508        49.25008
  20189679.81208 -24040343.15508     -1123.30308        46.81208  20189679.81209
 -18497384.17709      -875.30109        54.06209
  23136915.68808 -10184390.09408     -2252.51708        45.06208  23136922.25008
  -7701753.44908     -1755.20808        47.75008
  22780435.59408 -12891357.47408      3008.35908        48.75008  22780438.37509
  -9811406.75709      2344.17609        51.37509
  23703127.59408  -6804727.28108     -3223.50808        44.93808  23703133.37508
  -5068437.73608     -2511.82508        48.62508
  24859219.25008  -1520016.50908      3789.72708        44.93808  24859230.81208
   -943060.52008      2953.03408        45.87508
 25  1 27  0 12 30.0000000  0  9G10G15G16G18G23G26G27G29G32
  20877170.78109 -21328672.26309      1792.32909        53.93809  20877173.62509
 -16384751.10309      1396.62009        56.12509
  23360003.87508  -7147608.84808     -1917.85608        47.37508  23360006.25008
  -5332075.26408     -1494.43408        49.12508
  22470317.43808 -14275658.10208      -536.70408        42.50008  22470318.62508
 -10889430.44508      -418.21108        43.43808
  21666498.15608 -18182480.01408     -1329.45108        46.18808  21666499.06208
 -13933487.88308     -1035.93608        48.93808
  20196131.50008 -24006438.72408     -1136.87708        46.68808  20196131.84409
 -18470965.16709      -885.87909        54.12509
  23149799.75008 -10116684.39808     -2260.94208        44.81208  23149806.53108
  -7648995.93608     -1761.77308        48.00008
  22763281.34408 -12981499.55008      3001.20108        48.43808  22763285.43809
  -9881647.28209      2338.59809        51.50009
  23721550.68808  -6707913.54008     -3230.73508        44.37508  23721556.62508
  -4992998.74808     -2517.45608        48.37508
  24837577.81208  -1633739.15708      3791.94608        41.43808  24837589.18808
  -1031675.44908      2954.76308        44.93808
 25  1 27  0 13  0.0000000  0  9G10G15G16G18G23G26G27G29G32
  20866983.18809 -21382207.92709      1777.01909        54.00009  20866986.00009
 -16426467.18609      1384.69009        56.12509
  23370991.03108  -7089868.23508     -1931.28908        46.56208  23370993.62508
  -5287082.66908     -1504.90108        48.12508
  22473433.56208 -14259286.05808      -554.55108        43.06208  22473434.34408
 -10876673.04208      -432.11708        43.50008
  21674103.71908 -18142512.38608     -1334.80708        46.25008  21674104.78108
 -13902344.31908     -1040.10908        48.93808
  20202661.21908 -23972124.24608     -1150.51008        46.75008  20202661.31209
 -18444226.62709      -896.50209        53.93809
  23162731.81208 -10048725.82408     -2269.32608        45.18808  23162738.81208
  -7596041.36108     -1768.30608        47.93808
  22746169.21908 -13071426.58208      2994.00108        48.68808  22746172.15609
  -9951720.25009      2332.98809        51.50009
  23740015.12508  -6610884.36708     -3237.90508        44.87508  23740020.21908
  -4917391.88908     -2523.04308        47.50008
  24815923.28107  -1747526.14807      3794.05007        39.50007  24815936.00008
  -1120340.43208      2956.40308        42.62508
 25  1 27  0 13 30.0000000  0  9G10G15G16G18G23G26G27G29G32
  20856882.93809 -21435285.24509      1761.71409        54.25009  20856885.75009
 -16467826.11509      1372.76409        56.25009
  23382055.09408  -7031729.17408     -1944.42908        47.25008  23382057.31208
  -5241779.60608     -1515.13908        48.81208
  22476650.00008 -14242385.78808      -571.86508        43.18808  22476650.40608
 -10863504.05008      -445.60908        43.37508
  21681740.00008 -18102384.42608     -1340.24208        46.62508  21681740.71908
 -13871075.84408     -1044.34408        48.93808
  20209269.00008 -23937401.75508     -1164.20908        47.00008  20209269.06209
 -18417170.17709      -907.17609        54.06209
  23175711.71908  -9980517.47708     -2277.68608        45.31208  23175718.62508
  -7542892.19408     -1774.82008        48.12508
  22729097.62508 -13161136.06208      2986.69708        49.18808  22729101.31209
 -10021623.67909      2327.29609        51.81209
  23758520.65608  -6513641.35508     -3244.91208        46.18808  23758525.18808
  -4841618.37308     -2528.50308        47.31208
  24794260.65608  -1861374.59108      3795.91108        44.75008  24794271.06208
  -1209053.42908      2957.85308        42.06208
 25  1 27  0 14  0.0000000  0  9G10G15G16G18G23G26G27G29G32
  20846869.87509 -21487903.83109      1746.33809        54.00009  20846872.71909
 -16508827.58309      1360.78309        56.18809
  23393193.90608  -6973193.76108     -1957.54208        46.68808  23393196.15608
  -5196167.66508     -1525.35708        48.81208
  22479965.46908 -14224958.40408      -589.59508        42.68808  22479967.12508
 -10849924.31608      -459.42408        43.56208
  21689406.81208 -18062096.09208     -1345.52708        46.37508  21689407.56208
 -13839682.39008     -1048.46308        48.81208
  20215953.40608 -23902273.35908     -1177.53208        46.62508  20215953.75009
 -18389797.40609      -917.55709        54.00009
  23188738.59408  -9912062.33808     -2285.90308        45.00008  23188745.34408
  -7489550.70108     -1781.22308        47.81208
  22712068.50008 -13250625.53008      2979.35108        49.25008  22712071.37509
 -10091355.68009      2321.57209        51.25009
  23777065.00008  -6416185.85708     -3251.85108        44.37508  23777070.71908
  -4765679.28108     -2533.91008        47.31208
  24772583.93808  -1975281.96508      3798.00008        43.37508  24772595.09408
  -1297812.33708      2959.48108        43.43808
 25  1 27  0 14 30.0000000  0  9G10G15G16G18G23G26G27G29G32
  20836944.25009 -21540063.31909      1731.07209        54.06209  20836947.18809
 -16549471.32509      1348.88709        56.43809
  23404407.21908  -6914263.63508     -1970.88108        45.00008  23404410.21908
  -5150248.20108     -1535.75208        48.37508
  22483381.65608 -14207005.38608      -607.10408        42.50008  22483383.25008
 -10835935.02008      -473.06808        43.50008
  21697104.09408 -18021647.32708     -1350.94008        46.68808  21697104.71908
 -13808163.93608     -1052.68008        49.06208
  20222715.21908 -23866741.03708     -1190.97708        46.81208  20222715.21909
 -18362109.90709      -928.03409        53.93809
  23201811.31208  -9843363.51808     -2293.96508        44.56208  23201818.62508
  -7436019.34008     -1787.50508        47.93808
  22695081.68808 -13339892.40108      2971.84608        49.25008  22695084.68809
 -10160914.24609      2315.72409        51.50009
  23795650.18808  -6318520.17508     -3258.96208        44.00008  23795657.15608
  -4689576.47908     -2539.45108        48.56208
  24750897.50008  -2089245.73308      3799.69708        42.00008  24750909.21908
  -1386615.10308      2960.80308        45.68808
 25  1 27  0 15  0.0000000  0  9G10G15G16G18G23G26G27G29G32
  20827106.18809 -21591763.17809      1715.74209        54.06209  20827108.96909
 -16589756.89309      1336.94209        56.12509
  23415697.21908  -6854940.07908     -1983.99908        46.37508  23415698.84408
  -5104022.16008     -1545.97308        47.50008
  22486897.59408 -14188528.06108      -624.68508        42.37508  22486899.46908
 -10821537.13208      -486.76808        43.43808
  21704831.68808 -17981037.86608     -1356.25508        46.43808  21704832.78108
 -13776520.24408     -1056.82208        48.81208
  20229553.06208 -23830806.67408     -1204.45808        46.62508  20229553.34409
 -18334109.12209      -938.53909        53.62509
  23214930.25008  -9774423.77308     -2301.98008        44.93808  23214937.43808
  -7382300.24708     -1793.75108        47.68808
  22678137.31208 -13428933.98708      2964.31408        49.12508  22678140.65609
 -10230297.24109      2309.85509        51.68809
  23814276.12508  -6220645.85908     -3265.96208        45.18808  23814282.40608
  -4613311.10008     -2544.90508        48.37508
  24729200.46908  -2203262.99908      3801.47208        41.81208  24729211.96908
  -1475459.45108      2962.18608        45.12508
 25  1 27  0 15 30.0000000  0  9G10G15G16G18G23G26G27G29G32
  20817355.62509 -21643003.11309      1700.30009        54.25009  20817358.18809
 -16629684.10609      1324.90909        56.31209
  23427060.59408  -6795225.04408     -1996.95808        46.75008  23427062.68808
  -5057491.07308     -1556.07108        47.81208
  22490513.78108 -14169527.82608      -642.07008        42.50008  22490515.21908
 -10806731.81908      -500.31508        43.56208
  21712589.75008 -17940267.72008     -1361.70208        46.31208  21712591.03108
 -13744751.36908     -1061.06608        48.93808
  20236466.96908 -23794472.44008     -1217.85908        46.56208  20236467.46909
 -18305796.76609      -948.98109        53.62509
  23228094.81208  -9705246.28708     -2309.82908        45.31208  23228101.81208
  -7328395.91108     -1799.86708        47.75008
  22661236.84408 -13517747.81208      2956.55508        49.62508  22661240.06209
 -10299502.78309      2303.80909        52.00009
  23832940.87508  -6122564.20008     -3272.85408        45.75008  23832946.37508
  -4536884.14608     -2550.27608        47.81208
  24707494.34408  -2317330.96908      3803.14008        44.75008  24707504.53108
  -1564343.45008      2963.48508        42.43808
 25  1 27  0 16  0.0000000  0  9G10G15G16G18G23G26G27G29G32
  20807692.75009 -21693782.69909      1685.02209        54.00009  20807695.09409
 -16669252.59109      1313.00409        56.25009
  23438497.96908  -6735120.47408     -2009.92408        46.68808  23438500.96908
  -5010656.40908     -1566.17508        48.25008
  22494228.43808 -14150006.10408      -659.47008        42.43808  22494230.03108
 -10791520.14108      -513.87308        43.50008
  21720378.78108 -17899336.63008     -1367.04808        46.06208  21720380.09408
 -13712857.07308     -1065.23208        49.00008
  20243457.12508 -23757740.24108     -1231.06208        46.18808  20243457.40609
 -18277174.29609      -959.26909        53.62509
  23241303.37508  -9635833.92808     -2317.53908        44.62508  23241310.28108
  -7274308.55208     -1805.87508        47.18808
  22644379.87508 -13606331.22908      2948.90608        49.37508  22644383.09409
 -10368528.77609      2297.84909        52.06209
  23851643.53108  -6024276.89308     -3279.79008        44.06208  23851649.18808
  -4460296.93308     -2555.68108        46.37508
  24685778.43808  -2431447.13608      3804.54808        42.56208  24685788.71908
  -1653265.04108      2964.58308        42.68808
 25  1 27  0 16 30.0000000  0  9G10G15G16G18G23G26G27G29G32
  20798117.25009 -21744101.60909      1669.76309        54.31209  20798119.90609
 -16708462.11709      1301.11409        56.43809
  23450009.31208  -6674627.73408     -2022.64208        46.81208  23450012.71908
  -4963519.32308     -1576.08408        49.31208
  22498042.84408 -14129964.11308      -676.62408        42.87508  22498043.81208
 -10775903.06008      -527.23908        43.68808
  21728198.68808 -17858244.51808     -1372.23108        46.68808  21728199.68808
 -13680837.31908     -1069.27108        49.06208
  20250522.43808 -23720612.10208     -1244.00108        46.50008  20250522.71909
 -18248243.30709      -969.35209        53.50009
  23254556.40608  -9566189.71308     -2325.06108        44.56208  23254563.18808
  -7220040.53308     -1811.73608        46.87508
  22627567.56208 -13694681.61608      2941.25208        49.68808  22627570.15609
 -10437373.19509      2291.88509        52.00009
  23870385.62508  -5925785.57908     -3286.28208        43.81208  23870392.37508
  -4383550.78308     -2560.73908        47.37508
  24664053.84408  -2545608.68508      3806.27008        42.56208  24664065.00008
  -1742221.89308      2965.92408        44.50008
 25  1 27  0 17  0.0000000  0  9G10G15G16G18G23G26G27G29G32
  20788629.34409 -21793959.67209      1654.24809        54.06209  20788632.15609
 -16747312.53709      1289.02409        56.37509
  23461594.31208  -6613748.93708     -2035.64708        47.12508  23461597.71908
  -4916081.41408     -1586.21808        49.06208
  22501955.37508 -14109403.50808      -693.99908        42.75008  22501957.06208
 -10759881.87308      -540.77808        43.56208
  21736048.84408 -17816991.39608     -1377.77808        46.43808  21736050.03108
 -13648692.08908     -1073.59408        48.93808
  20257662.62508 -23683090.22408     -1257.31208        46.31208  20257662.90609
 -18219005.50609      -979.72409        53.31209
  23267853.18808  -9496316.82808     -2333.03008        44.75008  23267860.37508
  -7165594.33508     -1817.94508        47.56208
  22610799.25008 -13782796.56708      2933.18808        49.37508  22610802.59409
 -10506034.15509      2285.60109        52.12509
  23889168.06208  -5827091.96308     -3293.15208        45.06208  23889174.12508
  -4306647.01708     -2566.09208        48.25008
  24642322.03108  -2659813.11208      3807.47308        43.50008  24642333.12508
  -1831212.10608      2966.86208        45.93808
 25  1 27  0 17 30.0000000  0  9G10G15G16G18G23G26G27G29G32
  20779229.34409 -21843356.45009      1638.92309        54.06209  20779232.12509
 -16785803.50509      1277.08309        56.43809
  23473251.81208  -6552485.95408     -2048.42008        47.56208  23473255.43808
  -4868344.13208     -1596.17208        48.00008
  22505966.06208 -14088325.46108      -711.13808        42.62508  22505967.40608
 -10743457.47908      -554.13308        43.56208
  21743929.71908 -17775576.98208     -1383.27408        46.43808  21743930.78108
 -13616421.18808     -1077.87608        48.75008
  20264877.59408 -23645176.51308     -1270.18808        46.43808  20264877.75009
 -18189462.36709      -989.75709        53.31209
  23281192.75008  -9426218.13308     -2340.31508        44.50008  23281199.96908
  -7110972.17908     -1823.62208        47.43808
  22594076.96908 -13870673.33408      2925.23908        49.62508  22594080.12509
 -10574509.52009      2279.40709        52.12509
  23907987.21908  -5728197.98608     -3299.87508        45.25008  23907992.87508
  -4229587.12608     -2571.33208        47.93808
  24620581.50008  -2774057.39608      3808.80108        44.56208  24620591.84408
  -1920233.39908      2967.89708        43.87508
 25  1 27  0 18  0.0000000  0  9G10G15G16G18G23G26G27G29G32
  20769916.93809 -21892291.78209      1623.64309        54.00009  20769920.12509
 -16823934.90909      1265.17609        56.68809
  23484983.65608  -6490840.55808     -2060.99108        47.75008  23484986.12508
  -4820308.81808     -1605.96708        47.75008
  22510075.81208 -14066731.46608      -728.40108        42.56208  22510076.93808
 -10726631.04508      -567.58508        43.87508
  21751841.37508 -17734001.36808     -1388.46208        46.31208  21751842.68808
 -13584024.66408     -1081.91808        49.18808
  20272166.43808 -23606873.15308     -1283.03208        46.50008  20272166.62509
 -18159615.60609      -999.76509        53.43809
  23294574.62508  -9355896.78408     -2347.71708        43.93808  23294581.75008
  -7056176.56808     -1829.39008        47.25008
  22577400.56208 -13958309.49608      2917.34108        49.62508  22577403.84409
 -10642797.40209      2273.25309        52.50009
  23926843.90608  -5629105.06508     -3306.14508        43.81208  23926849.78108
  -4152372.18208     -2576.21708        46.87508
  24598834.00008  -2888339.07508      3810.20308        42.87508  24598844.06208
  -2009283.87908      2968.98908        42.81208
 25  1 27  0 18 30.0000000  0  9G10G15G16G18G23G26G27G29G32
  20760692.87509 -21940765.13009      1608.03509        53.87509  20760695.93809
 -16861706.33209      1253.01409        56.50009
  23496786.15608  -6428814.23208     -2073.93308        46.75008  23496789.15608
  -4771976.68908     -1616.05208        47.31208
  22514282.90608 -14044623.05608      -745.67908        42.87508  22514283.90608
 -10709403.77508      -581.04808        43.62508
  21759783.81208 -17692264.02308     -1393.98208        46.06208  21759784.90608
 -13551502.11008     -1086.22008        48.87508
  20279529.15608 -23568181.92308     -1296.30108        46.31208  20279529.37509
 -18129466.62309     -1010.10509        53.18809
  23307997.90608  -9285355.50808     -2355.04408        44.62508  23308004.75008
  -7001209.47808     -1835.09908        46.56208
  22560770.03108 -14045702.12308      2908.92608        49.25008  22560773.37509
 -10710895.51509      2266.69509        52.43809
  23945737.75008  -5529814.84508     -3313.01008        43.00008  23945744.03108
  -4075003.53308     -2581.56608        46.37508
  24577080.21908  -3002655.14208      3810.82508        42.18808  24577090.81208
  -2098361.16508      2969.47408        43.31208
 25  1 27  0 19  0.0000000  0  9G10G15G16G18G23G26G27G29G32
  20751556.78109 -21988776.54009      1592.69309        53.93809  20751559.65609
 -16899117.79909      1241.05909        56.62509
  23508662.56208  -6366409.11808     -2086.47508        47.18808  23508664.31208
  -4723349.42908     -1625.82408        47.50008
  22518587.59408 -14022001.58108      -762.55108        42.81208  22518588.93808
 -10691776.69608      -594.19608        43.75008
  21767756.75008 -17650365.19808     -1399.28008        46.12508  21767758.00008
 -13518853.71808     -1090.34808        48.87508
  20286965.18808 -23529105.21108     -1308.99908        46.43808  20286965.25009
 -18099017.25209     -1019.99909        53.37509
  23321462.68808  -9214597.69508     -2362.12908        43.81208  23321470.37508
  -6946073.71008     -1840.62008        47.56208
  22544186.43808 -14132848.96808      2900.70308        49.06208  22544189.81209
 -10778802.10109      2260.28809        52.87509
  23964671.03108  -5430329.24908     -3319.37308        44.93808  23964676.40608
  -3997482.64708     -2586.52408        47.18808
  24555321.18808  -3117003.01408      3812.17508        44.68808  24555331.09408
  -2187463.15808      2970.52608        44.68808
 25  1 27  0 19 30.0000000  0  9G10G15G16G18G23G26G27G29G32
  20742508.71909 -22036325.60809      1577.15809        54.25009  20742511.28109
 -16936169.01409      1228.95409        56.56209
  23520608.28108  -6303626.97808     -2099.05008        46.06208  23520611.56208
  -4674428.36108     -1635.62408        48.06208
  22522989.37508 -13998868.91908      -779.54808        42.93808  22522991.00008
 -10673751.29208      -607.44008        43.81208
  21775761.09408 -17608304.60608     -1404.84908        46.62508  21775761.93808
 -13486079.30208     -1094.68708        48.87508
  20294473.93808 -23489644.89808     -1321.79008        46.50008  20294474.50009
 -18068268.98809     -1029.96609        53.25009
  23334967.90608  -9143626.17008     -2369.40708        43.62508  23334976.37508
  -6890771.49008     -1846.29108        47.43808
  22527650.56208 -14219747.27308      2892.25808        49.50008  22527653.46909
 -10846515.03509      2253.70809        52.50009
  23983639.28108  -5330650.01008     -3325.87908        44.43808  23983645.56208
  -3919810.87208     -2591.59408        47.50008
  24533555.31208  -3231379.85808      3812.91008        44.50008  24533565.71908
  -2276587.78108      2971.09908        45.68808
 25  1 27  0 20  0.0000000  0  9G10G15G16G18G23G26G27G29G32
  20733548.21909 -22083412.09809      1561.89909        54.00009  20733551.03109
 -16972859.76509      1217.06409        56.75009
  23532626.93808  -6240469.55108     -2111.30408        44.93808  23532630.93808
  -4625214.90008     -1645.17208        48.75008
  22527488.62508 -13975226.62708      -796.39408        42.56208  22527490.00008
 -10655328.80108      -620.56708        44.00008
  21783795.71908 -17566082.02808     -1410.13408        46.25008  21783796.78108
 -13453178.64908     -1098.80608        49.06208
  20302055.84408 -23449803.03408     -1334.37508        46.31208  20302056.00009
 -18037223.40409     -1039.77309        53.18809
  23348514.71908  -9072443.94708     -2376.10608        44.43808  23348521.78108
  -6835305.03408     -1851.51108        47.25008
  22511161.96908 -14306394.36408      2883.99208        49.18808  22511165.12509
 -10914032.20109      2247.26609        52.75009
  24002643.12508  -5230778.42308     -3332.11908        42.68808  24002650.31208
  -3841989.22808     -2596.45708        47.12508
  24511784.21908  -3345782.98708      3813.76008        41.93808  24511794.62508
  -2365732.83808      2971.76108        44.43808
 25  1 27  0 20 30.0000000  0  9G10G15G16G18G23G26G27G29G32
  20724676.06209 -22130035.94609      1546.44309        54.18809  20724678.78109
 -17009190.01009      1205.02009        56.68809
  23544716.53108  -6176938.75008     -2123.80908        45.18808  23544719.81208
  -4575710.46708     -1654.91608        47.93808
  22532083.40608 -13951076.14008      -813.37608        42.18808  22532085.78108
 -10636510.28908      -633.80008        43.87508
  21791861.21908 -17523697.51008     -1415.36108        46.25008  21791862.25008
 -13420151.79608     -1102.87908        48.81208
  20309709.65608 -23409581.85408     -1346.92408        46.37508  20309709.93809
 -18005882.23509     -1049.55109        53.18809
  23362099.71908  -9001054.18508     -2383.01508        44.43808  23362107.06208
  -6779676.84608     -1856.89508        46.93808
  22494721.50008 -14392787.80608      2875.64508        49.12508  22494725.06209
 -10981351.70709      2240.76209        52.75009
  24021685.00008  -5130716.54408     -3338.60108        44.06208  24021692.28108
  -3764019.30708     -2601.50708        47.06208
  24490010.25008  -3460209.75708      3814.63908        43.75008  24490019.40608
  -2454896.35308      2972.44608        42.87508
 25  1 27  0 21  0.0000000  0  9G10G15G16G18G23G26G27G29G32
  20715891.75009 -22176196.95409      1530.95209        54.12509  20715894.68809
 -17045159.61209      1192.95009        56.50009
  23556876.68808  -6113036.41908     -2136.30608        45.68808  23556880.31208
  -4525916.53208     -1664.65408        48.25008
  22536775.84408 -13926419.05608      -830.36608        42.18808  22536778.00008
 -10617297.04308      -647.03908        43.56208
  21799957.68808 -17481150.83308     -1420.94008        46.31208  21799958.68808
 -13386998.62108     -1107.22608        48.62508
  20317435.09408 -23368983.40208     -1359.54608        46.18808  20317435.56209
 -17974247.11409     -1059.38609        53.00009
  23375723.87508  -8929459.93208     -2389.94408        44.31208  23375731.21908
  -6723889.32108     -1862.29408        46.81208
  22478330.59408 -14478924.95308      2866.89508        49.43808  22478333.78109
 -11048471.51709      2233.94409        52.81209
  24040762.43808  -5030466.01508     -3344.99808        43.93808  24040768.96908
  -3685902.37508     -2606.49208        46.50008
  24468231.53108  -3574657.23108      3815.34908        44.56208  24468240.62508
  -2544076.04008      2972.99908        43.75008
 25  1 27  0 21 30.0000000  0  9G10G15G16G18G23G26G27G29G32
  20707195.68809 -22221894.88809      1515.46409        54.06209  20707198.68809
 -17080768.36509      1180.88109        56.81209
  23569107.81208  -6048764.47508     -2148.66508        46.56208  23569111.15608
  -4475834.62408     -1674.28408        48.81208
  22541564.59408 -13901256.88208      -847.09708        42.37508  22541565.62508
 -10597690.21708      -660.07608        43.62508
  21808084.81208 -17438441.85708     -1426.32608        46.06208  21808086.21908
 -13353718.95508     -1111.42308        48.93808
  20325232.18808 -23328009.69708     -1372.10908        46.18808  20325232.59409
 -17942319.57709     -1069.17609        53.12509
  23389386.00008  -8857664.14508     -2396.68508        43.93808  23389393.59408
  -6667944.77008     -1867.54608        46.81208
  22461988.25008 -14564803.12108      2858.12008        49.50008  22461991.46909
 -11115389.52009      2227.10709        53.06209
  24059876.00008  -4930028.48508     -3351.01808        43.12508  24059881.93808
  -3607639.72508     -2611.18308        46.43808
  24446449.68808  -3689122.65808      3815.85208        44.87508  24446459.59408
  -2633269.68008      2973.39108        46.31208
 25  1 27  0 22  0.0000000  0  9G10G15G16G18G23G26G27G29G32
  20698587.75009 -22267129.59109      1499.97809        54.00009  20698590.75009
 -17116016.16509      1168.81409        56.81209
  23581408.25008  -5984124.44408     -2160.79608        46.37508  23581410.43808
  -4425465.84608     -1683.73708        46.93808
  22546448.40608 -13875591.57908      -863.73008        42.43808  22546449.81208
 -10577691.34608      -673.03708        43.56208
  21816243.21908 -17395570.38308     -1431.91208        46.06208  21816244.06208
 -13320312.67808     -1115.77508        48.75008
  20333100.34408 -23286662.84508     -1384.32608        46.25008  20333100.78109
 -17910101.27909     -1078.69609        53.06209
  23403086.50008  -8785669.84908     -2403.12008        43.75008  23403093.62508
  -6611845.52808     -1872.56108        46.62508
  22445695.87508 -14650419.75008      2849.50408        49.75008  22445699.37509
 -11182103.72409      2220.39309        53.31209
  24079024.06208  -4829405.76808     -3357.21708        43.43808  24079030.62508
  -3529232.79508     -2616.01308        46.68808
  24424662.53108  -3803603.28208      3816.26508        41.93808  24424674.46908
  -2722475.12008      2973.71308        46.06208
 25  1 27  0 22 30.0000000  0  9G10G15G16G18G23G26G27G29G32
  20690068.15609 -22311900.93209      1484.77509        54.31209  20690070.93809
 -17150902.91109      1156.96809        56.75009
  23593779.28108  -5919118.68808     -2172.90508        47.18808  23593781.59408
  -4374812.08908     -1693.17308        47.68808
  22551427.59408 -13849424.66208      -880.37608        42.18808  22551429.53108
 -10557301.61808      -686.00708        43.68808
  21824432.31208 -17352536.25908     -1437.22408        46.18808  21824433.21908
 -13286779.65108     -1119.91508        48.37508
  20341039.21908 -23244944.91808     -1396.74608        46.50008  20341039.43809
 -17877593.84609     -1088.37309        52.93809
  23416823.25008  -8713480.06208     -2409.49008        43.31208  23416831.43808
  -6555593.99908     -1877.52508        46.81208
  22429454.00008 -14735772.13608      2840.64908        49.93808  22429457.28109
 -11248612.03709      2213.49309        53.12509
  24098207.00008  -4728599.66008     -3363.28408        43.68808  24098214.25008
  -3450682.97008     -2620.74008        47.37508
  24402875.93808  -3918096.25508      3816.63608        43.50008  24402886.06208
  -2811690.21208      2974.00208        44.31208
 25  1 27  0 23  0.0000000  0  9G10G15G16G18G23G26G27G29G32
  20681636.96909 -22356208.73609      1469.25509        54.31209  20681639.46909
 -17185428.44409      1144.87409        56.81209
  23606218.43808  -5853748.81708     -2185.00708        46.81208  23606221.34408
  -4323874.61408     -1702.60308        48.68808
  22556502.59408 -13822757.72908      -897.17008        42.37508  22556504.50008
 -10536522.26608      -699.09408        44.00008
  21832652.56208 -17309339.23308     -1442.61708        46.12508  21832653.40608
 -13253119.69808     -1124.11708        48.56208
  20349048.03108 -23202857.95708     -1408.94008        46.50008  20349048.25009
 -17844798.83509     -1097.87609        52.93809
  23430598.18808  -8641097.78408     -2415.95908        44.37508  23430605.65608
  -6499192.45808     -1882.56608        47.00008
  22413262.96909 -14820857.64709      2831.66509        50.12509  22413265.96909
 -11314912.38909      2206.49209        53.18809
  24117424.50008  -4627611.85008     -3369.35108        43.43808  24117431.34408
  -3371991.51808     -2625.46808        47.00008
  24381087.75008  -4032598.67108      3816.82608        45.00008  24381096.40608
  -2900912.69808      2974.15008        43.62508
 25  1 27  0 23 30.0000000  0  9G10G15G16G18G23G26G27G29G32
  20673293.59409 -22400053.00409      1453.67709        54.18809  20673296.03109
 -17219592.78909      1132.73509        56.62509
  23618727.15608  -5788017.01508     -2197.11708        46.75008  23618730.31208
  -4272655.08608     -1712.03908        48.75008
  22561671.84408 -13795592.38908      -913.71308        42.37508  22561673.59408
 -10515354.52908      -711.98408        43.68808
  21840903.78108 -17265979.29708     -1448.19308        45.93808  21840904.78108
 -13219332.79808     -1128.46208        48.43808
  20357127.06208 -23160404.19108     -1421.27008        46.43808  20357127.00009
 -17811718.01809     -1107.48309        52.75009
  23444408.50008  -8568526.19308     -2422.14608        44.43808  23444415.68808
  -6442643.40208     -1887.38608        46.93808
  22397122.56208 -14905673.78108      2822.67808        49.87508  22397125.84409
 -11381002.83309      2199.49009        53.12509
  24136675.93808  -4526444.19008     -3375.21208        42.87508  24136682.50008
  -3293159.94608     -2630.03608        45.50008
  24359296.93808  -4147107.90808      3816.98708        44.00008  24359306.93808
  -2990140.50208      2974.27608        45.87508
 25  1 27  0 24  0.0000000  0  9G10G15G16G18G23G26G27G29G32
  20665038.46909 -22443433.58709      1438.34709        54.37509  20665040.90609
 -17253395.82409      1120.79009        56.75009
  23631303.12508  -5721925.10408     -2208.99708        46.43808  23631307.37508
  -4221154.99808     -1721.29608        48.68808
  22566936.21908 -13767930.47608      -930.34708        42.50008  22566937.46908
 -10493799.88408      -724.94508        43.81208
  21849185.93808 -17222456.24108     -1453.43508        46.12508  21849187.06208
 -13185418.78608     -1132.54708        48.62508
  20365275.00008 -23117585.66608     -1433.30608        46.62508  20365275.40609
 -17778352.96509     -1116.86209        52.87509
  23458253.28108  -8495768.21208     -2428.34508        43.18808  23458260.75008
  -6385949.11708     -1892.21708        46.37508
  22381034.59409 -14990217.86709      2813.64709        50.12509  22381037.65609
 -11446881.30909      2192.45309        53.25009
  24155963.18808  -4425098.14308     -3381.10108        43.93808  24155969.25008
  -3214189.34208     -2634.62408        46.18808
  24337503.93808  -4261621.14408      3817.42408        42.31208  24337515.93808
  -3079371.29908      2974.61608        46.93808
 25  1 27  0 24 30.0000000  0  9G10G15G16G18G23G26G27G29G32
  20656871.62509 -22486350.42709      1422.88609        54.31209  20656874.12509
 -17286837.49709      1108.74209        56.62509
  23643949.43808  -5655474.66708     -2220.91108        47.06208  23643952.00008
  -4169375.51308     -1730.58008        47.81208
  22572294.06208 -13739773.92508      -946.73308        42.37508  22572295.75008
 -10471859.78008      -737.71408        43.75008
  21857498.87508 -17178769.85808     -1458.88408        45.68808  21857500.50008
 -13151377.52108     -1136.79308        48.37508
  20373492.09408 -23074404.43208     -1445.38808        46.37508  20373492.37509
 -17744705.28609     -1126.27609        52.62509
  23472133.53108  -8422826.91308     -2434.33308        43.31208  23472140.65608
  -6329111.98408     -1896.88308        45.50008
  22364997.96908 -15074487.24008      2804.36808        49.75008  22365001.62509
 -11512545.72609      2185.22209        53.12509
  24175281.46908  -4323575.54408     -3387.00008        42.81208  24175289.56208
  -3135081.19708     -2639.22008        47.31208
  24315713.56208  -4376135.37708      3817.21708        44.18808  24315724.31208
  -3168602.89008      2974.45508        46.56208
 25  1 27  0 25  0.0000000  0  9G10G15G16G18G23G26G27G29G32
  20648793.00009 -22528803.54309      1407.33409        54.00009  20648795.59409
 -17319917.83309      1096.62409        56.62509
  23656662.59408  -5588668.04408     -2232.81508        47.18808  23656665.25008
  -4117318.47908     -1739.85608        47.87508
  22577745.93808 -13711124.48708      -962.96608        42.18808  22577747.68808
 -10449535.62008      -750.36308        43.62508
  21865843.56208 -17134920.08308     -1464.54808        45.75008  21865844.75008
 -13117208.93808     -1141.20708        48.31208
  20381777.87508 -23030862.74808     -1457.49508        46.43808  20381778.28109
 -17710776.73409     -1135.71009        52.68809
  23486048.75008  -8349705.41808     -2440.58608        43.68808  23486055.93808
  -6272134.43008     -1901.75508        46.18808
  22349015.12508 -15158479.42708      2795.07308        49.62508  22349018.46909
 -11577994.13909      2177.97909        53.37509
  24194633.50008  -4221878.22908     -3392.79808        42.68808  24194642.34408
  -3055836.90808     -2643.73908        47.43808
  24293922.43808  -4490647.96808      3816.90208        44.37508  24293932.28108
  -3257833.24508      2974.20908        44.43808
 25  1 27  0 25 30.0000000  0  9G10G15G16G18G23G26G27G29G32
  20640802.56209 -22570792.63209      1391.99009        54.18809  20640805.34409
 -17352636.59609      1084.66709        56.87509
  23669442.09408  -5521506.52808     -2244.45308        45.87508  23669445.65608
  -4064984.93008     -1748.92508        48.37508
  22583291.28108 -13681983.56608      -979.35108        42.37508  22583293.15608
 -10426828.48508      -763.13008        44.00008
  21874218.96908 -17090906.48308     -1469.81908        45.81208  21874220.25008
 -13082912.71308     -1145.31408        48.43808
  20390131.90608 -22986962.41408     -1469.30708        46.75008  20390132.12509
 -17676568.72509     -1144.91409        52.81209
  23499997.28108  -8276406.56808     -2446.21608        43.75008  23500004.81208
  -6215018.70308     -1906.14208        46.75008
  22333085.31208 -15242191.43008      2785.78408        50.00008  22333088.43809
 -11643224.25309      2170.74009        53.50009
  24214019.43808  -4120007.81608     -3398.72808        43.00008  24214026.81208
  -2976457.76408     -2648.36008        45.87508
  24272131.78108  -4605155.82008      3816.84808        43.43808  24272141.40608
  -3347059.87908      2974.16708        44.37508
 25  1 27  0 26  0.0000000  0 10G08G10G15G16G18G23G26G27G29G32
  25107505.87507    941788.98707      3579.66807        37.81207  25107513.78108
    968628.93608      2789.35208        41.75008
  20632900.59409 -22612318.02509      1376.54109        54.31209  20632903.31209
 -17384994.03309      1072.62909        56.81209
  23682289.03108  -5453992.65408     -2256.34508        45.25008  23682292.03108
  -4012376.81508     -1758.19108        46.81208
  22588929.78108 -13652353.19008      -995.86408        42.06208  22588932.15608
 -10403739.96508      -775.99808        44.06208
  21882625.87508 -17046729.15508     -1475.35208        45.93808  21882627.00008
 -13048488.88108     -1149.62508        48.31208
  20398553.75008 -22942705.87408     -1481.11108        46.81208  20398553.87509
 -17642083.13609     -1154.11209        52.68809
  23513978.93808  -8202933.62308     -2451.91208        44.06208  23513987.18808
  -6157767.32608     -1910.58008        47.50008
  22317209.09408 -15325621.00708      2776.35708        49.93808  22317212.15609
 -11708234.28309      2163.39609        53.31209
  24233436.56208  -4017966.41608     -3404.04808        41.68808  24233445.06208
  -2896945.30108     -2652.50508        44.87508
  24250343.25008  -4719656.45108      3816.67508        43.62508  24250353.34408
  -3436280.80908      2974.03208        46.12508
 25  1 27  0 26 30.0000000  0 10G08G10G15G16G18G23G26G27G29G32
  25087075.81207    834426.58107      3577.85907        37.50007  25087083.18808
    884970.03308      2787.94208        42.87508
  20625086.96909 -22653379.66109      1360.92309        54.25009  20625089.68809
 -17416990.09809      1060.45909        56.87509
  23695203.71908  -5386128.38008     -2268.09108        45.93808  23695207.12508
  -3959495.62508     -1767.34408        46.37508
  22594660.71908 -13622235.32408     -1012.07008        41.81208  22594663.03108
 -10380271.55908      -788.62608        43.75008
  21891063.75008 -17002387.97508     -1480.92508        45.81208  21891065.06208
 -13013937.37708     -1153.96808        48.37508
  20407042.43808 -22898095.25408     -1492.95908        46.43808  20407042.93809
 -17607321.63709     -1163.34509        52.56209
  23527992.87508  -8129289.68008     -2457.76408        43.31208  23528000.75008
  -6100382.68008     -1915.14108        46.62508
  22301387.40609 -15408765.45509      2766.58009        50.06209  22301390.46909
 -11773022.13509      2155.77609        53.43809
  24252887.81208  -3915755.82808     -3410.04908        42.25008  24252895.84408
  -2817301.07508     -2657.18108        46.06208
  24228556.56208  -4834146.94108      3816.03008        45.00008  24228566.28108
  -3525493.83908      2973.53008        46.93808
 25  1 27  0 27  0.0000000  0 10G08G10G15G16G18G23G26G27G29G32
  25066654.31207    727111.88207      3576.62807        38.12507  25066662.40608
    801348.33308      2786.98308        43.37508
  20617361.40609 -22693977.46809      1345.69109        54.12509  20617364.12509
 -17448624.74509      1048.59009        56.93809
  23708184.43808  -5317915.35808     -2279.39008        46.50008  23708187.65608
  -3906342.68708     -1776.14808        46.75008
  22600484.90608 -13591631.60108     -1028.13508        42.00008  22600486.84408
 -10356424.60208      -801.14408        43.56208
  21899532.96908 -16957882.59208     -1486.05208        45.62508  21899534.21908
 -12979257.93508     -1157.96308        48.50008
  20415598.96908 -22853132.50008     -1504.43608        46.56208  20415599.31209
 -17572285.75709     -1172.28809        52.75009
  23542038.12508  -8055477.59408     -2463.01308        42.12508  23542046.93808
  -6042867.03408     -1919.23108        46.18808
  22285619.93808 -15491622.06508      2757.20008        49.81208  22285623.43809
 -11837585.70709      2148.46709        53.25009
  24272371.06208  -3813377.85408     -3415.19508        43.81208  24272378.75008
  -2737526.41708     -2661.19108        47.12508
  24206771.21908  -4948624.29508      3815.89408        44.68808  24206781.56208
  -3614696.64608      2973.42408        46.31208
 25  1 27  0 27 30.0000000  0 10G08G10G15G16G18G23G26G27G29G32
  25046242.78107    619847.01607      3574.38207        38.25007  25046250.59408
    717765.36908      2785.23308        43.31208
  20609724.12509 -22734111.42509      1330.02209        54.43809  20609726.84409
 -17479897.94909      1036.38109        57.06209
  23721231.50008  -5249356.00308     -2291.22808        47.06208  23721234.06208
  -3852919.91408     -1785.37208        46.56208
  22606400.59408 -13560544.25308     -1044.38708        42.12508  22606402.12508
 -10332200.77008      -813.80808        43.43808
  21908033.53108 -16913212.85308     -1491.88708        46.12508  21908034.65608
 -12944450.43108     -1162.51008        48.37508
  20424221.46908 -22807819.76608     -1516.36208        46.68808  20424222.25009
 -17536977.16709     -1181.58109        52.81209
  23556115.84408  -7981500.43808     -2468.82808        42.37508  23556124.56208
  -5985222.78808     -1923.76208        46.12508
  22269908.25009 -15574188.19409      2747.20509        50.25009  22269911.59409
 -11901922.93509      2140.67909        53.37509
  24291883.68808  -3710834.04308     -3420.96708        43.06208  24291892.12508
  -2657622.54808     -2665.68808        46.93808
  24184989.71908  -5063085.76908      3815.00208        43.81208  24184999.43808
  -3703887.08008      2972.72908        45.31208
 25  1 27  0 28  0.0000000  0 10G08G10G15G16G18G23G26G27G29G32
  25025840.18807    512634.17907      3573.20607        36.68807  25025848.21908
    634223.02608      2784.31608        42.68808
  20602175.25009 -22773781.61009      1314.55809        54.31209  20602177.90609
 -17510809.76509      1024.33109        57.00009
  23734343.71908  -5180451.58508     -2302.58508        46.12508  23734346.78108
  -3799228.21008     -1794.22208        46.81208
  22612407.71908 -13528974.91508     -1060.25108        41.87508  22612410.15608
 -10307601.36208      -826.17008        43.56208
  21916564.87508 -16868378.60408     -1497.21408        45.62508  21916566.06208
 -12909514.72208     -1166.66108        48.18808
  20432910.56208 -22762159.20808     -1527.71508        46.62508  20432910.90609
 -17501397.51209     -1190.42709        52.68809
  23570225.75008  -7907361.31208     -2474.08908        44.06208  23570232.65608
  -5927452.28408     -1927.86208        45.50008
  22254252.46909 -15656461.20809      2737.53909        50.31209  22254255.68809
 -11966031.74109      2133.14709        53.56209
  24311428.56208  -3608126.02308     -3426.25708        41.56208  24311435.90608
  -2577590.69608     -2669.81108        44.43808
  24163211.71908  -5177528.49108      3814.23108        44.18808  24163221.00008
  -3793062.89208      2972.12808        45.18808
 25  1 27  0 28 30.0000000  0 10G08G10G15G16G18G23G26G27G29G32
  25005449.90607    405475.54707      3570.75907        38.37507  25005456.53108
    550722.86608      2782.41008        42.43808
  20594714.37509 -22812988.10509      1299.08209        54.31209  20594717.09409
 -17541360.27109      1012.27209        57.18809
  23747520.37508  -5111204.79008     -2313.90608        45.31208  23747524.06208
  -3745269.76308     -1803.04408        46.31208
  22618507.62508 -13496925.82808     -1076.43808        42.25008  22618508.93808
 -10282628.13308      -838.78308        43.62508
  21925127.90608 -16823379.64308     -1502.81008        45.87508  21925129.37508
 -12874450.67908     -1171.02108        48.50008
  20441665.28108 -22716152.92808     -1539.22908        46.56208  20441665.84409
 -17465548.49309     -1199.39909        52.87509
  23584363.96908  -7833063.26008     -2479.26308        43.93808  23584371.71908
  -5869557.94308     -1931.89308        46.06208
  22238652.40609 -15738438.47709      2727.57309        50.25009  22238655.53109
 -12029910.11409      2125.38209        53.43809
  24331004.90608  -3505255.89408     -3431.77708        43.68808  24331011.75008
  -2497432.49408     -2674.11208        44.37508
  24141438.37508  -5291949.59308      3813.62808        45.37508  24141448.21908
  -3882221.85808      2971.65808        47.12508
 25  1 27  0 29  0.0000000  0 10G08G10G15G16G18G23G26G27G29G32
  24985068.40607    298373.52707      3569.04107        39.31207  24985074.75008
    467266.80208      2781.07108        42.43808
  20587341.84409 -22851731.13009      1283.64009        54.25009  20587344.50009
 -17571549.62409      1000.23909        57.12509
  23760762.37508  -5041617.57108     -2325.25908        43.81208  23760765.78108
  -3691046.06308     -1811.89008        45.68808
  22624696.81208 -13464398.50008     -1092.06808        42.31208  22624698.46908
 -10257282.24208      -850.96208        43.56208
  21933722.68808 -16778215.90208     -1508.33508        45.93808  21933724.09408
 -12839258.24708     -1175.32608        48.50008
  20450485.37508 -22669803.20408     -1550.78908        46.62508  20450485.87509
 -17429431.85609     -1208.40709        52.87509
  23598531.87508  -7758609.47708     -2484.43408        42.68808  23598540.68808
  -5811542.29508     -1935.92208        46.81208
  22223109.50009 -15820117.50109      2717.53909        50.43809  22223112.78109
 -12093556.09009      2117.56309        53.56209
  24350612.18808  -3402225.47708     -3437.05108        44.37508  24350618.34408
  -2417149.40108     -2678.22108        45.00008
  24119669.31208  -5406346.34508      3812.72908        45.12508  24119678.87508
  -3971361.83408      2970.95808        47.62508
 25  1 27  0 29 30.0000000  0 10G08G10G15G16G18G23G26G27G29G32
  24964698.40607    191330.33907      3567.21707        38.00007  24964704.40608
    383856.54208      2779.64908        42.12508
  20580057.50009 -22890010.51309      1268.24509        54.25009  20580060.15609
 -17601377.69609       988.24309        57.06209
  23774068.65608  -4971691.44708     -2336.66008        43.43808  23774071.65608
  -3636558.28208     -1820.77408        43.93808
  22630978.09408 -13431394.84008     -1108.13208        42.43808  22630978.87508
 -10231565.20008      -863.48008        43.25008
  21942348.40608 -16732886.94108     -1513.83808        45.68808  21942349.65608
 -12803937.04408     -1179.61408        48.31208
  20459370.46908 -22623111.86908     -1561.96808        46.50008  20459370.75009
 -17393049.00009     -1217.11809        52.43809
  23612729.18808  -7684002.59608     -2489.40408        42.00008  23612738.65608
  -5753407.35308     -1939.79608        47.56208
  22207623.75009 -15901495.35909      2707.43409        50.43809  22207627.25009
 -12156967.37509      2109.68909        53.50009
  24370247.18808  -3299036.40608     -3442.38308        41.93808  24370255.68808
  -2336742.75008     -2682.37608        46.56208
  24097904.56208  -5520715.56608      3811.86008        44.00008  24097914.81208
  -4060480.34308      2970.28108        46.75008
 25  1 27  0 30  0.0000000  0 10G08G10G15G16G18G23G26G27G29G32
  24944338.87507     84348.38407      3565.23407        36.00007  24944347.25008
    300494.09808      2778.10508        42.31208
  20572861.09409 -22927826.54609      1252.72209        54.25009  20572863.96909
 -17630844.71709       976.14709        57.12509
  23787439.78108  -4901429.03008     -2347.68608        44.18808  23787442.43808
  -3581808.39408     -1829.36508        43.93808
  22637347.93808 -13397917.03608     -1123.78708        42.12508  22637349.93808
 -10205478.67008      -875.67808        43.56208
  21951005.59408 -16687392.77308     -1519.13108        45.68808  21951007.18808
 -12768487.12608     -1183.73808        48.37508
  20468320.12508 -22576081.32108     -1573.25408        46.50008  20468320.46909
 -17356401.85309     -1225.91209        52.50009
  23626955.15608  -7609246.00508     -2494.28708        42.93808  23626964.21908
  -5695155.74208     -1943.60008        46.87508
  22192195.93809 -15982569.62709      2697.29009        50.43809  22192198.37509
 -12220142.10109      2101.78409        53.12509
  24389913.15608  -3195690.63208     -3447.33408        42.00008  24389921.93808
  -2256213.98108     -2686.23408        45.56208
  24076146.93808  -5635054.63908      3810.93808        45.06208  24076155.50008
  -4149575.38308      2969.56208        45.56208
 25  1 27  0 30 30.0000000  0 10G08G10G15G16G18G23G26G27G29G32
  24923993.75007    -22570.03007      3563.26207        37.31207  24924000.43808
    217181.12908      2776.56808        41.31208
  20565753.15609 -22965179.27209      1237.39309        54.18809  20565756.00009
 -17659950.72209       964.20209        57.18809
  23800874.40608  -4830831.62008     -2358.84308        45.31208  23800878.12508
  -3526797.51408     -1838.05908        45.62508
  22643808.96908 -13363966.95808     -1139.59708        42.18808  22643810.84408
 -10179024.15908      -887.99808        43.81208
  21959694.34408 -16641733.09308     -1524.77108        45.75008  21959695.81208
 -12732908.24208     -1188.13308        48.31208
  20477333.71908 -22528713.56308     -1584.53608        46.43808  20477334.34409
 -17319491.94409     -1234.70309        52.68809
  23641209.40608  -7534342.62608     -2499.18008        43.06208  23641218.18808
  -5636789.76008     -1947.41308        46.87508
  22176826.28109 -16063337.56609      2687.16609        50.68809  22176829.68809
 -12283078.12409      2093.89509        53.81209
  24409609.96908  -3092189.99808     -3452.49308        43.87508  24409617.37508
  -2175564.50008     -2690.25408        44.31208
  24054395.03108  -5749360.48608      3809.63908        45.43808  24054403.96908
  -4238644.58008      2968.55008        46.12508
 25  1 27  0 31  0.0000000  0 10G08G10G15G16G18G23G26G27G29G32
  24903660.68807   -129422.61507      3560.86207        39.50007  24903667.71908
    133919.35308      2774.69808        41.87508
  20558733.34409 -23002068.72609      1222.02409        54.12509  20558736.06209
 -17688695.73309       952.22609        57.00009
  23814371.87508  -4759901.20108     -2369.73408        43.93808  23814375.09408
  -3471527.15508     -1846.54608        44.75008
  22650358.12508 -13329546.62408     -1155.04208        41.56208  22650360.28108
 -10152203.19308      -900.03208        43.43808
  21968414.62508 -16595907.61108     -1530.24908        45.37508  21968416.37508
 -12697200.14908     -1192.40208        48.31208
  20486411.53108 -22481010.61308     -1595.64508        46.43808  20486411.81209
 -17282320.84009     -1243.35909        52.25009
  23655490.71908  -7459295.40508     -2503.86708        43.25008  23655498.68808
  -5578311.66608     -1951.06508        45.31208
  22161515.46909 -16143796.48109      2676.80709        50.50009  22161518.46909
 -12345773.35009      2085.82309        53.56209
  24429333.81208  -2988536.34808     -3457.52008        42.56208  24429342.06208
  -2094795.72708     -2694.17108        43.87508
  24032649.40608  -5863630.20808      3808.42808        44.43808  24032659.09408
  -4327685.58008      2967.60608        47.06208
 25  1 27  0 31 30.0000000  0 10G08G10G15G16G18G23G26G27G29G32
  24883341.37508   -236206.85908      3558.33508        41.18808  24883347.71908
     50710.91908      2772.72908        42.81208
  20551801.56209 -23038495.20509      1206.65809        54.25009  20551804.34409
 -17717079.98609       940.25309        57.12509
  23827931.25008  -4688640.50808     -2380.78108        42.81208  23827935.87508
  -3415999.45408     -1855.15408        45.31208
  22656997.00008 -13294658.16008     -1170.53008        41.56208  22656999.93808
 -10125017.48408      -912.10108        43.75008
  21977166.40608 -16549916.29408     -1535.66408        45.50008  21977168.28108
 -12661362.83408     -1196.62108        48.31208
  20495552.37508 -22432974.78708     -1606.63108        46.43808  20495553.00009
 -17244890.35409     -1251.92009        52.62509
  23669798.93808  -7384107.49908     -2508.51608        43.12508  23669806.53108
  -5519723.94008     -1954.68808        45.12508
  22146263.46909 -16223943.86409      2666.52809        50.43809  22146267.09409
 -12408225.82009      2077.81409        53.87509
  24449088.15608  -2884731.25408     -3462.54208        41.87508  24449095.90608
  -2013909.05108     -2698.08408        44.93808
  24010911.59408  -5977861.05308      3807.21908        44.62508  24010921.71908
  -4416696.28108      2966.66408        47.31208
 25  1 27  0 32  0.0000000  0 10G08G10G15G16G18G23G26G27G29G32
  24863034.18807   -342920.63607      3555.64207        39.25007  24863040.62508
    -32442.53108      2770.63008        43.56208
  20544957.93809 -23074458.89609      1191.07709        54.06209  20544960.59409
 -17745103.61609       928.11209        57.12509
  23841554.50008  -4617051.29108     -2391.80208        41.37508  23841559.18808
  -3360215.74208     -1863.74208        44.43808
  22663725.46908 -13259303.48708     -1186.38208        41.62508  22663727.50008
 -10097468.46308      -924.45308        43.31208
  21985950.62508 -16503758.91808     -1541.38408        45.68808  21985951.75008
 -12625396.10608     -1201.07908        48.43808
  20504756.25008 -22384608.21408     -1617.61708        46.25008  20504756.75009
 -17207202.12909     -1260.48109        52.43809
  23684132.75008  -7308781.96108     -2513.28608        42.56208  23684141.59408
  -5461028.98108     -1958.40508        46.50008
  22131071.93809 -16303777.04809      2655.83309        50.31209  22131075.03109
 -12470433.43709      2069.48009        53.87509
  24468871.00008  -2780776.77808     -3467.68108        43.12508  24468879.50008
  -1932905.97708     -2702.08908        46.50008
  23989182.59408  -6092050.07408      3805.57608        45.31208  23989191.37508
  -4505674.41508      2965.38408        46.18808
 25  1 27  0 32 30.0000000  0 10G08G10G15G16G18G23G26G27G29G32
  24842740.37507   -449561.88207      3553.72607        39.18807  24842746.59408
   -115539.45808      2769.13708        43.37508
  20538202.46909 -23109960.09809      1175.66709        54.50009  20538204.90609
 -17772766.89509       916.10409        57.31209
  23855241.18808  -4545135.53808     -2402.51508        41.12508  23855243.15608
  -3304177.61808     -1872.08908        43.31208
  22670541.59408 -13223484.81808     -1201.60608        41.75008  22670543.28108
 -10069557.91808      -936.31708        43.37508
  21994765.37508 -16457435.34308     -1546.88508        45.81208  21994766.84408
 -12589299.89808     -1205.36508        48.62508
  20514022.87508 -22335913.02908     -1628.65708        46.62508  20514023.37509
 -17169257.86909     -1269.08309        52.50009
  23698491.18808  -7233321.89308     -2517.48008        40.87508  23698502.65608
  -5402229.25508     -1961.67308        48.12508
  22115940.43809 -16383293.47109      2645.26409        50.56209  22115943.43809
 -12532394.26509      2061.24409        53.93809
  24488681.31208  -2676674.83108     -3472.46608        44.25008  24488689.28108
  -1851787.97008     -2705.81808        44.81208
  23967461.37508  -6206194.42808      3804.17708        45.18808  23967470.03108
  -4594617.81208      2964.29408        46.06208
 25  1 27  0 33  0.0000000  0 10G08G10G15G16G18G23G26G27G29G32
  24822459.87507   -556128.18107      3550.75007        38.37507  24822467.90608
   -198578.07308      2766.81808        43.56208
  20531534.71909 -23144998.91409      1160.17609        54.43809  20531537.25009
 -17800069.85909       904.03309        57.50009
  23868987.50008  -4472895.37808     -2413.39408        40.68808  23868990.56208
  -3247886.68008     -1880.56608        44.68808
  22677445.37508 -13187204.30908     -1217.03108        41.68808  22677447.62508
 -10041287.48408      -948.33608        43.50008
  22003612.34408 -16410945.34108     -1552.47308        46.00008  22003613.75008
 -12553074.00008     -1209.71908        48.62508
  20523351.21908 -22286891.43108     -1639.58008        46.43808  20523351.62509
 -17131059.25209     -1277.59509        52.56209
  23712877.65608  -7157730.28708     -2521.91208        42.75008  23712887.06208
  -5343327.03608     -1965.12608        48.56208
  22100869.53109 -16462490.53309      2634.58309        50.25009  22100872.87509
 -12594106.22409      2052.92109        54.18809
  24508518.65608  -2572427.08208     -3477.33408        42.18808  24508527.78108
  -1770556.32408     -2709.61108        45.00008
  23945749.28108  -6320291.25008      3802.40708        45.06208  23945758.12508
  -4683524.14608      2962.91508        47.18808
 25  1 27  0 33 30.0000000  0 10G08G10G15G16G18G23G26G27G29G32
  24802197.50008   -662616.86208      3548.46208        40.62508  24802204.12508
   -281556.12208      2765.03508        43.87508
  20524955.03109 -23179575.57209      1144.88309        54.62509  20524957.40609
 -17827012.69209       892.11609        57.31209
  23882795.87508  -4400332.72708     -2424.21608        40.25008  23882799.15608
  -3191344.49808     -1889.00008        45.18808
  22684437.28108 -13150464.01208     -1232.29208        41.81208  22684439.37508
 -10012658.77408      -960.22808        43.31208
  22012490.81208 -16364288.71408     -1557.99308        45.68808  22012492.40608
 -12516718.25008     -1214.02108        48.43808
  20532741.37508 -22237545.47208     -1650.14908        46.50008  20532741.81209
 -17092607.89009     -1285.83009        52.25009
  23727286.90608  -7082010.16308     -2526.06408        43.56208  23727296.46908
  -5284324.65508     -1968.36208        47.06208
  22085860.25009 -16541365.48509      2623.84309        50.68809  22085863.46909
 -12655567.20109      2044.55309        54.12509
  24528383.78108  -2468035.42208     -3482.00008        41.75008  24528391.78108
  -1689212.57008     -2713.24608        43.50008
  23924046.71908  -6434337.55908      3800.70608        45.31208  23924055.65608
  -4772391.10408      2961.58908        47.43808
 25  1 27  0 34  0.0000000  0 10G08G10G15G16G18G23G26G27G29G32
  24781947.37507   -769025.74207      3545.74007        40.00007  24781955.12508
   -364472.00908      2762.91408        43.68808
  20518463.12509 -23213690.24209      1129.60209        54.62509  20518465.78109
 -17853595.52009       880.20909        57.56209
  23896664.81208  -4327449.75408     -2434.59008        41.62508  23896668.28108
  -3134552.64708     -1897.08308        46.62508
  22691515.71908 -13113265.86208     -1247.30708        41.75008  22691517.93808
  -9983673.29008      -971.92808        43.50008
  22021400.81208 -16317465.16908     -1563.33308        45.68808  22021402.28108
 -12480232.42008     -1218.18108        48.31208
  20542193.06208 -22187877.26108     -1661.01308        46.68808  20542193.31209
 -17053905.41509     -1294.29609        52.25009
  23741719.71908  -7006164.55508     -2530.05108        42.75008  23741728.37508
  -5225224.44208     -1971.46908        45.31208
  22070913.31209 -16619915.69709      2612.98309        50.93809  22070915.59409
 -12716775.11209      2036.09109        54.00009
  24548276.75008  -2363501.90608     -3486.67208        43.06208  24548285.75008
  -1607758.29508     -2716.88708        45.93808
  23902353.84408  -6548330.39508      3799.00108        45.31208  23902363.06208
  -4861216.39408      2960.26108        47.12508
 25  1 27  0 34 30.0000000  0 10G08G10G15G16G18G23G26G27G29G32
  24761713.43807   -875352.57307      3542.73207        38.56207  24761721.59408
   -447323.92408      2760.57008        44.81208
  20512059.31209 -23247343.25609      1114.12609        54.62509  20512061.81209
 -17879818.64109       868.15009        57.43809
  23910593.90608  -4254248.21008     -2445.23908        41.93808  23910598.65608
  -3077512.65408     -1905.38108        47.62508
  22698681.12508 -13075612.10308     -1262.54608        41.81208  22698682.71908
  -9954332.81808      -983.80208        43.12508
  22030343.21908 -16270474.54908     -1569.18908        45.81208  22030344.40608
 -12443616.44808     -1222.74508        48.00008
  20551705.37508 -22137889.00508     -1671.51908        46.50008  20551706.00009
 -17014953.53809     -1302.48209        52.18809
  23756175.81208  -6930196.43108     -2534.30908        41.31208  23756184.56208
  -5166028.76508     -1974.78608        44.62508
  22056027.50009 -16698138.54209      2601.97009        50.93809  22056030.43809
 -12777727.96309      2027.50909        54.18809
  24568195.40608  -2258828.47308     -3491.41108        43.06208  24568204.40608
  -1526194.99908     -2720.58008        45.37508
  23880672.93808  -6662266.74308      3796.72608        45.68808  23880681.37508
  -4949997.72508      2958.48808        46.81208
 25  1 27  0 35  0.0000000  0 10G08G10G15G16G18G23G26G27G29G32
  24741497.34408   -981594.92708      3540.09808        40.68808  24741504.25008
   -530110.05108      2758.51808        45.12508
  20505743.03109 -23280534.85509      1098.77709        54.37509  20505745.68809
 -17905682.20709       856.19009        57.56209
  23924585.15608  -4180730.55808     -2455.72308        43.68808  23924588.93808
  -3020226.32308     -1913.55008        48.06208
  22705932.93808 -13037504.90708     -1277.65608        41.62508  22705934.62508
  -9924638.98608      -995.57608        43.12508
  22039316.96908 -16223316.66908     -1574.66608        45.50008  22039318.21908
 -12406870.09608     -1227.01208        48.12508
  20561278.34408 -22087582.79808     -1682.04308        46.37508  20561278.68809
 -16975753.92909     -1310.68309        52.00009
  23770655.03108  -6854108.85808     -2538.08108        41.93808  23770664.93808
  -5106740.06708     -1977.72508        46.50008
  22041204.93809 -16776031.45309      2590.97409        50.75009  22041207.71909
 -12838423.70109      2018.94109        54.06209
  24588139.87508  -2154016.72008     -3496.27008        41.00008  24588148.81208
  -1444523.92908     -2724.36608        43.62508
  23859002.06208  -6776143.81408      3795.03708        45.18808  23859010.78108
  -5038732.84708      2957.17108        46.68808
 25  1 27  0 35 30.0000000  0 10G08G10G15G16G18G23G26G27G29G32
  24721297.03108  -1087750.33608      3537.22708        42.06208  24721302.96908
   -612828.46008      2756.28108        44.37508
  20499514.50009 -23313265.26309      1083.40809        54.62509  20499517.34409
 -17931186.39509       844.21409        57.50009
  23938635.03108  -4106898.83308     -2466.47708        44.62508  23938638.50008
  -2962695.24608     -1921.93008        47.18808
  22713269.78108 -12998946.32008     -1292.87608        41.56208  22713272.34408
  -9894593.44208     -1007.43608        43.06208
  22048322.87508 -16175991.22508     -1580.32008        45.87508  22048324.40608
 -12369993.18208     -1231.41808        48.25008
  20570911.50008 -22036960.74408     -1692.60508        46.62508  20570911.90609
 -16936308.19209     -1318.91309        51.87509
  23785157.34408  -6777904.85208     -2541.98708        43.18808  23785167.46908
  -5047360.65008     -1980.76908        48.31208
  22026445.59409 -16853591.67309      2579.79709        51.25009  22026448.81209
 -12898860.20609      2010.23209        54.31209
  24608111.78108  -2049068.21908     -3500.62708        40.56208  24608120.71908
  -1362746.28008     -2727.76208        43.25008
  23837343.84408  -6889958.51708      3792.79808        45.75008  23837352.84408
  -5127419.35508      2955.42708        47.50008
 25  1 27  0 36  0.0000000  0 10G08G10G15G16G18G23G26G27G29G32
  24701112.03107  -1193816.36007      3534.25007        39.93807  24701118.93808
   -695477.19608      2753.96108        44.06208
  20493373.96909 -23345534.88409      1068.14209        54.56209  20493376.62509
 -17956331.53009       832.31809        57.56209
  23952743.87508  -4032754.95708     -2476.56008        44.93808  23952746.87508
  -2904920.90708     -1929.78708        45.81208
  22720693.31208 -12959938.97408     -1307.46808        41.62508  22720695.34408
  -9864198.16408     -1018.80608        43.06208
  22057360.28108 -16128498.07908     -1585.73708        45.56208  22057361.93808
 -12332985.59508     -1235.63908        48.12508
  20580604.46908 -21986025.03208     -1702.89308        46.56208  20580604.81209
 -16896618.05209     -1326.93009        51.87509
  23799679.90608  -6701587.49908     -2545.65708        43.56208  23799689.46908
  -4987892.90808     -1983.62908        47.12508
  22011750.50009 -16930816.65809      2568.62509        51.37509  22011753.00009
 -12959035.48209      2001.52609        54.31209
  24628109.37508  -1943985.39008     -3505.00508        43.50008  24628117.90608
  -1280863.97708     -2731.17308        44.12508
  23815698.03108  -7003708.01008      3790.61308        46.12508  23815706.90608
  -5216055.05708      2953.72408        47.62508
 25  1 27  0 36 30.0000000  0 10G08G10G15G16G18G23G26G27G29G32
  24680945.03107  -1299790.81107      3530.96407        39.43807  24680952.78108
   -778054.53908      2751.40108        44.31208
  20487320.78109 -23377343.99809      1052.63909        54.43809  20487323.50009
 -17981117.82909       820.23809        57.56209
  23966911.56208  -3958301.05708     -2486.87008        45.68808  23966915.40608
  -2846904.98508     -1937.82108        45.50008
  22728201.03108 -12920484.58608     -1322.79808        41.31208  22728203.65608
  -9833454.59308     -1030.75208        43.18808
  22066429.78108 -16080837.04108     -1591.55508        45.37508  22066432.00008
 -12295847.19408     -1240.17308        48.43808
  20590356.00008 -21934777.79808     -1713.49408        46.18808  20590356.90609
 -16856685.18309     -1335.19009        51.87509
  23814223.06208  -6625159.76608     -2549.58708        41.06208  23814233.34408
  -4928339.13808     -1986.69208        46.18808
  21997119.53109 -17007703.78009      2557.26609        51.37509  21997122.18809
 -13018947.49709      1992.67509        54.25009
  24648129.96908  -1838770.01408     -3509.45808        41.18808  24648141.46908
  -1198878.39608     -2734.64308        46.31208
  23794064.43808  -7117389.27108      3788.19308        45.68808  23794073.50008
  -5304637.61408      2951.83908        47.43808
 25  1 27  0 37  0.0000000  0 10G08G10G15G16G18G23G26G27G29G32
  24660798.59408  -1405671.25108      3527.62708        41.43808  24660804.40608
   -860558.66808      2748.80008        44.50008
  20481355.09409 -23408692.95609      1037.31709        54.62509  20481357.96909
 -18005545.56809       808.29909        57.56209
  23981138.09408  -3883539.22408     -2497.21908        45.43808  23981142.21908
  -2788649.11308     -1945.88508        45.50008
  22735793.68808 -12880585.56008     -1337.24108        41.31208  22735796.40608
  -9802364.53608     -1042.00608        43.37508
  22075531.31208 -16033007.89408     -1597.11708        45.37508  22075533.40608
 -12258577.79508     -1244.50608        48.18808
  20600167.34408 -21883221.18308     -1723.81108        46.62508  20600167.78109
 -16816511.22709     -1343.22909        51.81209
  23828788.06208  -6548624.69708     -2553.07608        41.18808  23828797.62508
  -4868701.77508     -1989.41008        45.50008
  21982552.78109 -17084250.44009      2545.77909        51.31209  21982555.43809
 -13078594.22109      1983.72409        54.06209
  24668177.46908  -1733423.74708     -3513.70408        40.43808  24668187.78108
  -1116790.84808     -2737.95108        44.81208
  23772444.87508  -7230999.49108      3785.85208        45.12508  23772453.25008
  -5393164.81108      2950.01508        46.93808
 25  1 27  0 37 30.0000000  0 10G08G10G15G16G18G23G26G27G29G32
  24640668.25008  -1511455.16908      3524.60708        42.56208  24640674.31208
   -942987.60608      2746.44708        44.56208
  20475477.25009 -23439582.08909      1022.18009        54.75009  20475479.87509
 -18029615.00409       796.50409        57.56209
  23995424.09408  -3808471.41008     -2507.30708        46.18808  23995427.93808
  -2730154.81808     -1953.74608        46.81208
  22743470.87508 -12840244.17008     -1352.01708        41.93808  22743472.90608
  -9770929.77908     -1053.51908        43.31208
  22084665.40608 -15985010.38508     -1602.50508        45.56208  22084667.21908
 -12221177.20108     -1248.70508        48.12508
  20610036.50008 -21831357.31208     -1733.66708        46.43808  20610037.25009
 -16776097.83909     -1350.90909        51.75009
  23843372.53108  -6471985.30308     -2556.21108        42.00008  23843381.53108
  -4808983.09708     -1991.85308        45.06208
  21968051.65609 -17160453.98509      2534.50009        51.37509  21968054.65609
 -13137973.59209      1974.93509        54.31209
  24688249.34408  -1627948.36608     -3517.80508        40.56208  24688258.90608
  -1034602.69908     -2741.14708        43.06208
  23750840.75008  -7344535.64908      3783.36708        46.50008  23750847.21908
  -5481634.31908      2948.07808        46.31208
 25  1 27  0 38  0.0000000  0 10G08G10G15G16G18G23G26G27G29G32
  24620557.06208  -1617140.31208      3521.06208        41.43808  24620563.00008
  -1025339.59708      2743.68508        44.62508
  20469686.68809 -23470011.85109      1006.66709        54.50009  20469689.28109
 -18053326.48809       784.41609        57.37509
  24009766.21908  -3733100.13208     -2517.33608        44.75008  24009770.96908
  -2671424.10608     -1961.56108        47.00008
  22751231.06208 -12799462.82608     -1366.62408        41.37508  22751233.62508
  -9739152.21308     -1064.90108        42.81208
  22093831.03108 -15936844.41408     -1608.28408        45.25008  22093832.84408
 -12183645.36008     -1253.20808        47.81208
  20619964.28108 -21779188.46408     -1744.04808        46.50008  20619964.46909
 -16735446.82309     -1358.99809        51.37509
  23857976.40608  -6395244.71608     -2559.52908        43.25008  23857985.56208
  -4749185.52808     -1994.43808        45.62508
  21953616.50009 -17236311.91709      2522.80509        51.00009  21953619.15609
 -13197083.64709      1965.82209        54.12509
  24708345.50008  -1522345.99008     -3522.21708        42.25008  24708354.56208
   -952315.46808     -2744.58408        42.18808
  23729249.93808  -7457994.81208      3780.62308        46.68808  23729257.96908
  -5570043.85208      2945.94008        47.31208
 25  1 27  0 38 30.0000000  0 10G08G10G15G16G18G23G26G27G29G32
  24600461.96907  -1722724.15507      3517.63207        39.31207  24600471.46908
  -1107612.57208      2741.01208        45.81208
  20463983.62509 -23499982.50209       991.42609        54.68809  20463986.00009
 -18076680.22609       772.54009        57.62509
  24024166.90608  -3657427.27308     -2527.44408        44.93808  24024170.90608
  -2612458.38808     -1969.43708        46.62508
  22759074.90608 -12758243.46508     -1381.37708        41.25008  22759076.87508
  -9707033.32708     -1076.39808        42.62508
  22103028.68808 -15888509.63508     -1613.98208        45.18808  22103030.78108
 -12145981.97108     -1257.64808        48.18808
  20629949.15608 -21726716.58008     -1753.95508        46.56208  20629949.62509
 -16694559.66509     -1366.71809        51.50009
  23872598.59408  -6318405.79308     -2562.98808        42.50008  23872607.65608
  -4689311.36308     -1997.13408        45.81208
  21939247.09409 -17311821.46609      2511.16909        50.93809  21939250.37509
 -13255922.23409      1956.75509        54.37509
  24728465.18808  -1416618.69708     -3526.29208        41.93808  24728475.28108
   -869930.93908     -2747.76008        45.37508
  23707673.15608  -7571373.94908      3777.91008        45.37508  23707682.59408
  -5658390.97808      2943.82608        48.18808
 25  1 27  0 39  0.0000000  0 10G08G10G15G16G18G23G26G27G29G32
  24580392.25008  -1828204.11008      3513.92308        40.87508  24580398.96908
  -1189804.59808      2738.12208        45.12508
  20458367.56209 -23529494.37409       976.04509        54.75009  20458370.09409
 -18099676.46609       760.55509        57.43809
  24038623.59408  -3581454.68308     -2537.56808        44.06208  24038628.12508
  -2553259.07408     -1977.32608        45.31208
  22767001.71908 -12716588.41108     -1395.85708        41.18808  22767003.68808
  -9674574.93008     -1087.68108        42.43808
  22112258.87508 -15840005.70808     -1619.74608        45.37508  22112260.90608
 -12108186.78008     -1262.14008        48.00008
  20639991.59408 -21673943.73808     -1764.15008        46.56208  20639992.15609
 -16653438.00609     -1374.66309        51.56209
  23887237.71908  -6241471.39708     -2565.98908        41.00008  23887248.12508
  -4629362.81908     -1999.47208        45.43808
  21924945.15609 -17386979.94409      2499.33609        51.06209  21924947.68809
 -13314487.26209      1947.53509        54.31209
  24748608.53108  -1310768.06808     -3530.70608        40.75008  24748618.50008
   -787450.41308     -2751.19908        46.18808
  23686113.12508  -7684670.00508      3775.07808        45.37508  23686123.03108
  -5746673.35008      2941.61908        47.93808
 25  1 27  0 39 30.0000000  0 10G08G10G15G16G18G23G26G27G29G32
  24560340.43808  -1933578.01008      3510.93508        41.68808  24560346.96908
  -1271913.97008      2735.79308        45.43808
  20452838.93809 -23558548.09009       960.67609        54.75009  20452841.15609
 -18122315.70709       748.57909        57.43809
  24053137.78108  -3505184.77408     -2547.41708        43.87508  24053140.90608
  -2493828.11508     -1985.00008        43.12508
  22775010.53108 -12674500.41308     -1410.18608        41.06208  22775012.96908
  -9641779.16808     -1098.84608        42.37508
  22121520.68808 -15791332.73008     -1625.34708        44.87508  22121523.06208
 -12070259.84408     -1266.50408        48.06208
  20650090.53108 -21620872.36608     -1774.08708        46.43808  20650091.31209
 -16612083.73009     -1382.40509        51.50009
  23901896.71908  -6164444.87508     -2569.10208        42.18808  23901905.87508
  -4569342.47208     -2001.89708        45.18808
  21910710.25009 -17461784.99909      2487.51009        50.87509  21910713.40609
 -13372776.90009      1938.31909        54.68809
  24768774.96908  -1204796.23708     -3534.45608        42.00008  24768784.59408
   -704875.41008     -2754.12108        43.75008
  23664571.18808  -7797880.23108      3772.11408        46.75008  23664578.31208
  -5834888.89408      2939.31008        46.75008
 25  1 27  0 40  0.0000000  0 10G08G10G15G16G18G23G26G27G29G32
  24540308.06207  -2038843.20207      3507.16607        40.00007  24540315.46908
  -1353938.72008      2732.85608        44.75008
  20447397.31209 -23587143.93209       945.62709        54.81209  20447399.75009
 -18144598.16709       736.85309        57.43809
  24067707.59408  -3428619.53408     -2557.04308        43.75008  24067710.78108
  -2434166.97308     -1992.50108        43.37508
  22783101.56208 -12631981.52408     -1424.55608        40.75008  22783104.43808
  -9608647.66608     -1110.04308        42.62508
  22130815.56208 -15742490.26008     -1630.89608        45.18808  22130817.71908
 -12032200.83208     -1270.82808        48.06208
  20660245.87508 -21567504.30608     -1783.85008        46.18808  20660246.84409
 -16570498.26409     -1390.01309        51.31209
  23916571.75008  -6087329.06508     -2572.03108        42.18808  23916580.59408
  -4509252.55508     -2004.18008        45.25008
  21896542.96909 -17536233.85909      2475.75409        51.00009  21896545.90609
 -13430788.97909      1929.15909        54.37509
  24788963.46908  -1098705.01408     -3538.21508        42.68808  24788972.96908
   -622207.29108     -2757.05108        43.12508
  23643044.31208  -7911001.47708      3769.34308        46.18808  23643051.71908
  -5923035.12408      2937.15108        46.87508
 25  1 27  0 40 30.0000000  0 10G08G10G15G16G18G23G26G27G29G32
  24520298.46908  -2143997.29008      3503.17908        40.06208  24520305.21908
  -1435876.75108      2729.75008        46.12508
  20442042.62509 -23615282.34909       930.29109        54.75009  20442045.06209
 -18166524.19409       724.90209        57.43809
  24082333.59408  -3351761.06108     -2566.91708        44.75008  24082337.50008
  -2374277.35408     -2000.19508        44.62508
  22791274.56208 -12589034.02408     -1438.77408        41.00008  22791277.12508
  -9575182.19608     -1121.12308        42.75008
  22140142.37508 -15693478.10008     -1636.73308        45.31208  22140144.65608
 -11994009.61308     -1275.37708        48.12508
  20670457.93808 -21513841.80808     -1793.71308        46.56208  20670458.71909
 -16528683.36109     -1397.69909        51.50009
  23931262.78108  -6010126.91708     -2575.12208        42.37508  23931272.62508
  -4449095.38008     -2006.58908        46.00008
  21882443.68809 -17610323.88309      2463.56909        51.00009  21882447.03109
 -13488521.44609      1919.66409        54.56209
  24809174.09408   -992496.03608     -3542.35108        40.25008  24809182.75008
   -539447.49008     -2760.27408        41.50008
  23621534.40608  -8024030.77208      3765.98908        45.68808  23621543.90608
  -6011109.64208      2934.53708        48.37508
 25  1 27  0 41  0.0000000  0 10G08G10G15G16G18G23G26G27G29G32
  24500310.28108  -2249038.04708      3499.29708        41.62508  24500316.12508
  -1517726.52608      2726.72508        45.06208
  20436775.03109 -23642963.89009       915.20509        54.50009  20436777.59409
 -18188094.19809       713.14709        57.31209
  24097015.09408  -3274611.72708     -2576.35308        44.43808  24097018.93808
  -2314161.10808     -2007.54708        45.37508
  22799528.50008 -12545660.61208     -1452.95408        41.06208  22799530.65608
  -9541384.81608     -1132.17208        42.56208
  22149501.18808 -15644296.16808     -1642.35408        44.93808  22149503.28108
 -11955686.09408     -1279.75608        47.81208
  20680725.50008 -21459887.08108     -1803.39808        46.50008  20680726.00009
 -16486640.76509     -1405.24509        51.25009
  23945969.56208  -5932841.64508     -2577.53908        41.37508  23945979.40608
  -4388873.42108     -2008.47208        44.62508
  21868413.71909 -17684052.63809      2451.58009        50.87509  21868416.93809
 -13545972.40209      1910.32209        54.31209
  24829407.00007   -886171.54707     -3546.16507        40.00007  24829418.43808
   -456597.67308     -2763.24508        45.06208
  23600044.34408  -8136965.29808      3762.83408        46.37508  23600052.84408
  -6099110.30008      2932.07908        48.43808
 25  1 27  0 41 30.0000000  0 10G08G10G15G16G18G23G26G27G29G32
  24480343.75008  -2353962.67908      3495.45208        42.62508  24480350.03108
  -1599485.87908      2723.72908        44.81208
  20431594.18809 -23670188.89309       899.92409        54.68809  20431596.78109
 -18209308.47209       701.24009        57.37509
  24111750.87508  -3197173.63608     -2585.97708        43.31208  24111754.78108
  -2253819.89708     -2015.04708        45.00008
  22807863.06208 -12501863.03408     -1466.98208        41.31208  22807865.59408
  -9507256.93608     -1143.10308        42.75008
  22158892.56208 -15594944.11308     -1647.96108        45.12508  22158894.84408
 -11917230.01708     -1284.12608        47.81208
  20691047.93808 -21405642.15208     -1812.87408        46.81208  20691048.21909
 -16444372.02509     -1412.62909        51.12509
  23960691.96908  -5855476.02208     -2580.08508        41.68808  23960701.65608
  -4328588.83908     -2010.45608        43.31208
  21854453.06209 -17757417.35109      2439.42409        51.43809  21854456.18809
 -13603139.70009      1900.85009        54.50009
  24849662.03108   -779733.22508     -3549.91208        41.25008  24849673.00008
   -373659.09508     -2766.16508        45.50008
  23578572.31208  -8249801.89108      3759.64408        47.06208  23578579.78108
  -6187034.68408      2929.59208        47.31208
 25  1 27  0 42  0.0000000  0 10G08G10G15G16G18G23G26G27G29G32
  24460399.68808  -2458768.82508      3491.43308        41.31208  24460405.18808
  -1681152.87808      2720.59708        45.00008
  20426500.12509 -23696957.79909       884.63909        54.56209  20426502.71909
 -18230167.34709       689.32909        57.62509
  24126541.00007  -3119448.74507     -2595.46607        39.43807  24126545.87508
  -2193255.17208     -2022.44108        44.62508
  22816277.78108 -12457644.01508     -1480.95708        41.12508  22816280.37508
  -9472800.65608     -1153.99208        43.00008
  22168316.71908 -15545421.61708     -1653.62508        44.93808  22168318.59408
 -11878641.12608     -1288.53908        47.81208
  20701425.59408 -21351109.04408     -1822.65908        46.68808  20701425.78109
 -16401878.73409     -1420.25409        51.50009
  23975429.03108  -5778033.04608     -2582.72008        41.06208  23975439.00008
  -4268243.96708     -2012.50908        43.87508
  21840562.12509 -17830415.40009      2427.12209        51.56209  21840564.84409
 -13660021.27009      1891.26409        54.68809
  24869939.03108   -673183.09808     -3553.65208        41.43808  24869949.25008
   -290633.47408     -2769.08008        44.50008
  23557118.75008  -8362537.48408      3756.05708        46.50008  23557126.34408
  -6274880.39508      2926.79808        47.25008
 25  1 27  0 42 30.0000000  0 10G08G10G15G16G18G23G26G27G29G32
  24440477.59408  -2563454.08608      3487.52008        42.56208  24440484.21908
  -1762725.66108      2717.54808        46.50008
  20421492.90609 -23723271.20309       869.52609        54.50009  20421495.46909
 -18250671.27809       677.55309        57.75009
  24141386.37507  -3041439.22207     -2604.79507        38.18807  24141389.37508
  -2132468.65308     -2029.71008        42.93808
  22824771.84408 -12413006.09508     -1494.86808        41.06208  22824774.71908
  -9438017.96208     -1164.83208        43.06208
  22177773.00008 -15495728.60708     -1659.18708        45.06208  22177774.65608
 -11839919.37308     -1292.87308        47.87508
  20711856.84408 -21296289.97008     -1832.02108        46.43808  20711857.12509
 -16359162.60609     -1427.54909        51.31209
  23990180.18808  -5700515.73208     -2585.22208        40.87508  23990191.00008
  -4207841.18908     -2014.45908        45.93808
  21826741.28109 -17903044.28409      2414.86109        51.68809  21826744.40609
 -13716615.17409      1881.71009        55.00009
  24890235.03107   -566523.18907     -3557.13607        39.93807  24890246.00008
   -207522.19108     -2771.79408        42.12508
  23535685.40608  -8475169.25308      3752.83008        46.37508  23535693.59408
  -6362645.14208      2924.28308        48.37508
 25  1 27  0 43  0.0000000  0 10G08G10G15G16G18G23G26G27G29G32
  24420580.59408  -2668015.99208      3483.41308        44.56208  24420587.28108
  -1844202.35208      2714.34808        46.25008
  20416572.15609 -23749129.77009       854.49209        54.62509  20416574.87509
 -18270820.80409       665.83809        57.56209
  24156286.00007  -2963147.17207     -2614.59207        37.43807  24156287.75008
  -2071461.99308     -2037.34508        40.62508
  22833345.62508 -12367951.68208     -1508.62508        40.93808  22833348.00008
  -9402910.74308     -1175.55208        42.75008
  22187261.93808 -15445864.90808     -1664.85408        45.31208  22187263.87508
 -11801064.61908     -1297.28808        47.81208
  20722342.59408 -21241187.19808     -1841.47708        46.56208  20722343.37509
 -16316225.42809     -1434.91709        51.31209
  24004945.37508  -5622927.20008     -2587.53908        41.56208  24004956.25008
  -4147382.97208     -2016.26408        46.06208
  21812991.00009 -17975301.53009      2402.35809        51.81209  21812994.06209
 -13772919.51109      1871.96809        54.68809
  24910553.15608   -459755.37208     -3560.71808        41.00008  24910563.56208
   -124326.87008     -2774.58508        43.81208
  23514272.46908  -8587694.22908      3749.18208        47.00008  23514280.96908
  -6450326.68508      2921.44108        48.62508
 25  1 27  0 43 30.0000000  0 10G08G10G15G16G18G23G26G27G29G32
  24400707.09408  -2772451.94108      3479.17008        42.68808  24400712.81208
  -1925580.93508      2711.04208        44.18808
  20411738.00009 -23774533.79809       839.29709        54.68809  20411740.53109
 -18290616.13409       653.99809        57.56209
  24171238.96907  -2884574.92807     -2623.63807        36.31207  24171240.56208
  -2010236.88908     -2044.39308        40.87508
  22841997.81208 -12322482.85208     -1522.37308        40.62508  22842000.71908
  -9367480.61708     -1186.26508        42.43808
  22196783.03108 -15395830.12608     -1670.63008        45.18808  22196785.21908
 -11762076.54508     -1301.79008        47.56208
  20732881.78108 -21185802.67408     -1850.74508        46.56208  20732882.53109
 -16273068.69509     -1442.13909        51.31209
  24019723.25008  -5545270.31608     -2589.63408        41.93808  24019734.15608
  -4086871.44008     -2017.89608        45.25008
  21799312.03109 -18047184.39709      2389.91209        51.56209  21799315.12509
 -13828932.10409      1862.26909        54.56209
  24930891.25008   -352881.51608     -3564.08408        41.81208  24930900.96908
    -41048.89808     -2777.20908        44.18808
  23492880.81208  -8700109.23108      3745.33008        47.18808  23492888.68808
  -6537922.55908      2918.43908        48.37508
 25  1 27  0 44  0.0000000  0 10G08G10G15G16G18G23G26G27G29G32
  24380857.03108  -2876759.57108      3474.95808        41.37508  24380863.53108
  -2006859.51408      2707.76008        44.31208
  20406990.21909 -23799483.92109       824.01909        54.56209  20406992.65609
 -18310057.78109       642.09209        57.56209
  24186244.96906  -2805724.49306     -2632.69506        27.37506  24186246.78108
  -1948794.99008     -2051.45108        41.37508
  22850728.68808 -12276602.29808     -1536.23308        40.68808  22850731.00008
  -9331729.66208     -1197.06508        42.12508
  22206337.31208 -15345624.13108     -1676.38208        45.37508  22206338.93808
 -11722955.07108     -1306.27208        47.62508
  20743474.59408 -21130138.56008     -1860.14208        46.56208  20743475.03109
 -16229694.10909     -1449.46109        51.18809
  24034513.62508  -5467548.07408     -2591.72108        42.43808  24034524.75008
  -4026308.97408     -2019.52308        44.75008
  21785704.84409 -18118690.37109      2377.17509        51.50009  21785707.84409
 -13884651.02909      1852.34409        54.56209
  24951249.15608   -245903.42108     -3567.82708        41.12508  24951259.56208
     42310.27708     -2780.12508        44.87508
  23471509.71908  -8812411.43908      3741.64308        46.43808  23471517.62508
  -6625430.53108      2915.56608        47.87508
 25  1 27  0 44 30.0000000  0 10G08G10G15G16G18G23G26G27G29G32
  24361033.65608  -2980936.31908      3470.44408        43.68808  24361039.75008
  -2088036.11408      2704.24208        46.18808
  20402328.56209 -23823980.75309       808.92609        54.68809  20402331.09409
 -18329146.20709       630.33209        57.50009
          .00000          .00000          .00000          .00000  24201304.90607
  -1887138.07607          .00007        37.87507
  22859537.90608 -12230312.50208     -1549.74608        40.68808  22859540.37508
  -9295659.80208     -1207.59408        42.06208
  22215923.78108 -15295246.77708     -1682.21908        45.18808  22215925.71908
 -11683700.06208     -1310.82008        47.50008
  20754119.93808 -21074197.04008     -1869.33308        46.62508  20754120.62509
 -16186103.35209     -1456.62409        51.18809
  24049315.62508  -5389763.48808     -2593.92808        41.25008  24049325.37508
  -3965697.90708     -2021.24308        42.75008
  21772169.84409 -18189816.92909      2364.44609        51.50009  21772172.90609
 -13940074.29809      1842.42509        54.50009
  24971625.43808   -138823.23708     -3571.13308        41.68808  24971636.25008
    125749.02708     -2782.70108        43.75008
  23450161.81208  -8924597.79308      3737.52408        47.06208  23450169.03108
  -6712848.21808      2912.35708        47.81208
 25  1 27  0 45  0.0000000  0  9G08G10G16G18G23G26G27G29G32
  24341235.28108  -3084979.60008      3465.81108        42.81208  24341241.21908
  -2169108.71808      2700.63208        46.75008
  20397753.12509 -23848024.77909       793.84509        54.43809  20397755.56209
 -18347881.80909       618.58109        57.62509
  22868423.56208 -12183616.00808     -1563.48108        40.87508  22868426.21908
  -9259273.04208     -1218.29708        42.25008
  22225543.03108 -15244697.71408     -1687.86908        44.87508  22225545.12508
 -11644311.25808     -1315.22208        47.62508
  20764817.56208 -21017980.07208     -1878.52508        46.50008  20764818.37509
 -16142297.97409     -1463.78609        51.18809
  24064128.18807  -5311919.40907     -2595.93807        39.93807  24064140.00008
  -3905040.52108     -2022.80808        43.93808
  21758707.81209 -18260561.40109      2351.71909        51.31209  21758710.90609
 -13995199.84409      1832.50809        54.81209
  24992020.78107    -31642.85007     -3574.13307        40.00007  24992032.34408
    209265.86108     -2785.03908        42.62508
  23428835.71908  -9036665.16808      3733.56208        47.25008  23428843.09408
  -6800173.20308      2909.26908        48.43808
 25  1 27  0 45 30.0000000  0  9G08G10G16G18G23G26G27G29G32
  24321460.96908  -3188887.05308      3461.22608        41.68808  24321467.81208
  -2250075.46908      2697.05908        45.25008
  20393263.75009 -23871616.63509       778.79209        54.62509  20393266.25009
 -18366265.06809       606.85109        57.75009
  22877386.84408 -12136515.25308     -1576.93108        40.68808  22877390.06208
  -9222571.27908     -1228.77708        42.56208
  22235194.59408 -15193976.78808     -1693.61308        45.00008  22235196.68808
 -11604788.53208     -1319.69908        47.50008
  20775567.59408 -20961489.95108     -1887.54608        46.87508  20775568.06209
 -16098279.73709     -1470.81509        51.12509
  24078953.18808  -5234018.88308     -2597.72008        40.68808  24078964.59408
  -3844339.16508     -2024.19708        45.00008
  21745318.68809 -18330921.30209      2338.75709        51.50009  21745321.68809
 -14050025.72909      1822.40809        54.87509
  25012436.06208     75635.94708     -3577.61208        40.12508  25012447.00008
    292859.40908     -2787.75008        41.37508
  23407532.56208  -9148610.68608      3729.25508        46.68808  23407540.37508
  -6887403.23408      2905.91308        48.37508
 25  1 27  0 46  0.0000000  0 10G08G10G15G16G18G23G26G27G29G32
  24301714.37508  -3292656.04408      3456.72408        42.43808  24301720.87508
  -2330934.40008      2693.55108        45.50008
  20388860.28109 -23894756.86509       763.75209        54.43809  20388862.87509
 -18384296.40109       595.13209        57.75009
          .00000          .00000          .00000          .00000  24246791.56207
     34852.16907          .00007        36.06207
  22886426.12508 -12089012.72208     -1590.09308        40.62508  22886429.40608
  -9185556.43708     -1239.03308        42.87508
  22244879.34408 -15143083.70008     -1699.26508        44.87508  22244881.28108
 -11565131.65908     -1324.10308        47.62508
  20786368.78108 -20904728.60908     -1896.53108        46.43808  20786369.46909
 -16054050.16709     -1477.81609        51.37509
  24093788.25008  -5156064.86308     -2599.24108        42.68808  24093799.71908
  -3783596.08908     -2025.38208        46.12508
  21732003.06209 -18400894.04009      2326.02109        51.37509  21732006.34409
 -14104549.90909      1812.48409        55.25009
  25032869.84408    183011.02908     -3580.79108        41.56208  25032880.25008
    376527.97608     -2790.22708        43.87508
  23386253.40608  -9260431.29008      3725.18808        46.31208  23386260.93808
  -6974535.90508      2902.74408        48.18808
 25  1 27  0 46 30.0000000  0 10G08G10G15G16G18G23G26G27G29G32
  24281995.34408  -3396284.04708      3451.80408        42.12508  24282000.71908
  -2411683.43408      2689.71808        46.00008
  20384542.40609 -23917446.14409       748.75009        54.43809  20384545.12509
 -18401976.34809       583.44209        57.50009
  24262048.21907    107402.07307     -2678.32007        32.81207  24262053.31207
     97352.98307     -2087.00307        31.25007
  22895541.68808 -12041111.04208     -1603.32808        40.62508  22895545.06208
  -9148230.58608     -1249.34608        42.87508
  22254597.15608 -15092018.25708     -1705.05108        45.12508  22254598.56208
 -11525340.46608     -1328.61108        47.25008
  20797221.28108 -20847698.26608     -1905.46408        46.75008  20797222.12509
 -16009610.98309     -1484.77709        51.25009
  24108632.46908  -5078060.34108     -2601.03308        42.81208  24108643.62508
  -3722813.65508     -2026.77908        45.81208
  21718762.03109 -18470477.06109      2313.01809        51.75009  21718765.18809
 -14158770.41809      1802.35109        54.93809
  25053319.53107    290480.57407     -3583.71107        39.62507  25053331.46908
    460270.12308     -2792.50208        45.12508
  23364999.03108  -9372123.95908      3720.88608        47.06208  23365006.59408
  -7061568.90908      2899.39208        47.87508
 25  1 27  0 47  0.0000000  0 10G08G10G15G16G18G23G26G27G29G32
  24262302.15608  -3499768.67308      3447.16108        41.68808  24262308.09408
  -2492320.70808      2686.09908        46.00008
  20380310.43809 -23939685.22209       733.90109        54.43809  20380313.09409
 -18419305.49009       571.87109        57.62509
  24277356.59407    187876.18107     -2686.27907        30.68807          .00000
          .00000          .00000          .00000
  22904732.71908 -11992812.92508     -1616.32608        40.56208  22904736.00008
  -9110595.81108     -1259.47508        42.75008
  22264347.15608 -15040780.38208     -1710.85208        45.25008  22264349.18808
 -11485414.93508     -1333.13108        47.50008
  20808124.65608 -20790401.10008     -1914.33808        46.75008  20808125.21909
 -15964963.89209     -1491.69209        50.87509
  24123485.25008  -5000008.27808     -2602.39708        41.18808  24123495.43808
  -3661994.20008     -2027.84208        44.00008
  21705595.28109 -18539667.93809      2299.89009        51.87509  21705598.37509
 -14212685.36609      1792.12209        55.12509
  25073788.50007    398042.51707     -3586.80907        39.62507  25073800.25008
    544084.21308     -2794.91608        45.06208
  23343769.75008  -9483685.77908      3716.53608        47.25008  23343777.06208
  -7148499.96508      2896.00208        48.43808
 25  1 27  0 47 30.0000000  0 10G08G10G15G16G18G23G26G27G29G32
  24242638.28108  -3603107.19008      3442.12608        43.12508  24242643.50008
  -2572844.21108      2682.17708        45.81208
  20376164.21909 -23961474.45709       718.82309        54.81209  20376166.71909
 -18436284.10609       560.12209        57.75009
  24292722.50007    268613.18207     -2695.57107        36.25007          .00000
          .00000          .00000          .00000
  22913999.00008 -11944120.47708     -1629.58508        40.50008  22914001.87508
  -9072653.77008     -1269.80708        42.56208
  22274130.50008 -14989369.63008     -1716.55808        45.25008  22274132.81208
 -11445354.68208     -1337.57708        47.68808
  20819078.43808 -20732838.99108     -1923.12508        47.06208  20819079.00009
 -15920110.32609     -1498.53909        51.06209
  24138345.93808  -4921911.47008     -2603.86508        40.50008  24138356.81208
  -3601139.83808     -2028.98508        42.75008
  21692504.15609 -18608463.91409      2286.61609        52.18809  21692506.93809
 -14266292.59609      1781.77909        55.18809
  25094275.21908    505695.13908     -3589.89508        40.56208  25094285.12508
    627968.96508     -2797.32108        42.31208
  23322565.28108  -9595113.53208      3712.11408        47.25008  23322573.15608
  -7235326.52208      2892.55708        49.12508
 25  1 27  0 48  0.0000000  0 10G08G10G15G16G18G23G26G27G29G32
  24223002.25008  -3706297.03108      3437.14808        43.00008  24223008.03108
  -2653251.84408      2678.29708        46.18808
  20372103.25009 -23982814.71209       703.87709        54.56209  20372105.84409
 -18452912.87709       548.47609        57.56209
  24308138.34408    349611.26008     -2704.24808        40.81208          .00000
          .00000          .00000          .00000
  22923338.90608 -11895036.58608     -1642.77108        40.37508  22923342.00008
  -9034406.71608     -1280.08108        42.37508
  22283946.59408 -14937785.85908     -1722.36308        45.06208  22283949.06208
 -11405159.62308     -1342.10108        47.75008
  20830082.12508 -20675014.15408     -1931.86508        47.00008  20830082.84409
 -15875052.06509     -1505.34909        51.12509
  24153215.87508  -4843772.95308     -2605.36608        40.75008  24153227.06208
  -3540253.00608     -2030.15608        44.12508
  21679488.31209 -18676862.58809      2273.33309        52.25009  21679491.37509
 -14319590.25509      1771.42809        55.25009
  25114777.53108    613436.12008     -3592.79508        42.50008  25114788.50008
    711922.70708     -2799.58108        42.00008
  23301387.28108  -9706404.30508      3707.39708        47.25008  23301394.53108
  -7322046.35308      2888.88108        48.56208
 25  1 27  0 48 30.0000000  0 10G08G10G15G16G18G23G26G27G29G32
  24203394.00008  -3809335.79508      3431.90208        41.81208  24203401.09408
  -2733541.66508      2674.20908        47.06208
  20368127.53109 -24003706.69009       688.93809        54.31209  20368130.18809
 -18469192.32509       536.83509        57.68809
  24323600.03108    430867.68808     -2712.97408        42.62508  24323605.18807
     81088.93207     -2114.00507        39.06207
  22932753.65608 -11845563.81208     -1655.25408        40.25008  22932756.59408
  -8995856.61808     -1289.80808        42.31208
  22293796.06208 -14886028.96108     -1728.15708        45.25008  22293797.75008
 -11364829.64108     -1346.61608        47.62508
  20841135.43808 -20616928.77108     -1940.53208        46.62508  20841136.15609
 -15829790.75509     -1512.10309        51.18809
  24168093.71908  -4765595.82308     -2606.52608        42.68808  24168104.46908
  -3479336.06508     -2031.05908        44.68808
  21666548.90609 -18744861.51009      2259.91209        52.06209  21666551.34409
 -14372576.39309      1760.97009        55.18809
  25135296.12507    721263.19707     -3595.81307        38.68807  25135308.68808
    795943.52508     -2801.93208        44.00008
  23280236.00008  -9817555.15908      3702.69508        47.12508  23280242.00008
  -7408657.15508      2885.21708        47.93808
 25  1 27  0 49  0.0000000  0 10G08G10G15G16G18G23G26G27G29G32
  24183815.87508  -3912220.65408      3426.91708        43.12508  24183821.25008
  -2813711.51808      2670.32408        45.06208
  20364237.25009 -24024150.93309       674.06009        54.68809  20364239.84409
 -18485122.90609       525.24209        57.31209
  24339111.15608    512380.65408     -2721.33508        41.43808  24339116.68807
    144605.32707     -2120.52107        38.43807
  22942241.40608 -11795704.62008     -1668.42008        40.31208  22942244.34408
  -8957005.45408     -1300.06808        41.81208
  22303678.00008 -14834098.48508     -1733.92608        45.50008  22303680.15608
 -11324364.40808     -1351.11108        47.31208
  20852237.68808 -20558584.72808     -1949.09208        46.56208  20852239.03109
 -15784327.92009     -1518.77309        51.12509
  24182976.81208  -4687382.62108     -2607.82008        42.93808  24182988.34408
  -3418391.01308     -2032.06708        45.00008
  21653685.15609 -18812458.00009      2246.48709        52.18809  21653688.28109
 -14425248.96309      1750.50909        55.06209
  25155831.96907    829175.69807     -3598.60407        39.50007  25155843.96908
    880030.80508     -2804.10708        44.62508
  23259111.53108  -9928562.83808      3697.77308        47.37508  23259118.31208
  -7495156.42408      2881.38208        48.25008
 25  1 27  0 49 30.0000000  0 10G08G10G15G16G18G23G26G27G29G32
  24164267.31208  -4014949.09208      3421.60208        42.68808  24164271.78108
  -2893759.57908      2666.18308        44.12508
  20360432.06209 -24044148.01509       659.20409        54.56209  20360434.59409
 -18500705.05009       513.66609        57.75009
  24354670.40607    594148.26807     -2729.71407        39.93807  24354673.62507
    208320.21507     -2127.05007        36.43807
  22951802.59408 -11745461.33408     -1681.21108        40.50008  22951804.62508
  -8917854.94408     -1310.03508        41.31208
  22313592.78108 -14781994.19608     -1739.72908        45.18808  22313595.43808
 -11283763.73908     -1355.63308        47.62508
  20863389.56208 -20499984.04408     -1957.61008        46.68808  20863390.18809
 -15738665.09609     -1525.41009        51.12509
  24197865.90608  -4609136.52908     -2608.63508        41.31208  24197878.18808
  -3357420.33408     -2032.70308        45.31208
  21640899.03109 -18879649.41609      2232.91009        51.93809  21640901.96909
 -14477605.89509      1739.93009        55.25009
  25176382.59407    937171.00907     -3601.04707        39.56207  25176394.25008
    964182.70908     -2806.01108        43.12508
  23238014.93808 -10039424.26408      3692.93508        47.18808  23238022.46908
  -7581541.70508      2877.61108        49.18808
 25  1 27  0 50  0.0000000  0 10G08G10G15G16G18G23G26G27G29G32
  24144748.00008  -4117518.76508      3416.41408        42.06208  24144754.34408
  -2973683.86908      2662.14008        45.56208
  20356711.46909 -24063698.90109       644.18009        54.50009  20356714.12509
 -18515939.50609       501.95809        57.68809
  24370279.21908    676167.62308     -2738.04708        41.62508  24370282.34407
    272231.37507     -2133.54307        36.81207
  22961435.68808 -11694836.82608     -1693.55008        40.18808  22961439.15608
  -8878407.40208     -1319.64908        41.87508
  22323541.15608 -14729716.02408     -1745.58608        44.93808  22323543.59408
 -11243027.59908     -1360.19708        47.50008
  20874588.96908 -20441129.03808     -1966.06908        46.68808  20874589.96909
 -15692804.09409     -1532.00209        51.06209
  24212762.25008  -4530860.49608     -2609.78008        40.18808  24212774.25008
  -3296426.34108     -2033.59508        45.00008
  21628190.37509 -18946433.52409      2219.20909        51.75009  21628193.53109
 -14529645.43809      1729.25409        55.31209
  25196947.96907   1045246.99307     -3604.03307        38.00007  25196960.09408
   1048397.44608     -2808.33808        40.81208
  23216947.06208 -10150136.66608      3687.85608        47.50008  23216954.31208
  -7667810.86908      2873.65408        49.12508
 25  1 27  0 50 30.0000000  0 10G08G10G15G16G18G23G26G27G29G32
  24125260.56208  -4219927.02208      3410.90808        42.18808  24125266.62508
  -3053482.34208      2657.85108        46.62508
  20353075.75009 -24082804.32009       629.43609        54.43809  20353078.34409
 -18530826.83809       490.47009        57.68809
  24385934.90608    758436.91108     -2746.39208        44.18808  24385939.46908
    336337.16008     -2140.04508        41.75008
  22971141.68808 -11643833.83108     -1706.35008        40.18808  22971145.46908
  -8838664.95508     -1329.62308        42.56208
  22333522.81208 -14677263.78508     -1751.21808        44.93808  22333524.62508
 -11202155.79008     -1364.58608        47.25008
  20885836.75008 -20382021.77208     -1974.39708        46.56208  20885837.75009
 -15646746.52609     -1538.49109        51.06209
  24227662.68808  -4452557.34608     -2610.53508        40.37508  24227674.71908
  -3235411.25608     -2034.18308        44.25008
  21615560.00009 -19012807.80909      2205.61809        52.00009  21615562.65609
 -14581365.63609      1718.66309        55.25009
  25217530.56207   1153401.66407     -3606.56207        39.00007  25217543.18808
   1132673.50408     -2810.30808        41.56208
  23195907.68808 -10260696.98308      3682.83008        47.50008  23195914.59408
  -7753961.53208      2869.73708        48.62508
 25  1 27  0 51  0.0000000  0 10G08G10G15G16G18G23G26G27G29G32
  24105803.37508  -4322171.32408      3405.29808        41.81208  24105810.56208
  -3133153.08008      2653.47908        46.75008
  20349524.90609 -24101464.97409       614.61209        54.43809  20349527.50009
 -18545367.62109       478.91809        57.68809
  24401637.25008    840953.85408     -2754.55808        42.68808  24401642.06208
    400635.89208     -2146.40908        43.62508
  22980918.90608 -11592455.20208     -1718.72808        40.37508  22980922.81208
  -8798629.79008     -1339.26908        42.68808
  22343537.21908 -14624637.20308     -1757.07308        44.87508  22343539.65608
 -11161148.15408     -1369.14808        47.43808
  20897132.21908 -20322664.27308     -1982.71208        46.43808  20897133.00009
 -15600493.97609     -1544.97109        50.81209
  24242568.96908  -4374230.22208     -2611.26508        42.00008  24242579.34408
  -3174377.42508     -2034.75208        42.68808
  21603007.96909 -19078769.75309      2191.95809        52.00009  21603010.68809
 -14632764.54609      1708.01909        55.37509
  25238127.06207   1261633.05907     -3608.69607        38.62507  25238137.65607
   1217009.40007     -2811.97107        39.43807
  23174897.96908 -10371102.14208      3677.65608        47.18808  23174904.68808
  -7839991.32608      2865.70608        48.50008
 25  1 27  0 51 30.0000000  0 10G08G10G15G16G18G23G26G27G29G32
  24086378.00008  -4424249.05708      3400.05608        40.62508  24086384.75008
  -3212693.96608      2649.39408        46.12508
  20346058.40609 -24119681.53109       599.86309        54.62509  20346061.12509
 -18559562.33909       467.42609        57.68809
  24417384.81208    923716.48308     -2762.73708        40.43808  24417391.15608
    465126.08808     -2152.78208        43.31208
  22990767.12508 -11540703.38808     -1731.28908        40.06208  22990770.68808
  -8758303.85908     -1349.05608        42.31208
  22353584.96908 -14571835.96308     -1762.99608        45.06208  22353587.15608
 -11120004.41208     -1373.76308        46.93808
  20908474.78108 -20263058.55908     -1990.96208        46.75008  20908475.84409
 -15554048.00109     -1551.39909        50.87509
  24257477.93808  -4295881.79408     -2612.02908        42.25008  24257488.75008
  -3113326.98308     -2035.34708        42.00008
  21590534.43809 -19144316.75009      2178.01809        52.25009  21590537.28109
 -14683840.10909      1697.15609        55.12509
  25258736.37507   1369939.65607     -3611.95807        36.31207  25258748.59408
   1301403.77408     -2814.51308        41.62508
  23153919.12508 -10481348.99008      3672.24908        47.93808  23153925.96908
  -7925897.75708      2861.49208        49.00008
 25  1 27  0 52  0.0000000  0 10G08G10G15G16G18G23G26G27G29G32
  24066986.06208  -4526157.39808      3393.92808        42.68808  24066991.62508
  -3292102.97208      2644.61908        45.18808
  20342676.18809 -24137454.55409       585.02709        54.50009  20342678.78109
 -18573411.43709       455.86509        57.75009
  24433182.21908   1006722.57508     -2770.84208        40.50008  24433185.28108
    529805.98808     -2159.09808        40.75008
  23000685.53107 -11488580.76107     -1743.72807        39.37507  23000689.87508
  -8717688.98308     -1358.74908        42.25008
  22363666.31208 -14518859.70908     -1768.78908        45.06208  22363668.40608
 -11078724.28308     -1378.27708        47.18808
  20919864.34408 -20203206.50808     -1999.19208        46.50008  20919865.31209
 -15507410.09109     -1557.81209        50.75009
  24272390.25008  -4217514.76108     -2612.48808        40.75008  24272402.68808
  -3052262.05208     -2035.70508        43.68808
  21578140.84409 -19209446.17309      2164.01109        52.06209  21578143.65609
 -14734590.28509      1686.24309        55.31209
  25279361.34408   1478318.86008     -3614.01608        41.87508  25279372.75008
   1385854.77908     -2816.11608        41.56208
  23132970.40608 -10591434.34008      3666.85808        47.93808  23132977.59408
  -8011678.32208      2857.29208        49.43808
 25  1 27  0 52 30.0000000  0 10G08G10G15G16G18G23G26G27G29G32
  24047626.50008  -4627894.16308      3388.17108        42.43808  24047631.87508
  -3371378.28508      2640.13408        46.00008
  20339378.37509 -24154785.23609       570.30309        54.43809  20339380.90609
 -18586915.87309       444.39209        57.56209
  24449023.81208   1089969.61508     -2778.96508        42.75008  24449026.75008
    594673.71208     -2165.42708        40.75008
  23010675.09408 -11436090.31708     -1755.66208        40.06208  23010677.59408
  -8676787.46808     -1368.04808        41.56208
  22373781.03108 -14465708.55408     -1774.69208        45.00008  22373782.78108
 -11037307.88308     -1382.87708        47.12508
  20931300.37508 -20143110.52708     -2007.24408        46.37508  20931301.00009
 -15460582.09009     -1564.08609        50.43809
  24287306.78108  -4139132.40108     -2612.96908        40.62508  24287318.71908
  -2991185.20908     -2036.08008        44.37508
  21565826.71909 -19274155.91209      2149.96109        52.00009  21565829.81209
 -14785013.44509      1675.29409        55.25009
  25299999.03108   1586769.11108     -3616.28708        41.93808  25300010.68808
   1470361.21608     -2817.88608        40.37508
  23112052.56208 -10701355.50208      3661.32808        47.43808  23112059.59408
  -8097330.96508      2852.98308        49.12508
 25  1 27  0 53  0.0000000  0 10G08G10G15G16G18G23G26G27G29G32
  24028299.40608  -4729456.75308      3382.53408        41.93808  24028305.40608
  -3450517.83908      2635.74108        47.00008
  20336164.46909 -24171674.32809       555.72509        54.56209  20336167.06209
 -18600076.20409       433.03309        57.68809
  24464910.62508   1173455.42508     -2786.93808        40.87508  24464915.43808
    659727.52908     -2171.64008        44.00008
  23020732.84408 -11383234.81108     -1767.84408        40.25008  23020736.18808
  -8635601.51308     -1377.54108        41.62508
  22383928.12508 -14412382.23308     -1780.40008        44.93808  22383930.84408
 -10995754.98208     -1387.32508        47.43808
  20942782.34408 -20082772.67508     -2015.20808        46.50008  20942783.18809
 -15413565.62709     -1570.29209        50.62509
  24302224.34407  -4060737.58607     -2613.21507        39.62507  24302237.40608
  -2930098.65508     -2036.27208        45.31208
  21553593.56209 -19338443.47209      2135.90609        52.43809  21553596.43809
 -14835107.63209      1664.34209        55.68809
  25320646.96907   1695288.08607     -3618.26707        34.93807  25320660.84407
   1554921.28707     -2819.42807        36.87507
  23091167.37508 -10811109.40508      3655.69108        47.75008  23091173.56208
  -8182853.28208      2848.59008        48.68808
 25  1 27  0 53 30.0000000  0 10G08G10G15G16G18G23G26G27G29G32
  24009005.87508  -4830842.10308      3376.67208        41.62508  24009012.15608
  -3529519.29808      2631.17308        46.00008
  20333034.59409 -24188122.22509       541.01309        54.43809  20333037.18809
 -18612892.74409       421.56909        57.68809
  24480841.00007   1257178.10907     -2794.66607        34.12507  24480847.96908
    724965.85808     -2177.66108        45.87508
  23030859.84407 -11330016.66007     -1779.91507        39.87507  23030863.12508
  -8594132.94308     -1386.94608        41.37508
  22394109.96908 -14358880.16908     -1786.33308        45.06208  22394111.71908
 -10954065.13708     -1391.94808        47.18808
  20954309.75008 -20022194.56908     -2023.14508        46.25008  20954310.78109
 -15366361.93809     -1576.47609        50.56209
  24317143.93807  -3982332.84307     -2613.55207        39.00007  24317157.25008
  -2869004.36608     -2036.53408        44.00008
  21541440.68809 -19402306.01809      2121.69409        52.18809  21541443.81209
 -14884870.63609      1653.26809        55.43809
  25341312.84407   1803874.53807     -3620.27307        36.25007  25341325.75008
   1639533.79508     -2820.99208        40.68808
  23070313.87508 -10920692.64008      3650.04208        47.87508  23070320.50008
  -8268242.64408      2844.18808        48.87508
 25  1 27  0 54  0.0000000  0  9G08G10G16G18G23G26G27G29G32
  23989747.34408  -4932048.13208      3370.43908        42.43808  23989753.46908
  -3608381.06908      2626.31608        46.43808
  20329988.56209 -24204130.26509       526.25209        54.68809  20329991.06209
 -18625366.54209       410.06709        57.68809
  23041056.00008 -11276439.03508     -1791.99008        40.12508  23041059.00008
  -8552384.28708     -1396.35608        41.43808
  22404323.93808 -14305202.68808     -1792.19508        44.93808  22404326.59408
 -10912238.61708     -1396.51608        47.18808
  20965882.71908 -19961378.76408     -2031.12508        46.43808  20965883.84409
 -15318973.04409     -1582.69509        50.50009
  24332066.93808  -3903921.52108     -2613.85008        41.06208  24332078.09408
  -2807904.97508     -2036.76608        43.56208
  21529369.65609 -19465741.60709      2107.27109        52.62509  21529372.75009
 -14934300.95809      1642.02909        55.75009
  25361989.46907   1912525.56807     -3622.94907        37.31207  25362002.03108
   1724196.60408     -2823.07708        42.81208
  23049493.81208 -11030102.66808      3643.98208        48.31208  23049500.84408
  -8353497.04708      2839.46708        49.68808
 25  1 27  0 54 30.0000000  0  9G08G10G16G18G23G26G27G29G32
  23970523.12508  -5033071.80408      3364.44308        42.68808  23970529.12508
  -3687100.72308      2621.64408        47.00008
  20327025.78109 -24219698.84609       511.62809        54.56209  20327028.37509
 -18637497.89209       398.67209        57.68809
  23051319.09407 -11222504.36607     -1803.68907        39.81207  23051322.59408
  -8510357.40208     -1405.47208        41.50008
  22414572.31208 -14251349.02508     -1798.09808        44.62508  22414574.40608
 -10870274.80808     -1401.11508        47.00008
  20977500.65608 -19900326.90908     -2038.90408        46.43808  20977501.43809
 -15271400.18609     -1588.75609        50.31209
  24346989.31208  -3825506.08408     -2613.90908        42.00008  24347000.62508
  -2746802.30908     -2036.81208        43.00008
  21517379.90609 -19528747.37009      2092.92509        52.31209  21517382.68809
 -14983396.33609      1630.85009        55.50009
  25382676.00007   2021240.19907     -3624.99807        33.18807  25382687.53107
   1808908.99907     -2824.67307        39.12507
  23028707.31208 -11139335.96508      3638.11008        47.93808  23028714.37508
  -8438613.70708      2834.89108        49.87508
 25  1 27  0 55  0.0000000  0 10G08G10G15G16G18G23G26G27G29G32
  23951334.09408  -5133910.59008      3357.99108        42.87508  23951340.09408
  -3765676.33608      2616.61608        45.56208
  20324146.65609 -24234828.94309       497.12609        54.81209  20324149.21909
 -18649287.57409       387.37109        57.81209
  24528906.78107     74634.94607     -2817.17007        34.31207  24528908.59407
     38089.91007     -2195.19807        39.18807
  23061650.25007 -11168215.13807     -1815.47107        39.87507  23061654.03108
  -8468054.27308     -1414.65308        41.56208
  22424853.75008 -14197319.16208     -1803.92108        44.93808  22424855.78108
 -10828173.69208     -1405.65308        47.00008
  20989162.78108 -19839041.15208     -2046.72408        46.43808  20989163.62509
 -15223645.09509     -1594.85009        50.25009
  24361911.56208  -3747089.54108     -2613.69608        40.87508  24361923.00008
  -2685698.76208     -2036.64608        42.81208
  21505472.34409 -19591321.02809      2078.66509        52.56209  21505475.37509
 -15032155.02209      1619.73909        55.50009
  25403377.12507   2130016.30007     -3626.81407        36.43807  25403388.50007
   1893669.30907     -2826.08907        35.93807
  23007954.93808 -11248389.68008      3632.15808        48.37508  23007961.71908
  -8523590.45308      2830.25308        49.56208
 25  1 27  0 55 30.0000000  0 10G08G10G15G16G18G23G26G27G29G32
  23932180.25008  -5234561.97008      3352.08708        42.75008  23932186.53108
  -3844105.91808      2612.01608        45.93808
  20321350.84409 -24249521.53709       482.55109        54.75009  20321353.28109
 -18660736.35209       376.01409        57.93809
  24545014.59407    159282.65007     -2825.22207        34.62507  24545017.75008
    104049.15908     -2201.47208        42.25008
  23072048.34408 -11113574.42508     -1827.07308        40.18808  23072051.68808
  -8425477.24808     -1423.69308        41.75008
  22435168.93808 -14143113.02008     -1809.72208        44.87508  22435171.09408
 -10785935.21708     -1410.17308        47.06208
  21000869.15608 -19777523.65208     -2054.31408        46.43808  21000870.12509
 -15175709.43509     -1600.76409        50.50009
  24376833.03107  -3668674.78807     -2613.52107        39.87507  24376845.09408
  -2624596.66308     -2036.51008        43.31208
  21493647.59409 -19653460.23309      2064.13309        52.43809  21493650.53109
 -15080575.18309      1608.41609        55.68809
  25424087.59407   2238850.84607     -3628.63307        36.37507  25424099.59407
   1978475.36707     -2827.50607        38.75007
  22987237.50008 -11357260.78508      3626.05008        48.75008  22987243.43808
  -8608424.93908      2825.49308        49.37508
 25  1 27  0 56  0.0000000  0 11G08G10G15G16G18G23G24G26G27G29G32
  23913063.75008  -5335023.38808      3345.46408        42.75008  23913070.25008
  -3922387.45308      2606.85508        47.43808
  20318638.03109 -24263777.49609       468.02209        54.68809  20318640.46909
 -18671844.88309       364.69309        58.00009
          .00000          .00000          .00000          .00000  24561169.25008
    170184.31808          .00008        43.56208
  23082512.18808 -11058584.91408     -1838.63008        40.25008  23082516.18808
  -8382628.41208     -1432.69908        42.06208
  22445517.34408 -14088730.30808     -1815.62508        44.50008  22445520.12508
 -10743559.15508     -1414.77308        47.18808
  21012619.43808 -19715776.48508     -2061.93108        46.50008  21012620.28109
 -15127594.80409     -1606.70009        50.31209
  25664471.75007   1017348.41507      1222.89307        36.87507  25664482.00008
   1025510.90508       952.90408        41.62508
  24391754.28107  -3590264.74807     -2613.39607        39.87507  24391767.00008
  -2563498.22908     -2036.41208        44.56208
  21481906.18809 -19715162.60809      2049.57509        52.37509  21481909.06209
 -15128654.95209      1597.07209        55.81209
          .00000          .00000          .00000          .00000  25444821.87507
   2063325.82407          .00007        36.93807
  22966555.15608 -11465946.34608      3619.83608        48.56208  22966561.62508
  -8693114.84408      2820.65208        49.87508
 25  1 27  0 56 30.0000000  0 10G08G10G15G16G18G23G24G26G27G32
  23893983.40608  -5435291.90408      3338.90108        43.50008  23893989.06208
  -4000518.69208      2601.74108        46.93808
  20316008.15609 -24277597.47309       453.53809        54.68809  20316010.59409
 -18682613.68709       353.40609        58.12509
  24577358.71907     40765.81607     -2840.21707        36.81207  24577362.84408
     29741.66308     -2213.15608        44.06208
  23093042.56208 -11003249.28008     -1850.21508        40.43808  23093045.96908
  -8339509.89708     -1441.72608        41.81208
  22455899.87508 -14034170.64208     -1821.61108        44.62508  22455902.53108
 -10701045.20408     -1419.43708        47.18808
  21024412.65608 -19653801.37608     -2069.54608        46.25008  21024413.84409
 -15079302.55209     -1612.63309        50.31209
  25657513.93807    980783.13507      1214.90507        38.93807  25657524.40608
    997018.56508       946.67908        43.62508
  24406674.28108  -3511862.01208     -2613.16708        40.06208  24406686.21908
  -2502405.47708     -2036.23408        44.00008
  21470248.40609 -19776425.52209      2034.91709        52.50009  21470251.06209
 -15176392.28109      1585.65009        55.75009
  22945908.25008 -11574443.00008      3613.50108        48.31208  22945915.59409
  -8777657.52909      2815.71509        50.37509
 25  1 27  0 57  0.0000000  0 11G08G10G15G16G18G23G24G26G27G29G32
  23874940.06208  -5535365.25908      3332.43908        42.56208  23874945.50008
  -4078497.87508      2596.70608        47.31208
  20313461.09409 -24290982.64109       438.92809        54.62509  20313463.40609
 -18693043.68009       342.02209        57.87509
  24593593.90607    126083.93807     -2847.51507        38.81207  24593598.15607
     96223.24707     -2218.84307        39.93807
  23103638.46908 -10947570.60708     -1861.78208        40.50008  23103641.75008
  -8296124.06608     -1450.73908        41.68808
  22466315.90608 -13979434.10108     -1827.45408        44.37508  22466318.56208
 -10658393.42808     -1423.99008        46.81208
  21036249.28108 -19591600.62908     -2077.07308        46.31208  21036250.18809
 -15030834.47209     -1618.49809        50.12509
  25650601.40607    944458.02507      1206.58207        38.62507  25650612.37508
    968713.40508       940.19408        43.50008
  24421592.28108  -3433469.70008     -2612.87108        41.18808  24421604.90608
  -2441320.85508     -2036.00308        44.12508
  21458674.37509 -19837246.82909      2019.94409        52.50009  21458677.03109
 -15223785.50309      1573.98209        55.87509
  25486282.34407    160878.07407     -3634.51407        37.87507          .00000
          .00000          .00000          .00000
  22925298.84408 -11682748.02808      3606.94308        48.50008  22925305.62509
  -8862050.90709      2810.60509        50.12509
 25  1 27  0 57 30.0000000  0 11G08G10G15G16G18G23G24G26G27G29G32
  23855934.18808  -5635240.56408      3325.82508        43.31208  23855940.12508
  -4156322.68608      2591.55208        47.68808
  20310996.65609 -24303933.67509       424.39709        54.75009  20310998.93809
 -18703135.39809       330.69909        57.93809
  24609870.21907    211621.34107     -2855.09807        35.12507  24609875.03107
    162875.61407     -2224.75107        35.87507
  23114298.25007 -10891551.29807     -1873.04007        39.81207  23114301.68808
  -8252472.83408     -1459.51108        41.31208
  22476766.06208 -13924520.21008     -1833.44508        44.62508  22476768.31208
 -10615603.45108     -1428.65808        46.93808
  21048128.46908 -19529176.08808     -2084.50708        46.62508  21048129.43809
 -14982192.01009     -1624.29109        50.25009
  25643734.96907    908375.50907      1198.63307        39.62507  25643746.34408
    940597.25508       934.00008        44.87508
  24436507.03108  -3355090.54808     -2612.33908        40.93808  24436520.03108
  -2380246.44308     -2035.58908        43.68808
  21447185.15609 -19897623.94809      2005.15909        52.56209  21447187.87509
 -15270832.60409      1562.46109        55.87509
  25507032.25006    269929.49706     -3636.11306        28.37506  25507050.34407
     47739.38507     -2833.33507        37.93807
  22904726.59408 -11790858.13908      3600.27108        49.12508  22904732.71909
  -8946292.40809      2805.40609        50.06209
 25  1 27  0 58  0.0000000  0 11G08G10G15G16G18G23G24G26G27G29G32
  23836966.71908  -5734915.14408      3319.13108        43.43808  23836972.09408
  -4233991.10608      2586.33608        47.12508
  20308614.46909 -24316451.55509       409.86309        54.75009  20308617.00009
 -18712889.58209       319.37409        58.00009
  24626187.78107    297379.92807     -2862.25607        31.75007          .00000
          .00000          .00000          .00000
  23125023.31208 -10835194.27108     -1884.17708        40.12508  23125026.21908
  -8208558.39608     -1468.19008        40.93808
  22487250.03108 -13869428.82108     -1839.50008        44.75008  22487252.65608
 -10572675.15508     -1433.37608        47.25008
  21060049.68808 -19466529.71408     -2091.93608        46.87508  21060050.65609
 -14933376.70309     -1630.08009        50.43809
  25636914.71907    872537.76307      1190.23207        39.31207  25636926.03108
    912671.87208       927.45308        43.75008
  24451419.87508  -3276727.22308     -2611.76508        40.81208  24451432.28108
  -2319184.38708     -2035.14208        42.81208
  21435780.59409 -19957554.54109      1990.17809        52.62509  21435783.43809
 -15317531.75109      1550.78809        55.93809
          .00000          .00000          .00000          .00000  25527809.81207
    132752.71107          .00007        39.43807
  22884191.78108 -11898770.25208      3593.57208        49.00008  22884197.15608
  -9030379.63408      2800.18608        49.75008
 25  1 27  0 58 30.0000000  0 10G08G10G15G16G18G23G24G26G27G32
  23818038.31208  -5834386.46608      3312.29208        43.18808  23818043.62508
  -4311501.12108      2581.00708        47.43808
  20306314.53109 -24328537.26709       395.70609        54.31209  20306317.12509
 -18722307.00309       308.34209        57.87509
  24642548.53107    383348.83307     -2869.16007        36.12507  24642555.71907
     30952.92407     -2235.70907        33.00007
  23135810.81207 -10778502.22507     -1895.35207        39.37507  23135813.96908
  -8164382.92508     -1476.89708        40.75008
  22497767.06208 -13814159.79108     -1845.30508        44.31208  22497769.78108
 -10529608.47008     -1437.90008        47.06208
  21072012.78108 -19403663.65308     -2099.18508        46.43808  21072013.56209
 -14884390.19009     -1635.72809        50.12509
  25630141.31207    836946.72007      1182.12407        37.37507  25630152.34408
    884938.73908       921.13608        42.87508
  24466328.15607  -3198382.73107     -2610.95207        39.68807  24466340.34408
  -2258136.99808     -2034.50808        42.37508
  21424461.46909 -20017036.33309      1975.18609        52.31209  21424464.25009
 -15363881.18209      1539.10609        55.93809
  22863694.34408 -12006481.51808      3586.98708        48.43808  22863700.28108
  -9114310.34308      2795.05508        50.00008
 25  1 27  0 59  0.0000000  0 11G08G10G15G16G18G23G24G26G27G29G32
  23799148.37508  -5933651.83508      3305.53508        43.81208  23799153.81208
  -4388850.67308      2575.74108        47.56208
  20304096.62509 -24340191.70209       381.49209        54.50009  20304099.34409
 -18731388.37709       297.26609        57.93809
  24658947.84407    469530.22207     -2876.08607        35.25007  24658955.03108
     98107.04008     -2241.10608        41.75008
  23146662.00008 -10721478.46508     -1905.92508        40.06208  23146665.62508
  -8119948.95808     -1485.13708        41.06208
  22508318.09408 -13758712.88908     -1851.16208        44.50008  22508320.75008
 -10486403.15908     -1442.46408        46.81208
  21084016.93808 -19340579.80508     -2106.43108        46.62508  21084018.18809
 -14835233.99609     -1641.37509        50.31209
  25623416.46907    801604.63607      1173.93107        37.81207  25623426.68808
    857399.56008       914.75108        42.43808
  24481232.03107  -3120059.76507     -2610.42507        39.68807  24481245.56208
  -2197106.37908     -2034.09708        43.12508
  21413228.34409 -20076066.92009      1960.17109        52.68809  21413231.28109
 -15409879.01909      1527.40609        56.06209
  25569345.25006    129179.29206     -3639.81406        28.68806  25569358.90607
     96973.57407     -2836.21907        34.81207
  22843236.68808 -12113988.75108      3580.19008        49.18808  22843242.62509
  -9198082.06609      2789.75909        50.31209
 25  1 27  0 59 30.0000000  0 11G08G10G15G16G18G23G24G26G27G29G32
  23780298.65608  -6032708.58208      3298.39108        43.31208  23780303.96908
  -4466037.64908      2570.17508        47.50008
  20301960.56209 -24351415.82009       366.95609        54.18809  20301963.50009
 -18740134.44109       285.93909        57.87509
  24675389.34407    555921.81307     -2883.10507        34.81207  24675394.59408
    165424.91108     -2246.57608        41.43808
  23157576.75008 -10664125.40808     -1917.31008        40.06208  23157580.71908
  -8075258.44408     -1494.00708        41.68808
  22518903.09408 -13703087.89008     -1857.24108        44.12508  22518906.18808
 -10443059.08308     -1447.20108        46.75008
  21096062.53108 -19277280.20708     -2113.57908        46.25008  21096063.59408
 -14785909.66408     -1646.94508        49.81208
  25616738.78107    766513.63907      1165.71307        37.62507  25616748.40608
    830056.03308       908.34808        42.68808
  24496132.34407  -3041761.20707     -2609.52607        39.50007  24496145.59408
  -2136094.73408     -2033.39708        43.00008
  21402081.71909 -20134643.92109      1944.92909        52.50009  21402084.28109
 -15455523.41909      1515.52909        55.81209
  25590132.71907    238427.18307     -3642.30207        30.93807  25590144.09407
    182092.91407     -2838.15807        30.93807
  22822817.96908 -12221288.89708      3573.21808        48.93808  22822823.84409
  -9281692.43409      2784.32509        50.18809
 25  1 27  1  0  0.0000000  0 11G08G10G15G16G18G23G24G26G27G29G32
  23761488.84408  -6131554.11608      3291.28408        43.93808  23761494.87508
  -4543060.04308      2564.63708        48.37508
  20299906.46909 -24362210.65309       352.61209        54.43809  20299909.18809
 -18748545.99609       274.76309        57.81209
  24691868.56207    642521.63407     -2890.79307        34.50007  24691873.68807
    232905.16007     -2252.56607        39.56207
  23168552.87508 -10606446.14408     -1927.81208        40.18808  23168556.71908
  -8030313.69508     -1502.19208        41.68808
  22529522.34408 -13647284.61808     -1863.02508        44.50008  22529524.78108
 -10399576.10108     -1451.70808        46.50008
  21108149.06208 -19213766.89308     -2120.60308        46.68808  21108149.87508
 -14736418.81308     -1652.41808        49.93808
  25610109.65607    731675.78107      1156.92107        37.00007  25610120.18808
    802909.75908       901.49708        42.68808
  24511026.46907  -2963489.91307     -2608.55207        38.18807  24511040.00008
  -2075104.41108     -2032.63808        43.18808
  21391021.40609 -20192765.12509      1929.77309        52.81209  21391024.28109
 -15500812.65109      1503.71909        55.93809
  25610925.06206    347705.55306     -3643.68906        28.68806          .00000
          .00000          .00000          .00000
  22802439.00008 -12328378.99308      3566.09608        49.06208  22802444.93809
  -9365139.13509      2778.77609        50.06209
 25  1 27  1  0 30.0000000  0 11G08G10G15G16G18G23G24G26G27G29G32
  23742719.62508  -6230185.74808      3284.03608        43.62508  23742724.62508
  -4619915.74908      2558.98908        47.62508
  20297933.75009 -24372577.11709       338.24209        54.50009  20297936.50009
 -18756623.75509       263.56509        57.87509
          .00000          .00000          .00000          .00000  24708389.81207
    300546.12207          .00007        37.87507
  23179590.06208 -10548443.34608     -1938.85708        40.12508  23179594.09408
  -7985116.90108     -1510.79808        41.62508
  22540175.62508 -13591302.83508     -1869.17708        44.56208  22540177.93808
 -10355954.01708     -1456.50208        46.62508
  21120275.56208 -19150041.79908     -2127.66608        46.87508  21120276.46908
 -14686762.93608     -1657.92208        49.81208
  25603528.40607    697093.23307      1148.39607        39.31207  25603539.15608
    775962.43908       894.85408        43.81208
  24525915.68807  -2885248.58807     -2607.90307        38.43807  24525929.21908
  -2014137.39008     -2032.13208        42.75008
  21380048.37509 -20250428.12009      1914.40409        52.93809  21380051.21909
 -15545744.83809      1491.74409        55.93809
  25631730.93807    457023.23607     -3644.34307        34.37507          .00000
          .00000          .00000          .00000
  22782100.90608 -12435255.95608      3558.87708        49.12508  22782106.62508
  -9448419.75708      2773.15108        49.87508
 25  1 27  1  1  0.0000000  0  9G08G10G16G18G23G24G26G27G32
  23723991.40608  -6328600.72008      3276.80208        43.18808  23723997.28108
  -4696602.63408      2553.35208        48.06208
  20296042.65609 -24382516.12109       324.23609        54.37509  20296045.31209
 -18764368.43409       252.65109        58.00009
  23190688.96907 -10490119.83607     -1949.34107        39.93807  23190692.78108
  -7939670.14008     -1518.96708        41.31208
  22550862.68808 -13535142.31808     -1875.13408        44.31208  22550865.21908
 -10312192.67208     -1461.14408        46.62508
  21132442.06208 -19086106.81008     -2134.63908        46.56208  21132442.81208
 -14636943.51308     -1663.35508        49.62508
  25596995.37507    662768.02907      1139.71407        38.68807  25597006.40608
    749215.64008       888.08908        44.00008
  24540798.68807  -2807039.99907     -2606.26507        39.00007  24540812.71908
  -1953195.88508     -2030.85608        44.25008
  21369163.34409 -20307630.56009      1899.14309        52.68809  21369166.00009
 -15590318.16609      1479.85209        55.93809
  22761804.06208 -12541916.62408      3551.70208        49.18808  22761809.65609
  -9531531.84209      2767.56009        50.12509
 25  1 27  1  1 30.0000000  0 10G08G10G15G16G18G23G24G26G27G32
  23705305.37508  -6426796.40808      3269.39208        43.31208  23705311.50008
  -4773118.61208      2547.57808        48.25008
  20294232.50009 -24392028.68909       310.00009        54.56209  20294235.03109
 -18771780.82309       241.55809        57.93809
  24741540.28107    126120.31907     -2910.58807        39.31207  24741545.21908
     92162.28708     -2267.99108        40.75008
  23201848.09407 -10431478.44207     -1960.07307        39.37507  23201851.50008
  -7893975.71408     -1527.33008        40.68808
  22561583.18808 -13478802.80208     -1880.81308        44.31208  22561586.18808
 -10268291.83408     -1465.56908        46.43808
  21144648.00008 -19021963.84208     -2141.61608        46.68808  21144648.96908
 -14586962.02408     -1668.79208        49.93808
  25590513.81207    628702.37707      1131.28407        37.75007  25590524.90608
    722671.07908       881.52008        44.81208
  24555674.71907  -2728866.90307     -2604.97807        39.31207  24555687.43808
  -1892282.01708     -2029.85308        42.37508
  21358366.12509 -20364370.10509      1883.58409        52.75009  21358368.78109
 -15634530.77409      1467.72809        55.93809
  22741548.90608 -12648357.96908      3544.27508        49.37508  22741554.56209
  -9614473.01709      2761.77309        50.12509
 25  1 27  1  2  0.0000000  0 10G08G10G15G16G18G23G24G26G27G32
  23686662.03108  -6524770.28008      3261.95108        43.43808  23686667.06208
  -4849461.78108      2541.78008        47.31208
  20292503.06209 -24401115.97609       295.69609        54.43809  20292505.68809
 -18778861.83209       230.41209        57.75009
  24758173.68807    213530.37707     -2916.86507        37.93807  24758179.34408
    160273.88008     -2272.88208        42.18808
  23213066.68807 -10372522.39607     -1970.23407        39.31207  23213070.40608
  -7848036.09808     -1535.24808        40.50008
  22572338.81208 -13422284.27808     -1887.04108        44.31208  22572341.53108
 -10224251.54408     -1470.42208        46.31208
  21156893.03108 -18957615.11708     -2148.45208        46.43808  21156894.21908
 -14536820.22408     -1674.11908        49.93808
  25584080.75007    594898.14607      1122.24607        38.00007  25584091.43808
    696330.23308       874.47708        43.75008
  24570543.62508  -2650732.30108     -2603.83108        40.12508  24570556.46908
  -1831398.15208     -2028.95908        41.75008
  21347657.40609 -20420644.68709      1867.92709        52.43809  21347660.00009
 -15678381.10009      1455.52809        55.87509
  22721335.40608 -12754577.09208      3536.80708        49.00008  22721341.40608
  -9697241.03308      2755.95308        49.81208
 25  1 27  1  2 30.0000000  0 10G08G10G15G16G18G23G24G26G27G32
  23668060.93808  -6622519.54608      3254.55308        43.93808  23668066.12508
  -4925629.96308      2536.01508        47.87508
  20290854.62509 -24409778.89009       281.72109        54.56209  20290857.28109
 -18785612.16009       219.52309        58.00009
          .00000          .00000          .00000          .00000  24774850.56208
    228539.12208          .00008        41.06208
  23224345.81207 -10313254.35907     -1980.66707        40.00007  23224349.81208
  -7801853.39508     -1543.37608        41.31208
  22583128.15608 -13365586.42408     -1892.93508        44.37508  22583130.81208
 -10180071.50708     -1475.01408        46.43808
  21169177.34408 -18893062.38808     -2155.11008        46.62508  21169178.18808
 -14486519.44608     -1679.30608        49.87508
  25577699.71907    561357.61807      1113.70807        39.56207  25577708.90608
    670194.85908       867.82508        43.81208
  24585404.87507  -2572638.75507     -2602.43207        39.56207  24585416.71908
  -1770546.25908     -2027.86908        41.31208
  21337037.56209 -20476451.87309      1852.57609        52.62509  21337040.34409
 -15721867.21209      1443.56509        56.00009
  22701165.40608 -12860570.82908      3529.34308        49.25008  22701171.40609
  -9779833.42209      2750.13809        50.06209
 25  1 27  1  3  0.0000000  0 10G08G10G15G16G18G23G24G26G27G32
  23649502.43808  -6720041.62908      3247.01408        43.06208  23649508.09408
  -5001621.09608      2530.14108        47.68808
  20289286.84409 -24418018.52509       267.59309        54.43809  20289289.34409
 -18792032.65009       208.51409        58.00009
  24791553.56207    388937.87707     -2929.84607        36.68807  24791557.90607
    296956.18607     -2282.99707        36.68807
  23235683.37508 -10253677.16308     -1990.95508        40.31208  23235687.06208
  -7755429.75608     -1551.39308        41.68808
  22593951.81208 -13308709.11208     -1898.95308        44.37508  22593954.12508
 -10135751.61508     -1479.70308        46.50008
  21181499.65608 -18828307.70808     -2161.87008        46.37508  21181500.62508
 -14436061.28908     -1684.57408        49.87508
  25571366.31207    528082.66707      1104.78807        37.62507  25571377.56208
    644266.38908       860.87308        44.56208
  24600257.31207  -2494589.10907     -2601.13307        39.31207  24600271.06208
  -1709728.56708     -2026.85708        44.12508
  21326507.12509 -20531789.46909      1836.78009        52.56209  21326509.90609
 -15764987.39909      1431.25709        56.06209
  22681039.21908 -12966336.21808      3521.75508        49.43808  22681044.65609
  -9862247.87209      2744.22509        50.31209
 25  1 27  1  3 30.0000000  0 10G08G10G15G16G18G23G24G26G27G32
  23630988.53108  -6817333.71308      3239.37008        43.00008  23630993.81208
  -5077433.01108      2524.18508        48.00008
  20287799.25009 -24425835.73009       253.72809        54.62509  20287801.81209
 -18798123.98809       197.71009        58.12509
  24808298.59407    476932.46307     -2935.87607        37.81207  24808302.84407
    365523.33307     -2287.69607        37.18807
  23247078.78108 -10193793.66608     -2001.18208        40.12508  23247083.03108
  -7708767.45808     -1559.36208        42.12508
  22604809.40608 -13251651.94208     -1904.80708        44.56208  22604812.21908
 -10091291.57008     -1484.26508        46.62508
  21193860.25008 -18763352.84508     -2168.31108        46.75008  21193861.15608
 -14385447.15408     -1689.59308        49.87508
  25565084.31207    495075.59607      1095.98907        36.43807  25565094.93808
    618546.71908       854.01708        42.68808
  24615100.12507  -2416585.94007     -2599.54807        38.31207  24615114.56208
  -1648947.11008     -2025.62208        44.81208
  21316066.59409 -20586655.02609      1820.99609        52.81209  21316069.31209
 -15807739.77609      1418.95809        56.12509
  22660956.40608 -13071869.97708      3513.96708        49.56208  22660962.18809
  -9944481.83809      2738.15609        50.50009
 25  1 27  1  4  0.0000000  0 10G08G10G15G16G18G23G24G26G27G32
  23612519.00008  -6914393.23308      3231.55308        44.25008  23612524.53108
  -5153063.72008      2518.09308        48.37508
  20286391.84409 -24433231.81109       239.60909        54.68809  20286394.21909
 -18803887.16709       186.70909        58.06209
  24825077.96907    565117.39707     -2942.24607        33.43807  24825083.87507
    434240.94107     -2292.65907        31.06207
  23258532.12507 -10133606.95907     -2010.91307        39.06207  23258536.15608
  -7661868.89408     -1566.94508        41.50008
  22615701.12508 -13194414.97308     -1910.98608        44.37508  22615703.50008
 -10046691.43308     -1489.08008        46.43808
  21206258.37508 -18698199.94408     -2174.99008        46.25008  21206259.40608
 -14334678.70808     -1694.79808        49.56208
  25558854.25007    462338.24807      1086.47707        37.62507  25558866.59408
    593037.11708       846.60508        43.00008
  24629934.81207  -2338632.23907     -2597.52907        37.81207  24629949.00008
  -1588204.18108     -2024.04908        43.87508
  21305716.37509 -20641046.57009      1805.13209        52.75009  21305719.03109
 -15850122.77709      1406.59609        55.93809
  22640918.43808 -13177169.36508      3506.10408        49.50008  22640924.59409
 -10026533.15709      2732.02909        50.68809
 25  1 27  1  4 30.0000000  0 10G08G10G15G16G18G23G24G26G27G32
  23594093.53108  -7011217.44608      3223.68208        43.81208  23594098.40608
  -5228511.10308      2511.96008        47.43808
  20285064.56209 -24440207.64309       225.61509        54.62509  20285066.87509
 -18809322.87709       175.80409        57.93809
  24841895.34407    653490.84907     -2948.86507        33.62507  24841901.43807
    503103.23207     -2297.81707        36.12507
  23270041.43807 -10073119.74307     -2021.17707        38.87507  23270046.81208
  -7614736.24808     -1574.94308        41.06208
  22626627.21908 -13136997.87308     -1916.75808        44.37508  22626630.68808
 -10001950.91008     -1493.57808        46.56208
  21218694.09408 -18632850.80208     -2181.47708        46.43808  21218695.06208
 -14283757.33708     -1699.85208        49.31208
  25552677.90608    429872.63708      1077.70308        40.12508  25552687.59408
    567739.35108       839.76808        43.68808
  24644759.56207  -2260730.56807     -2595.51307        38.81207  24644773.15608
  -1527501.80208     -2022.47708        43.18808
  21295456.81209 -20694961.70309      1789.22909        52.87509  21295459.40609
 -15892134.56209      1394.20409        56.00009
  22620926.00008 -13282231.14808      3498.19608        49.81208  22620931.65609
 -10108399.32809      2725.86709        50.56209
 25  1 27  1  5  0.0000000  0 10G08G10G15G16G18G23G24G26G27G32
  23575714.18808  -7107803.65608      3215.45908        43.37508  23575719.28108
  -5303773.03208      2505.55208        47.93808
  20283816.96909 -24446764.36609       211.63109        54.43809  20283819.25009
 -18814432.01609       164.90709        58.00009
  24858747.87507    742050.36507     -2954.76107        35.37507  24858754.78107
    572110.56107     -2302.41107        39.87507
  23281609.68807 -10012335.22807     -2031.08207        39.62507  23281613.25008
  -7567371.84108     -1582.66108        40.37508
  22637588.03108 -13079400.48308     -1922.98808        44.25008  22637590.96908
  -9957069.92508     -1498.43208        46.50008
  21231166.43808 -18567307.41208     -2187.91508        46.25008  21231167.37508
 -14232684.61708     -1704.86908        49.37508
  25546550.37507    397680.76007      1068.38607        38.56207  25546562.78108
    542654.91108       832.50908        43.25008
  24659573.87508  -2182883.66308     -2593.91608        40.25008  24659586.31208
  -1466842.09508     -2021.23308        42.12508
  21285287.96909 -20748398.26909      1773.27409        52.68809  21285290.59409
 -15933773.43809      1381.77209        56.00009
  22600979.09408 -13387052.34308      3489.95608        49.68808  22600984.53109
 -10190078.04209      2719.44609        50.43809
 25  1 27  1  5 30.0000000  0 10G08G10G15G16G18G23G24G26G27G32
  23557379.81208  -7204149.21808      3207.42408        43.50008  23557385.03108
  -5378847.42808      2499.29208        47.87508
  20282648.50009 -24452903.06109       197.68109        54.43809  20282650.93809
 -18819215.42809       154.03709        58.06209
  24875633.18807    830793.71107     -2961.53107        31.81207  24875643.03107
    641260.98507     -2307.68607        39.25007
  23293232.78107  -9951256.03907     -2040.99607        39.81207  23293236.68808
  -7519777.85808     -1590.38708        40.68808
  22648582.71908 -13021622.60608     -1928.83508        44.25008  22648585.65608
  -9912048.29708     -1502.98908        46.31208
  21243675.53108 -18501571.64808     -2194.39208        46.25008  21243676.87508
 -14181461.99508     -1709.91608        49.56208
  25540477.12507    365764.85407      1059.26007        38.50007  25540487.40608
    517785.44808       825.39808        41.50008
  24674376.56208  -2105094.34808     -2591.91208        40.25008  24674389.87508
  -1406227.24008     -2019.67108        41.06208
  21275210.71909 -20801354.05809      1757.14409        52.75009  21275213.53109
 -15975037.68509      1369.20309        56.06209
  22581078.59408 -13491629.90908      3481.78708        49.81208  22581083.96909
 -10271566.91409      2713.08109        50.68809
 25  1 27  1  6  0.0000000  0 10G08G10G15G16G18G23G24G26G27G32
  23539091.90608  -7300251.27008      3199.34108        43.62508  23539097.50008
  -5453732.08708      2492.99308        48.12508
  20281559.75009 -24458624.66809       183.76209        54.56209  20281562.31209
 -18823673.83109       143.19109        58.00009
  24892557.81207    919718.99307     -2966.88507        33.18807  24892567.21907
    710552.97607     -2311.85807        32.18807
  23304911.53107  -9889885.18507     -2050.44907        39.62507  23304915.28108
  -7471956.59008     -1597.75308        40.75008
  22659611.75008 -12963663.90608     -1934.96608        44.12508  22659615.25008
  -9866885.77508     -1507.76608        46.37508
  21256221.06208 -18435645.22208     -2200.83308        46.06208  21256222.09408
 -14130090.82508     -1714.93408        49.50008
  25534456.81207    334126.89907      1050.14607        38.56207  25534466.50008
    493132.62208       818.29608        42.31208
  24689168.40607  -2027365.14807     -2590.08107        39.68807  24689182.15608
  -1345659.19108     -2018.24508        43.87508
  21265225.50009 -20853826.70709      1740.95209        52.75009  21265228.15609
 -16015925.45209      1356.58609        56.25009
  22561224.96908 -13595960.63808      3473.46708        49.93808  22561230.43809
 -10352863.43409      2706.59709        50.81209
 25  1 27  1  6 30.0000000  0 10G08G10G15G16G18G23G24G26G27G32
  23520851.40608  -7396107.36008      3190.99608        44.31208  23520856.90608
  -5528425.10108      2486.49008        48.12508
  20280550.21909 -24463930.53309       169.97609        54.62509  20280552.59409
 -18827808.28109       132.44909        57.87509
  24909513.96907   1008823.33107     -2973.30807        39.43807  24909522.62507
    779984.57407     -2316.86407        30.12507
  23316645.03107  -9828225.67907     -2059.99307        39.50007  23316648.68808
  -7423910.43408     -1605.18908        40.62508
  22670675.40608 -12905524.45808     -1941.03008        44.18808  22670678.40608
  -9821582.42108     -1512.49108        46.12508
  21268802.25008 -18369530.36808     -2207.05108        46.12508  21268803.43808
 -14078572.80808     -1719.78008        49.25008
  25528491.06207    302768.71407      1040.46107        38.50007  25528500.90608
    468697.80008       810.74908        43.87508
  24703947.00007  -1949698.94207     -2587.68307        37.37507  24703961.56208
  -1285140.29508     -2016.37608        43.75008
  21255332.34409 -20905814.37009      1724.84609        52.75009  21255335.34409
 -16056435.31109      1344.03609        56.12509
  22541418.71909 -13700041.82209      3465.14609        50.06209  22541424.43809
 -10433965.49209      2700.11409        50.81209
 25  1 27  1  7  0.0000000  0 10G08G10G15G16G18G23G24G26G27G32
  23502657.75008  -7491714.56808      3182.59308        43.93808  23502663.31208
  -5602924.19708      2479.94208        47.87508
  20279619.28109 -24468821.62909       156.13809        54.56209  20279622.00009
 -18831619.52909       121.66609        57.87509
  24926503.37507   1098104.93707     -2978.95307        36.00007  24926512.31207
    849554.56507     -2321.26207        34.87507
  23328432.93807  -9766280.38807     -2069.77807        39.75007  23328437.56208
  -7375641.59108     -1612.81408        41.06208
  22681773.65608 -12847203.90308     -1946.99008        44.12508  22681776.46908
  -9776137.92408     -1517.13508        45.75008
  21281418.90608 -18303228.80708     -2213.27108        46.06208  21281419.87508
 -14026909.30708     -1724.62708        48.93808
  25522576.68807    271692.40907      1030.95207        38.43807  25522586.25008
    444482.58108       803.33908        42.81208
  24718714.56207  -1872098.33307     -2585.80807        38.75007  24718727.87508
  -1224672.49908     -2014.91508        43.00008
  21245532.31209 -20957314.63709      1708.51309        52.62509  21245535.25009
 -16096565.37809      1331.30909        56.06209
  22521661.00009 -13803870.17309      3456.59709        50.06209  22521666.31209
 -10514870.55109      2693.45209        50.62509
 25  1 27  1  7 30.0000000  0 10G08G10G15G16G18G23G24G26G27G32
  23484512.59408  -7587070.26908      3174.23308        44.31208  23484517.40608
  -5677227.26508      2473.42908        48.18808
  20278767.28109 -24473299.05509       142.34609        54.56209  20278769.87509
 -18835108.42509       110.91909        57.87509
          .00000          .00000          .00000          .00000  24943534.00007
    919260.89407          .00007        30.81207
  23340275.09407  -9704052.38307     -2078.97207        39.68807  23340279.12508
  -7327152.41508     -1619.97808        40.62508
  22692905.93808 -12788702.12608     -1953.01508        43.87508  22692909.12508
  -9730552.22508     -1521.83008        45.75008
  21294071.12508 -18236742.38508     -2219.23308        45.93808  21294072.18808
 -13975101.75108     -1729.27308        49.18808
  25516716.90607    240899.93807      1021.59407        38.31207  25516725.43808
    420488.61308       796.04708        42.68808
  24733468.90607  -1794566.00907     -2583.17107        39.06207  24733482.75008
  -1164257.85908     -2012.86108        42.37508
  21235825.43809 -21008325.38509      1692.17009        52.81209  21235828.18809
 -16136313.99509      1318.57409        56.18809
  22501951.96909 -13907442.69609      3448.05209        50.31209  22501956.90609
 -10595576.25209      2686.79309        50.68809
 25  1 27  1  8  0.0000000  0 10G08G10G15G16G18G23G24G26G27G32
  23466415.25008  -7682171.81208      3165.67908        44.06208  23466419.90608
  -5751332.31308      2466.76308        47.81208
  20277993.96909 -24477364.05309       128.50109        54.68809  20277996.25009
 -18838275.96809       100.13109        58.12509
  24960582.75007    228600.61307     -2990.30507        35.31207  24960590.12507
    989101.76207     -2330.10807        35.68807
  23352169.00007  -9641544.67707     -2088.04207        38.87507  23352173.46908
  -7278445.30508     -1627.04608        40.43808
  22704073.21908 -12730018.98008     -1959.18508        43.87508  22704076.09408
  -9684825.21308     -1526.63708        45.81208
  21306757.71908 -18170073.12108     -2225.41008        46.12508  21306758.90608
 -13923151.73508     -1734.08608        49.25008
  25510911.15607    210393.19407      1011.86007        37.81207  25510921.50008
    396717.27108       788.46308        43.68808
  24748209.59407  -1717104.70407     -2581.08207        38.87507  24748221.81208
  -1103898.57508     -2011.23208        40.75008
  21226211.84409 -21058844.54509      1675.66909        52.87509  21226214.56209
 -16175679.56809      1305.71609        56.43809
  22482291.65609 -14010756.48909      3439.42909        50.12509  22482296.87509
 -10676080.35709      2680.07409        51.06209
 25  1 27  1  8 30.0000000  0 10G08G10G15G16G18G23G24G26G27G32
  23448366.96908  -7777016.54108      3157.10208        44.50008  23448371.78108
  -5825237.21708      2460.08008        48.25008
  20277298.68809 -24481017.74409       114.95609        54.62509  20277301.12509
 -18841122.99709        89.57609        58.00009
  24977672.00007    318400.54807     -2995.94007        38.12507  24977679.75007
   1059075.57807     -2334.49907        37.18807
  23364116.96907  -9578760.03107     -2097.19007        38.87507  23364122.00008
  -7229522.39108     -1634.17408        40.62508
  22715275.15608 -12671154.30208     -1965.16808        43.87508  22715277.81208
  -9638956.72408     -1531.30008        45.62508
  21319478.93808 -18103222.87808     -2231.38408        46.06208  21319480.18808
 -13871060.67608     -1738.74108        49.06208
  25505160.25007    180174.08407      1002.74707        36.31207  25505170.53108
    373170.08808       781.36108        43.75008
  24762935.21907  -1639717.14407     -2578.48107        37.00007  24762949.46908
  -1043596.79108     -2009.20608        41.68808
  21216692.40609 -21108870.06109      1659.24809        52.93809  21216695.18809
 -16214660.47409      1292.92109        56.18809
  22462681.37509 -14113808.46609      3430.64909        50.37509  22462686.81209
 -10756380.43209      2673.23309        51.12509
 25  1 27  1  9  0.0000000  0 10G08G10G15G16G18G23G24G26G27G32
  23430367.90608  -7871601.48708      3148.47908        44.62508  23430372.37508
  -5898939.70508      2453.36008        47.68808
  20276681.34409 -24484261.06209       101.26509        54.75009  20276683.78109
 -18843650.26709        78.90809        58.00009
  24994792.84407    408369.14107     -3001.88007        34.56207          .00000
          .00000          .00000          .00000
  23376117.06207  -9515701.60907     -2106.60907        39.00007  23376121.93808
  -7180386.18408     -1641.51308        40.81208
  22726511.28108 -12612107.71308     -1971.24308        44.06208  22726513.93808
  -9592946.51308     -1536.03308        45.62508
  21332234.40608 -18036193.26808     -2237.30008        46.18808  21332235.53108
 -13818829.90008     -1743.35008        48.75008
  25499464.65607    150244.92007       992.70507        38.43807  25499474.78108
    349848.78008       773.53608        42.93808
  24777647.21907  -1562405.76207     -2575.68807        38.31207  24777662.00008
   -983354.32108     -2007.03008        42.68808
  21207266.96909 -21158399.58309      1642.70509        53.00009  21207270.00009
 -16253254.90209      1280.03009        56.18809
  22443121.56209 -14216595.40909      3421.76809        50.56209  22443126.71909
 -10836473.99809      2666.31209        51.06209
 25  1 27  1  9 30.0000000  0 10G08G10G15G16G18G23G24G26G27G32
  23412418.46908  -7965924.13808      3139.61408        44.75008  23412423.90608
  -5972437.82608      2446.45308        48.37508
  20276142.06209 -24487095.37809        87.69309        54.68809  20276144.43809
 -18845858.82309        68.33209        57.93809
  25011950.53106    498504.00906     -3005.41006        27.87506          .00000
          .00000          .00000          .00000
  23388168.81207  -9452372.11407     -2115.59307        39.31207  23388173.00008
  -7131038.72508     -1648.51408        40.75008
  22737782.50008 -12552879.17508     -1977.47808        44.06208  22737785.37508
  -9546794.52208     -1540.89208        45.93808
  21345023.62508 -17968986.34308     -2243.25908        46.50008  21345024.53108
 -13766460.92408     -1747.99408        48.81208
  25493826.00007    120607.27207       983.25407        37.62507  25493835.90608
    326754.67908       766.17208        43.93808
  24792344.50007  -1485173.38507     -2573.35207        39.81207  24792358.25008
   -923173.43908     -2005.20908        42.87508
  21197936.56209 -21207431.16309      1625.96209        52.93809  21197939.43809
 -16291461.32409      1266.98309        56.31209
  22423612.71909 -14319114.49109      3412.75409        50.62509  22423617.59409
 -10916358.83309      2659.28909        51.18809
 25  1 27  1 10  0.0000000  0 10G08G10G15G16G18G23G24G26G27G32
  23394520.06208  -8059981.83208      3130.83708        44.62508  23394525.21908
  -6045729.42408      2439.61408        48.56208
  20275680.46909 -24489521.78709        74.02309        54.50009  20275682.78109
 -18847749.54009        57.68109        58.00009
  25029128.71907    588812.26407     -3012.92707        33.87507  25029134.25007
    221200.47707     -2347.73607        36.00007
  23400270.34407  -9388774.75507     -2124.26507        38.50007  23400274.93808
  -7081482.53408     -1655.27108        40.12508
  22749087.40608 -12493468.56408     -1983.43508        43.43808  22749091.09408
  -9500500.65108     -1545.53408        45.93808
  21357846.09408 -17901603.96608     -2249.06008        46.25008  21357847.28108
 -13713955.23808     -1752.51408        49.25008
  25488241.21907     91263.16407       973.53807        37.68807  25488250.25008
    303889.30808       758.60108        42.93808
  24807025.96907  -1408022.61707     -2570.39107        39.25007  24807040.21908
   -863056.10608     -2002.90208        43.06208
  21188701.50009 -21255962.75509      1609.39909        52.68809  21188704.12509
 -16329278.14709      1254.07809        56.43809
  22404155.00009 -14421362.67409      3403.67909        50.25009  22404160.25009
 -10996032.59609      2652.21809        51.25009
 25  1 27  1 10 30.0000000  0 10G08G10G15G16G18G23G24G26G27G32
  23376672.06208  -8153771.65308      3121.97308        44.93808  23376677.43808
  -6118812.34208      2432.70608        48.18808
  20275295.93809 -24491541.38209        60.62509        54.68809  20275298.59409
 -18849323.24609        47.24009        57.93809
  25046343.43807    679273.23707     -3017.66607        35.18807  25046348.53107
    291689.47907     -2351.42807        34.62507
  23412423.90607  -9324912.58207     -2133.29607        39.25007  23412427.62507
  -7031719.99807     -1662.30807        39.81207
  22760427.81208 -12433875.54208     -1989.32408        43.62508  22760430.87508
  -9454064.64408     -1550.12208        45.31208
  21370701.53108 -17834047.81008     -2254.69008        46.18808  21370702.59408
 -13661314.14608     -1756.90108        49.00008
  25482713.96908     62214.71408       963.42808        40.56208  25482722.84408
    281254.25808       750.72308        43.12508
  24821691.00007  -1330955.94407     -2567.30707        38.93807  24821704.81208
   -803004.34408     -2000.49908        42.12508
  21179561.68809 -21303992.14009      1592.69309        53.00009  21179564.34409
 -16366703.64009      1241.05909        56.25009
  22384749.93809 -14523336.82209      3394.68009        50.56209  22384755.12509
 -11075492.81309      2645.20509        51.31209
 25  1 27  1 11  0.0000000  0 10G08G10G15G16G18G23G24G26G27G32
  23358876.31208  -8247291.25608      3112.63708        45.31208  23358881.21908
  -6191684.66008      2425.43108        48.43808
  20274988.81209 -24493155.63509        47.00409        54.68809  20274991.25009
 -18850581.10409        36.62709        58.00009
          .00000          .00000          .00000          .00000  25063592.62507
    362302.71307          .00007        33.75007
  23424625.81207  -9260789.12307     -2141.94307        38.68807  23424630.56208
  -6981753.87608     -1669.04708        40.62508
  22771803.37508 -12374100.26308     -1995.74208        43.87508  22771805.84408
  -9407486.62008     -1555.12408        45.43808
  21383589.62508 -17766320.05008     -2260.46908        46.18808  21383590.90608
 -13608539.31608     -1761.40408        49.31208
  25477242.15607     33463.40707       953.15907        38.18807  25477249.96908
    258850.79708       742.72108        42.93808
  24836339.50007  -1253976.31007     -2564.99507        38.37507  24836353.37508
   -743020.38708     -1998.69808        40.43808
  21170517.93809 -21351517.55709      1575.66209        53.06209  21170520.87509
 -16403736.42209      1227.78809        56.56209
  22365397.65609 -14625034.16209      3385.22209        50.75009  22365402.81209
 -11154737.33809      2637.83509        51.56209
 25  1 27  1 11 30.0000000  0  9G08G10G16G18G23G24G26G27G32
  23341131.40608  -8340537.57308      3103.71308        45.00008  23341136.34408
  -6264344.04308      2418.47808        48.25008
  20274758.46909 -24494365.34509        33.53509        54.50009  20274761.06209
 -18851523.74309        26.13109        58.06209
  23436878.03107  -9196406.10907     -2150.26907        39.50007  23436883.18808
  -6931585.52308     -1675.53408        40.81208
  22783212.68808 -12314142.19308     -2001.81608        43.68808  22783215.75008
  -9360766.14108     -1559.85708        45.62508
  21396510.62508 -17698422.09008     -2266.16908        46.06208  21396511.65608
 -13555631.88208     -1765.84608        49.00008
  25471827.96907      5011.52607       943.68907        38.18807  25471837.06208
    236680.65508       735.34208        43.62508
  24850971.56207  -1177086.06507     -2561.68207        39.56207  24850985.93808
   -683106.02008     -1996.11608        41.37508
  21161570.65609 -21398536.62509      1558.76709        53.06209  21161573.59409
 -16440374.65609      1214.62409        56.62509
  22346098.12509 -14726451.37609      3375.80609        50.62509  22346103.43809
 -11233763.59109      2630.49809        51.62509
 25  1 27  1 12  0.0000000  0  9G08G10G16G18G23G24G26G27G32
  23323440.09408  -8433508.25008      3094.29408        45.37508  23323445.12508
  -6336788.65908      2411.13808        48.68808
  20274605.12509 -24495172.15309        20.16609        54.68809  20274607.62509
 -18852152.43009        15.71409        58.06209
  23449177.84407  -9131767.35407     -2158.93807        38.62507  23449182.87508
  -6881217.88008     -1682.28908        40.31208
  22794657.43808 -12254001.59208     -2007.71708        43.81208  22794660.25008
  -9313903.44608     -1564.45508        45.56208
  21409462.71908 -17630356.19608     -2271.57708        45.93808  21409464.06208
 -13502593.59108     -1770.06008        48.93808
  25466468.65607    -23139.45607       933.56707        36.75007  25466480.12508
    214744.95108       727.45508        42.75008
  24865586.25007  -1100288.14007     -2558.53007        39.37507  24865600.78108
   -623263.63908     -1993.66008        43.12508
  21152719.96909 -21445047.70809      1541.85809        53.18809  21152722.78109
 -16476617.05409      1201.44809        56.68809
  22326853.00009 -14827585.89709      3366.33309        50.81209  22326858.09409
 -11312569.56009      2623.11709        51.62509
 25  1 27  1 12 30.0000000  0 10G08G10G15G16G18G23G24G26G27G32
  23305801.18808  -8526200.28808      3085.05108        45.62508  23305805.93808
  -6409016.14408      2403.93608        48.56208
  20274528.12509 -24495576.88809         6.65309        54.75009  20274530.50009
 -18852467.81309         5.18409        58.25009
  25115499.00007    116816.74307     -3038.83507        36.37507          .00000
          .00000          .00000          .00000
  23461527.21907  -9066875.62407     -2167.32907        38.87507  23461531.90608
  -6830653.11508     -1688.82808        40.37508
  22806136.40608 -12193677.92108     -2013.88408        43.62508  22806139.50008
  -9266898.07208     -1569.26008        45.81208
  21422447.09408 -17562123.83408     -2277.09208        46.18808  21422448.40608
 -13449425.58208     -1774.35808        49.06208
  25461171.06207    -50987.25707       923.22007        37.93807  25461181.25008
    193045.51008       719.39208        43.56208
  24880182.18807  -1023584.82207     -2555.16807        39.18807  24880197.59408
   -563495.00908     -1991.04008        44.18808
  21143966.12509 -21491048.47609      1524.78309        53.25009  21143969.03109
 -16512461.80309      1188.14209        56.75009
  22307662.15609 -14928434.26909      3356.85809        50.93809  22307666.96909
 -11391152.57109      2615.73309        51.75009
 25  1 27  1 13  0.0000000  0 10G08G10G15G16G18G23G24G26G27G32
  23288216.06208  -8618611.09708      3075.67608        45.56208  23288221.15608
  -6481024.51408      2396.63108        48.93808
  20274527.21909 -24495580.98909        -6.45009        54.68809  20274529.75009
 -18852471.02209        -5.02609        58.00009
  25132861.28107    208054.87107     -3043.57207        37.50007  25132866.50007
    108104.67707     -2371.61407        33.81207
  23473923.31207  -9001734.12607     -2175.29107        39.06207  23473927.62507
  -6779893.71907     -1695.03207        39.06207
  22817650.56208 -12133171.18408     -2019.84408        43.62508  22817653.96908
  -9219750.07408     -1573.90408        45.56208
  21435462.71908 -17493726.92608     -2282.75608        46.56208  21435464.03108
 -13396129.36308     -1778.77108        48.87508
  25455929.71907    -78530.27107       913.15707        38.93807  25455940.81208
    171583.58608       711.55108        44.56208
  24894760.78107   -946978.91807     -2551.72907        39.43807  24894773.62508
   -503802.25208     -1988.36008        41.62508
  21135310.09409 -21536537.09409      1507.80809        53.25009  21135312.81209
 -16547907.47909      1174.91509        56.81209
  22288526.09409 -15028993.73009      3347.27809        50.68809  22288531.34409
 -11469510.46409      2608.26909        51.56209
 25  1 27  1 13 30.0000000  0 10G08G10G15G16G18G23G24G26G27G32
  23270685.37508  -8710737.92608      3065.94008        46.06208  23270689.68808
  -6552811.56608      2389.04408        48.62508
  20274602.46909 -24495185.58709       -19.83909        54.68809  20274605.12509
 -18852162.91609       -15.45909        57.93809
  25150252.50007    299441.57607     -3048.67707        37.31207  25150257.75007
    179314.98407     -2375.59207        34.68807
  23486366.15607  -8936345.95607     -2183.79907        38.81207  23486370.75007
  -6728942.13507     -1701.66107        39.62507
  22829199.03108 -12072481.19708     -2026.09108        43.25008  22829202.81208
  -9172459.26508     -1578.77208        45.62508
  21448509.18808 -17425167.31408     -2288.05908        46.25008  21448510.43808
 -13342706.34708     -1782.90308        48.68808
  25450747.56207   -105766.57907       902.69507        39.93807  25450756.56208
    150360.65408       703.39908        42.62508
  24909318.87507   -870472.81007     -2548.67207        37.68807  24909334.15608
   -444187.22908     -1985.97808        42.50008
  21126751.68809 -21581511.53409      1490.57109        53.12509  21126754.46909
 -16582952.48709      1161.48409        56.81209
  22269445.46909 -15129261.25009      3337.28309        50.81209  22269451.06209
 -11547640.86009      2600.48009        51.75009
 25  1 27  1 14  0.0000000  0 10G08G10G15G16G18G23G24G26G27G32
  23253208.00008  -8802578.28308      3056.67708        45.50008  23253213.21908
  -6624375.42508      2381.82608        48.93808
  20274753.46909 -24494392.10909       -32.96909        54.56209  20274756.09409
 -18851544.63009       -25.69009        58.12509
  25167670.81207    390974.76007     -3053.55007        32.75007  25167675.28107
    250639.36807     -2379.38907        33.93807
  23498856.15607  -8870714.30507     -2191.66007        39.25007  23498861.00008
  -6677800.81808     -1707.78708        40.68808
  22840783.06208 -12011608.02508     -2032.09708        43.06208  22840786.75008
  -9125025.71808     -1583.45208        45.75008
  21461586.37508 -17356446.87408     -2293.26908        45.93808  21461587.71908
 -13289158.00808     -1786.96308        48.75008
  25445622.15607   -132694.49307       892.43907        38.18807  25445632.40608
    129378.00408       695.40708        44.18808
  24923857.56207   -794069.35707     -2544.90207        37.18807  24923872.37508
   -384652.25708     -1983.04108        41.93808
  21118291.46909 -21625970.03909      1473.36909        53.06209  21118294.18809
 -16617595.47709      1148.08009        56.81209
  22250421.18809 -15229234.00409      3327.64209        50.81209  22250426.56209
 -11625541.57809      2592.96809        51.81209
 25  1 27  1 14 30.0000000  0  9G08G10G16G18G23G24G26G27G32
  23235786.31208  -8894129.16708      3046.78208        45.18808  23235791.28108
  -6695713.70208      2374.11608        48.62508
  20274980.09409 -24493201.54809       -46.33309        54.56209  20274982.87509
 -18850616.92709       -36.10409        58.25009
  23511390.46907  -8804841.78807     -2199.65107        38.31207  23511396.09408
  -6626471.82608     -1714.01408        40.43808
  22852401.46908 -11950551.21708     -2038.40308        42.81208  22852405.87508
  -9077449.07308     -1588.36608        46.00008
  21474693.81208 -17287567.17308     -2298.68708        45.93808  21474695.00008
 -13235485.56508     -1791.18408        48.81208
  25440556.78107   -159311.93907       882.14407        38.43807  25440567.65608
    108637.31808       687.38508        44.68808
  24938377.34407   -717770.88807     -2541.88507        38.93807  24938391.84407
   -325199.02707     -1980.68907        39.00007
  21109929.87509 -21669910.45609      1455.98609        53.00009  21109932.59409
 -16651834.75709      1134.53509        56.81209
  22231454.12509 -15328908.69409      3317.45109        50.81209  22231458.71909
 -11703210.04409      2585.02709        51.87509
 25  1 27  1 15  0.0000000  0  9G08G10G16G18G23G24G26G27G32
  23218420.50008  -8985388.03908      3037.16308        45.37508  23218425.43808
  -6766824.45208      2366.62108        48.81208
  20275281.90609 -24491615.28609       -59.24809        54.62509  20275284.43809
 -18849380.88309       -46.16709        58.06209
  23523971.37507  -8738731.47907     -2207.34907        38.81207  23523976.18807
  -6574957.57007     -1720.01207        39.43807
  22864055.90608 -11889310.79508     -2044.33608        43.18808  22864059.28108
  -9029729.37508     -1592.98908        45.75008
  21487830.81208 -17218530.07208     -2303.76008        45.37508  21487832.43808
 -13181690.50008     -1795.13708        48.62508
  25435552.18807   -185617.19807       871.76307        39.87507  25435561.12508
     88139.83308       679.29608        44.18808
  24952876.37507   -641580.06707     -2537.84207        39.93807  24952891.03108
   -265829.60808     -1977.53908        40.62508
  21101667.28109 -21713330.89909      1438.74009        53.06209  21101669.71909
 -16685668.87109      1121.09609        56.75009
  22212543.81209 -15428282.52809      3307.45609        51.00009  22212548.56209
 -11780644.08609      2577.23909        51.81209
 25  1 27  1 15 30.0000000  0 10G08G10G15G16G18G23G24G26G27G32
  23201110.71908  -9076352.03708      3027.14408        45.81208  23201115.25008
  -6837705.43508      2358.81308        48.50008
  20275658.90609 -24489634.46509       -72.63409        54.68809  20275661.50009
 -18847837.39309       -56.59809        57.93809
  25220089.12507    176673.26807     -3067.61007        32.56207  25220095.93807
     66393.49407     -2390.34507        36.06207
  23536596.25007  -8672386.37807     -2215.51007        38.18807  23536601.28107
  -6523260.34607     -1726.37207        38.75007
  22875744.71908 -11827886.54108     -2050.55708        43.12508  22875747.62508
  -8981866.40808     -1597.83608        45.25008
  21500998.25008 -17149337.30008     -2309.02808        46.06208  21500999.81208
 -13127774.11108     -1799.24308        48.81208
  25430605.53107   -211608.43007       861.02507        39.31207  25430615.37508
     67887.04108       670.92908        44.87508
  24967354.25007   -565499.33107     -2534.48007        38.31207  24967369.53108
   -206546.06108     -1974.91908        42.68808
  21093504.00009 -21756229.43609      1421.21109        53.18809  21093506.50009
 -16719096.30209      1107.43709        56.56209
  22193691.28109 -15527352.41409      3297.29209        51.12509  22193696.25009
 -11857841.27509      2569.31909        51.87509
 25  1 27  1 16  0.0000000  0 10G08G10G15G16G18G23G24G26G27G32
  23183857.75008  -9167018.57208      3017.21908        45.87508  23183862.43808
  -6908354.62608      2351.08008        49.00008
  20276110.59409 -24487260.50509       -85.80309        54.37509  20276113.18809
 -18845987.55409       -66.86009        57.93809
  25237614.56207    268771.73107     -3072.09507        32.18807  25237622.40607
    138158.39307     -2393.84007        35.06207
  23549265.31207  -8605809.78107     -2223.01807        37.75007  23549269.84407
  -6471382.71107     -1732.22107        37.87507
  22887468.53108 -11766278.38508     -2056.81608        42.87508  22887471.59408
  -8933860.14408     -1602.71408        45.31208
  21514194.31208 -17079990.71608     -2314.15008        45.75008  21514195.93808
 -13073737.86308     -1803.23408        48.81208
  25425720.03107   -237284.03107       850.69807        39.81207  25425729.53108
     47880.22908       662.88208        44.87508
  24981810.71907   -489531.29007     -2530.37107        38.31207  24981825.21908
   -147350.33208     -1971.71808        43.18808
  21085440.25009 -21798604.24909      1403.72609        52.87509  21085443.03109
 -16752115.62909      1093.81209        56.75009
  22174897.18809 -15626115.48809      3286.83809        50.93809  22174902.21909
 -11934799.39109      2561.17309        51.93809
 25  1 27  1 16 30.0000000  0 10G08G10G15G16G18G23G24G26G27G32
  23166660.50008  -9257384.95508      3007.09008        45.06208  23166665.37508
  -6978769.92408      2343.18708        48.93808
  20276637.03109 -24484494.66009       -98.83109        54.50009  20276639.53109
 -18843832.36409       -77.01109        58.18809
          .00000          .00000          .00000          .00000  25255172.84407
    210029.13407          .00007        33.50007
  23561978.84407  -8539004.63807     -2230.78107        38.43807  23561983.31207
  -6419327.02007     -1738.27107        39.12507
  22899227.03108 -11704486.21408     -2062.91008        43.00008  22899230.75008
  -8885710.48308     -1607.46208        45.68808
  21527419.84408 -17010492.02308     -2319.23308        46.06208  21527421.31208
 -13019583.11808     -1807.19508        48.81208
  25420893.50007   -262642.10307       839.89307        39.12507  25420903.62508
     28120.78108       654.46208        45.06208
  24996245.25007   -413678.56707     -2526.57707        39.25007  24996258.81208
    -88244.48608     -1968.76108        41.68808
  21077476.43809 -21840453.48809      1386.17709        53.06209  21077479.37509
 -16784725.42709      1080.13809        56.87509
  22156162.09409 -15724568.79009      3276.48909        51.25009  22156166.81209
 -12011516.13409      2553.10809        52.06209
 25  1 27  1 17  0.0000000  0  9G08G10G16G18G23G24G26G27G32
  23149522.21908  -9347448.42408      2996.96308        45.12508  23149527.25008
  -7048949.18708      2335.29608        48.87508
  20277237.65609 -24481338.10809      -111.88709        54.56209  20277240.09409
 -18841372.72309       -87.18509        57.93809
  23574734.59407  -8471974.15807     -2238.15407        38.06207  23574739.50007
  -6367095.72707     -1744.01607        39.81207
  22911021.15608 -11642509.87308     -2069.15808        43.00008  22911024.15608
  -8837417.32208     -1612.33108        45.31208
  21540673.78108 -16940842.92008     -2324.29408        46.18808  21540674.81208
 -12965311.15508     -1811.13908        48.37508
  25416129.75008   -287680.87308       829.09908        40.25008  25416139.37508
      8610.18608       646.05108        44.37508
  25010657.12507   -337943.62507     -2522.56807        38.06207  25010671.40608
    -29230.37408     -1965.63808        42.18808
  21069613.37509 -21881775.22109      1368.45709        53.12509  21069616.31209
 -16816924.18409      1066.33009        56.81209
  22137486.65609 -15822709.26709      3266.00309        51.43809  22137490.96909
 -12087989.10709      2544.93809        51.93809
 25  1 27  1 17 30.0000000  0 10G08G10G15G16G18G23G24G26G27G32
  23132442.15608  -9437206.28008      2986.89208        45.25008  23132446.96908
  -7118890.28508      2327.44808        48.43808
  20277912.28109 -24477792.18009      -124.65309        54.50009  20277915.00009
 -18838609.67109       -97.13209        57.81209
  25290345.21907    124424.86007     -3085.89107        30.68807          .00000
          .00000          .00000          .00000
  23587532.37507  -8404721.12707     -2245.29507        37.68807  23587538.31208
  -6314691.05808     -1749.58108        40.06208
  22922849.68808 -11580349.15808     -2074.97308        43.12508  22922853.18808
  -8788980.50108     -1616.86208        45.31208
  21553955.84408 -16871045.13708     -2329.08708        46.12508  21553956.93808
 -12910923.34708     -1814.87308        48.06208
  25411424.25007   -312398.50907       818.55507        37.87507  25411434.59408
    -10650.24008       637.83508        43.50008
  25025046.62507   -262328.85107     -2518.53507        39.12507  25025060.93808
     29690.08908     -1962.49508        41.87508
  21061850.75009 -21922567.62409      1350.97209        53.12509  21061853.75009
 -16848710.47109      1052.70509        56.50009
  22118871.03109 -15920533.94809      3255.51009        51.50009  22118875.56209
 -12164216.01809      2536.76109        51.81209
 25  1 27  1 18  0.0000000  0 10G08G10G15G16G18G23G24G26G27G32
  23115420.50008  -9526655.76308      2976.59908        45.62508  23115424.96908
  -7188591.12108      2319.42808        48.62508
  20278660.96909 -24473858.14509      -137.49009        54.31209  20278663.62509
 -18835544.20709      -107.13509        57.81209
  25307971.46906    217053.83806     -3089.69706        29.18806          .00000
          .00000          .00000          .00000
  23600371.21907  -8337248.63507     -2252.68607        37.37507  23600377.06207
  -6262115.39107     -1755.33907        39.37507
  22934714.37508 -11518004.00208     -2081.06208        43.18808  22934717.15608
  -8740399.99008     -1621.60708        45.50008
  21567265.53108 -16801100.39708     -2333.91408        45.31208  21567267.12508
 -12856421.01808     -1818.63408        48.25008
  25406782.56207   -336793.38907       807.68307        38.56207  25406792.96908
    -29659.19208       629.36308        44.68808
  25039411.43807   -186836.91507     -2513.95807        39.12507  25039426.59408
     88514.90408     -1958.92808        40.81208
  21054189.28109 -21962828.86409      1333.30309        53.00009  21054192.12509
 -16880082.87909      1038.93809        56.81209
  22100316.21909 -16018039.93709      3245.03409        51.50009  22100320.75009
 -12240194.58809      2528.59809        52.00009
 25  1 27  1 18 30.0000000  0 10G08G10G15G16G18G23G24G26G27G32
  23098457.78108  -9615794.24908      2966.05008        45.50008  23098462.18808
  -7258049.61408      2311.20808        47.81208
  20279483.43809 -24469537.38709      -150.55209        54.50009  20279485.87509
 -18832177.38509      -117.31309        57.56209
          .00000          .00000          .00000          .00000  25325630.68807
    147288.57907          .00007        33.50007
  23613253.65607  -8269559.89107     -2259.95407        38.31207  23613257.90607
  -6209371.18307     -1761.00307        38.06207
  22946613.37508 -11455474.38408     -2087.39708        43.25008  22946616.18808
  -8691675.72208     -1626.54308        44.93808
  21580603.78108 -16731010.51708     -2338.82808        45.68808  21580605.25008
 -12801805.57908     -1822.46408        48.37508
  25402202.65607   -360863.80607       796.89207        39.62507  25402212.15608
    -48415.30308       620.95508        44.37508
  25053753.71907   -111470.06207     -2510.67407        36.81207  25053768.65608
    147242.18908     -1956.36908        41.25008
  21046629.00009 -22002557.25009      1315.33909        52.93809  21046632.00009
 -16911040.06309      1024.94009        56.50009
  22081822.56209 -16115224.28609      3234.06009        51.68809  22081827.00009
 -12315922.53509      2520.04709        51.68809
 25  1 27  1 19  0.0000000  0 10G08G10G15G16G18G23G24G26G27G32
  23081554.59408  -9704618.99408      2955.58108        45.25008  23081560.18808
  -7327263.62308      2303.05008        48.87508
  20280378.71909 -24464831.08309      -163.36909        54.62509  20280381.28109
 -18828510.14609      -127.30109        58.00009
          .00000          .00000          .00000          .00000  25343303.43807
    219663.65307          .00007        32.93807
  23626175.12507  -8201657.78307     -2267.04807        39.00007  23626179.65607
  -6156460.70507     -1766.53107        38.43807
  22958547.31208 -11392759.95908     -2093.76708        43.31208  22958550.53108
  -8642807.46408     -1631.50708        45.31208
  21593968.40608 -16660776.99708     -2343.67208        46.00008  21593970.15608
 -12747078.24008     -1826.23808        48.56208
  25397685.50007   -384607.85907       786.11107        39.87507  25397693.43808
    -66917.09808       612.55408        43.68808
  25068071.25007    -36231.00507     -2506.00607        36.87507  25068085.84408
    205869.90608     -1952.73208        42.62508
  21039170.71909 -22041750.79809      1297.44109        53.12509  21039173.93809
 -16941580.48909      1010.99309        56.81209
  22063390.50009 -16212083.98309      3223.20309        51.87509  22063395.12509
 -12391397.50109      2511.58709        52.12509
 25  1 27  1 19 30.0000000  0 10G08G10G15G16G18G23G24G26G27G32
  23064711.84408  -9793127.35908      2945.10308        44.87508  23064717.15608
  -7396231.09408      2294.88508        48.93808
  20281347.68809 -24459740.70009      -175.93809        54.37509  20281350.06209
 -18824543.62709      -137.09409        57.81209
          .00000          .00000          .00000          .00000  25361003.03107
    292134.59407          .00007        30.12507
  23639136.53107  -8133545.76007     -2273.86707        38.00007  23639141.81207
  -6103386.67707     -1771.84507        39.18807
  22970516.56208 -11329860.82808     -2099.74908        42.56208  22970519.90608
  -8593795.27908     -1636.16808        44.93808
  21607360.68808 -16590401.77108     -2348.08108        45.93808  21607362.28108
 -12692240.47908     -1829.67408        48.50008
  25393228.00007   -408023.97607       775.31207        38.12507  25393237.56208
    -85163.36808       604.14008        42.43808
  25082363.34407     38877.79707     -2501.25207        36.87507  25082378.68808
    264396.08208     -1949.02808        43.31208
  21031814.53109 -22080407.95909      1279.71409        52.81209  21031817.53109
 -16971702.95009       997.18009        56.62509
  22045021.03109 -16308616.22909      3212.31009        51.68809  22045025.40609
 -12466617.31409      2503.09809        52.00009
 25  1 27  1 20  0.0000000  0  9G08G10G16G18G23G24G26G27G32
  23047930.40608  -9881316.65408      2934.39508        45.50008  23047935.00008
  -7464949.95908      2286.54108        48.93808
  20282389.12509 -24454267.55109      -188.80609        54.56209  20282391.75009
 -18820278.84309      -147.12209        58.00009
  23652136.37507  -8065226.71007     -2280.62507        36.50007  23652143.34408
  -6050151.38308     -1777.11008        40.31208
  22982520.96908 -11266776.84208     -2105.90108        42.68808  22982524.81208
  -8544639.04208     -1640.96208        44.93808
  21620779.12508 -16519886.41808     -2352.79308        46.00008  21620780.87508
 -12637293.51608     -1833.34508        48.43808
  25388834.65607   -431110.45407       764.05307        39.56207  25388844.50008
   -103152.83408       595.36608        43.87508
  25096631.18807    113853.85107     -2496.95807        37.43807  25096646.28108
    322818.82208     -1945.68208        42.18808
  21024560.90609 -22118526.91309      1261.74809        53.00009  21024563.68809
 -17001406.02709       983.18009        56.68809
  22026714.28109 -16404818.07209      3201.16909        51.87509  22026718.75009
 -12541579.67909      2494.41809        52.25009
 25  1 27  1 20 30.0000000  0 10G08G10G15G16G18G23G24G26G27G32
  23031209.59408  -9969184.18908      2923.54208        45.62508  23031213.78108
  -7533418.10708      2278.08508        48.37508
  20283503.34409 -24448412.86909      -201.51609        54.56209  20283505.65609
 -18815716.76509      -157.02609        58.00009
  25396460.40607    682028.78507     -3109.89507        31.00007          .00000
          .00000          .00000          .00000
  23665176.00007  -7996703.43607     -2287.38307        36.37507  23665183.34408
  -5996756.95108     -1782.37608        40.50008
  22994560.71908 -11203507.85008     -2112.15608        42.56208  22994564.15608
  -8495338.65208     -1645.83608        44.87508
  21634224.59408 -16449232.65108     -2357.31008        45.81208  21634226.28108
 -12582238.70208     -1836.86508        48.87508
  25384505.18807   -453865.66907       752.94707        39.25007  25384513.09408
   -120884.11408       586.71208        43.06208
  25110873.21907    188694.68907     -2492.28807        39.50007  25110888.03108
    381136.25608     -1942.04208        41.18808
  21017410.00009 -22156105.91809      1243.66009        53.00009  21017412.71909
 -17030688.37009       969.08509        56.75009
  22008471.18809 -16500686.55809      3190.07609        51.87509  22008475.43809
 -12616282.28809      2485.77309        52.43809
 25  1 27  1 21  0.0000000  0  9G08G10G15G16G18G23G24G27G32
  23014551.06208 -10056727.20608      2912.66108        45.93808  23014555.46908
  -7601633.39508      2269.60608        48.75008
  20284689.81209 -24442178.03909      -214.05009        54.56209  20284692.25009
 -18810858.46109      -166.79209        57.93809
  25414226.56206    775389.55806     -3114.83206        29.56206  25414237.65606
    510227.68806     -2427.14106        29.75006
  23678255.03107  -7927979.18907     -2294.25807        37.56207  23678261.15607
  -5943205.90607     -1787.73307        39.62507
  23006635.31208 -11140053.74808     -2118.12008        42.25008  23006639.62508
  -8445894.00008     -1650.48308        44.93808
  21647695.40608 -16378442.11808     -2361.85508        45.62508  21647697.06208
 -12527077.31508     -1840.40708        48.68808
  25380237.21907   -476287.79207       741.52307        38.50007  25380247.96908
   -138355.85008       577.81008        44.00008
  21010362.21909 -22193143.26009      1225.53209        53.12509  21010364.71909
 -17059548.63109       954.96009        56.50009
  21990291.96909 -16596218.73909      3178.80609        51.87509  21990296.21909
 -12690722.82809      2476.99209        52.25009
 25  1 27  1 21 30.0000000  0  8G08G10G16G18G23G24G27G32
  22997953.25008 -10143942.99508      2901.75508        45.56208  22997958.84408
  -7669593.70408      2261.10808        49.12508
  20285948.25009 -24435564.30709      -226.72909        54.56209  20285950.78109
 -18805704.92309      -176.67209        57.75009
  23691370.53107  -7859056.97907     -2300.37807        38.18807  23691375.90607
  -5889500.57507     -1792.50307        38.43807
  23018745.81208 -11076414.33508     -2124.37508        42.43808  23018749.25008
  -8396304.96808     -1655.35708        44.50008
  21661191.87508 -16307516.42308     -2366.28908        45.43808  21661193.71908
 -12471810.62708     -1843.86208        48.25008
  25376034.87507   -498375.17707       730.77407        39.62507  25376044.50008
   -155566.77908       569.43408        43.93808
  21003417.59409 -22229637.17109      1207.50509        53.12509  21003420.03109
 -17087985.45009       940.91309        56.43809
  21972177.09409 -16691411.65609      3167.57609        51.87509  21972181.43809
 -12764899.02509      2468.24109        52.12509
 25  1 27  1 22  0.0000000  0  8G08G10G16G18G23G24G27G32
  22981419.87508 -10230828.95708      2890.61308        45.81208  22981425.46908
  -7737296.98208      2252.42608        49.75008
  20287278.37509 -24428573.14909      -239.42609        54.43809  20287281.03109
 -18800257.26809      -186.56609        57.93809
  23704524.03107  -7789939.94407     -2307.11907        38.12507  23704529.03107
  -5835643.43907     -1797.75507        38.81207
  23030891.37508 -11012589.69108     -2130.59608        42.43808  23030895.62508
  -8346571.57908     -1660.20408        45.31208
  21674714.12508 -16236457.29708     -2371.04208        45.37508  21674715.81208
 -12416439.94608     -1847.56608        47.93808
  25371895.59407   -520126.30307       719.45607        39.56207  25371905.15608
   -172515.68108       560.61508        43.87508
  20996576.53109 -22265586.19109      1189.15509        53.06209  20996579.28109
 -17115997.66209       926.61509        56.62509
  21954127.56209 -16786262.49109      3155.87909        51.93809  21954131.84409
 -12838808.65609      2459.12609        52.43809
 25  1 27  1 22 30.0000000  0  9G08G10G15G16G18G23G24G27G32
  22964949.37508 -10317382.38408      2879.69008        45.68808  22964954.25008
  -7804741.14808      2243.91408        49.12508
  20288680.46909 -24421205.86109      -251.79009        54.43809  20288683.12509
 -18794516.53109      -196.20009        57.93809
          .00000          .00000          .00000          .00000  25467661.50007
     48012.41907          .00007        30.37507
  23717711.43807  -7720631.21207     -2313.07607        35.93807  23717718.28107
  -5781636.95307     -1802.39707        38.56207
  23043072.59408 -10948579.68108     -2136.81908        42.43808  23043076.37508
  -8296693.77108     -1665.05408        45.06208
  21688261.28108 -16165266.38508     -2375.21208        45.68808  21688262.84408
 -12360966.55508     -1850.81508        47.62508
  25367821.59407   -541539.55807       708.30807        40.00007  25367829.15608
   -189201.23308       551.92808        42.75008
  20989839.65609 -22300988.45909      1170.92009        53.12509  20989842.43809
 -17143583.83809       912.40609        56.62509
  21936143.59409 -16880768.38309      3144.45109        51.93809  21936147.90609
 -12912449.50009      2450.22109        52.37509
 25  1 27  1 23  0.0000000  0  9G08G10G15G16G18G23G24G27G32
  22948542.90608 -10403600.52108      2868.47408        46.12508  22948547.50008
  -7871924.07008      2235.17508        49.37508
  20290153.62509 -24413463.77409      -264.19409        54.56209  20290156.46909
 -18788483.75209      -205.86609        58.00009
  25485505.37507    218503.91707     -3128.31307        30.06207          .00000
          .00000          .00000          .00000
  23730937.65607  -7651133.83007     -2319.47007        37.75007  23730943.84407
  -5727483.51907     -1807.37907        38.87507
  23055288.81208 -10884384.14308     -2142.97108        42.56208  23055292.15608
  -8246671.40208     -1669.84808        45.06208
  21701833.59408 -16093945.30908     -2379.41408        45.87508  21701835.25008
 -12305391.75608     -1854.08908        48.18808
  25363811.34407   -562613.11907       696.82607        39.00007  25363820.46908
   -205622.20908       542.98108        44.56208
  20983207.15609 -22335842.38509      1152.77809        53.06209  20983210.03109
 -17170742.73709       898.26909        56.81209
  21918226.00009 -16974926.32109      3132.91009        52.06209  21918230.25009
 -12985819.21909      2441.22909        52.62509
 25  1 27  1 23 30.0000000  0  9G08G10G15G16G18G23G24G27G32
  22932200.06208 -10489480.72808      2857.10208        46.31208  22932205.03108
  -7938843.66908      2226.31308        49.31208
  20291698.03109 -24405348.32409      -276.65309        54.43809  20291700.81209
 -18782160.03209      -215.57409        57.87509
  25503376.50007    312417.04307     -3131.51607        30.68807  25503382.50007
    194261.45707     -2440.14207        30.75007
  23744198.84407  -7581451.06207     -2325.71507        38.00007  23744204.68807
  -5673185.54307     -1812.24607        39.00007
  23067539.56208 -10820003.05608     -2148.92608        42.31208  23067543.81208
  -8196504.43308     -1674.48808        44.56208
  21715429.96908 -16022495.65408     -2383.72608        45.68808  21715431.43808
 -12249716.77608     -1857.44808        48.12508
  25359865.56207   -583345.60807       685.22507        39.18807  25359874.84408
   -221777.30408       533.94108        43.37508
  20976679.25009 -22370146.41509      1134.39709        53.00009  20976682.31209
 -17197473.14409       883.94609        56.68809
  21900374.90609 -17068733.51509      3121.11309        52.06209  21900379.31209
 -13058915.63709      2432.03609        52.56209
 25  1 27  1 24  0.0000000  0  9G08G10G15G16G18G23G24G27G32
  22915922.84408 -10575020.44408      2845.64008        46.00008  22915926.96908
  -8005497.93408      2217.38208        49.50008
  20293313.43809 -24396860.95809      -289.26509        54.50009  20293315.93809
 -18775546.51709      -225.40109        57.87509
  25521266.25007    406417.10507     -3135.16807        31.00007  25521272.34407
    267520.45207     -2442.98907        32.50007
  23757493.46907  -7511585.72807     -2332.08507        37.68807  23757500.37508
  -5618745.38408     -1817.20908        40.68808
  23079826.53108 -10755436.40108     -2155.40308        42.43808  23079830.31208
  -8146192.88708     -1679.53508        44.43808
  21729050.34408 -15950919.19708     -2388.08608        45.56208  21729051.93808
 -12193942.99308     -1860.84608        47.93808
  25355985.18807   -603735.37607       673.95507        39.43807  25355994.96908
   -237665.37408       525.16008        43.75008
  20970256.18809 -22403899.02709      1115.90109        52.93809  20970259.31209
 -17223773.87509       869.53309        56.68809
  21882590.96909 -17162187.16209      3109.16509        52.06209  21882595.37509
 -13131736.55709      2422.72609        52.68809
 25  1 27  1 24 30.0000000  0  9G08G10G15G16G18G23G24G27G32
  22899709.84408 -10660216.91808      2834.06708        45.56208  22899715.21908
  -8071884.77508      2208.36408        49.68808
  20294998.90609 -24388002.99209      -301.37209        54.31209  20295001.43809
 -18768644.23209      -234.83509        57.81209
  25539176.40606    500535.62106     -3139.53106        27.31206  25539183.43807
    340859.35307     -2446.38807        35.00007
  23770822.96907  -7441541.03007     -2337.58507        37.31207  23770830.03108
  -5564165.45808     -1821.49508        40.06208
  23092148.96908 -10690684.10008     -2161.54808        42.50008  23092152.46908
  -8095736.68508     -1684.32308        44.43808
  21742694.81208 -15879217.51308     -2392.03608        45.43808  21742696.84408
 -12138071.62608     -1863.92408        48.12508
  25352171.06208   -623780.81208       662.36108        40.43808  25352180.56208
   -253285.20708       516.12508        43.62508
  20963938.62509 -22437098.64409      1097.48009        52.87509  20963941.78109
 -17249643.71809       855.18009        56.81209
  21864875.43809 -17255284.37609      3097.28009        52.18809  21864879.68809
 -13204279.76609      2413.46509        52.68809
 25  1 27  1 25  0.0000000  0  9G08G10G15G16G18G23G24G27G32
  22883563.09408 -10745067.36108      2822.61008        45.62508  22883568.68808
  -8138001.91808      2199.43608        49.93808
  20296754.90609 -24378775.64409      -313.59409        54.43809  20296757.06209
 -18761454.11109      -244.35909        58.06209
  25557103.28106    594754.02006     -3142.42706        22.75006  25557112.62507
    414276.06407     -2448.64407        36.31207
  23784186.06207  -7371319.85607     -2343.46207        37.18807  23784193.18807
  -5509448.04207     -1826.07407        39.50007
  23104506.65608 -10625745.87508     -2167.81708        42.87508  23104510.00008
  -8045135.60508     -1689.20808        44.87508
  21756362.71908 -15807392.02308     -2396.33308        45.06208  21756364.53108
 -12082103.78308     -1867.27208        47.93808
  25348422.68808   -643480.30908       650.95008        40.75008  25348432.59408
   -268635.41508       507.23408        45.62508
  20957726.56209 -22469743.52409      1078.86509        52.93809  20957729.56209
 -17275081.28409       840.67409        57.06209
  21847227.75009 -17348022.12609      3085.25909        52.18809  21847232.09409
 -13276542.85509      2404.09809        53.25009
 25  1 27  1 25 30.0000000  0  8G08G10G16G18G23G24G27G32
  22867483.50008 -10829569.18508      2810.93308        46.25008  22867488.31208
  -8203847.44808      2190.33708        49.81208
  20298580.59409 -24369180.40909      -325.83009        54.50009  20298583.34409
 -18753977.32309      -253.89409        57.75009
  23797581.21907  -7300925.81707     -2348.99907        37.18807  23797587.78107
  -5454595.87907     -1830.38907        37.87507
  23116898.81208 -10560621.80708     -2173.78908        42.68808  23116902.93808
  -7994389.69408     -1693.86208        44.62508
  21770054.15608 -15735444.46608     -2400.23408        45.31208  21770055.62508
 -12026040.81708     -1870.31208        47.93808
  25344738.75007   -662832.31007       639.36007        38.93807  25344749.06208
   -283714.85408       498.20308        44.37508
  20951620.46909 -22501832.26509      1060.40509        53.12509  20951623.31209
 -17300085.50309       826.29009        56.62509
  21829649.25009 -17440397.65709      3073.19309        52.31209  21829653.62509
 -13348523.71709      2394.69609        52.93809
 25  1 27  1 26  0.0000000  0  8G08G10G16G18G23G24G27G32
  22851469.84408 -10913719.72708      2799.09208        46.12508  22851474.81208
  -8269419.22408      2181.11108        49.81208
  20300476.25009 -24359218.66409      -338.19609        54.37509  20300478.90609
 -18746214.92909      -263.52909        57.81209
  23811010.56207  -7230361.68707     -2354.87307        38.12507  23811016.56207
  -5399611.13707     -1834.96607        38.18807
  23129326.93808 -10495311.79508     -2180.19008        42.25008  23129331.40608
  -7943498.89308     -1698.85008        44.81208
  21783768.37508 -15663376.35308     -2404.29708        45.31208  21783770.46908
 -11969883.90708     -1873.47808        48.31208
  25341123.46907   -681835.35907       627.59307        39.56207  25341133.59408
   -298522.36408       489.03308        45.31208
  20945620.21909 -22533363.32509      1041.69209        52.93809  20945622.81209
 -17324655.15909       811.70809        56.75009
  21812140.03109 -17532408.11809      3060.99609        52.18809  21812144.71909
 -13420220.08609      2385.19209        53.18809
 25  1 27  1 26 30.0000000  0  8G08G10G16G18G23G24G27G32
  22835523.62508 -10997516.56308      2787.35408        46.25008  22835528.15608
  -8334715.40608      2171.96408        49.68808
  20302441.65609 -24348892.02009      -350.32009        54.75009  20302443.93809
 -18738168.21109      -272.97709        57.93809
  23824470.18807  -7159630.63407     -2360.58107        37.68807  23824476.87507
  -5344496.41407     -1839.41407        39.37507
  23141790.37508 -10429816.03608     -2186.40108        42.37508  23141794.68808
  -7892463.37408     -1703.68908        44.87508
  21797505.09408 -15591189.50008     -2408.32808        45.25008  21797506.50008
 -11913634.50408     -1876.61908        47.56208
  25337573.87508   -700488.02508       616.02108        40.12508  25337583.81208
   -313056.88908       480.01608        44.93808
  20939726.31209 -22564335.44909      1023.09309        53.37509  20939728.96909
 -17348789.29009       797.21609        56.81209
  21794700.93809 -17624050.85409      3048.63809        52.50009  21794705.31209
 -13491629.93209      2375.56209        53.31209
 25  1 27  1 27  0.0000000  0  8G08G10G16G18G23G24G27G32
  22819645.81208 -11080956.75508      2775.32008        46.31208  22819649.93808
  -8399733.67508      2162.58708        49.25008
  20304475.78109 -24338201.65209      -362.39309        54.62509  20304478.50009
 -18729838.06009      -282.38409        57.81209
  23837960.25007  -7088735.54107     -2365.61807        36.75007  23837967.93807
  -5289253.81407     -1843.33907        39.37507
  23154289.12508 -10364134.15908     -2192.61708        42.06208  23154293.75008
  -7841282.82308     -1708.53308        44.50008
  21811264.31208 -15518885.26908     -2412.00908        45.56208  21811265.56208
 -11857293.59808     -1879.48808        47.18808
  25334092.43808   -718788.66108       604.19408        41.06208  25334101.43808
   -327317.05208       470.80108        44.81208
  20933939.34409 -22594746.89209      1004.36009        53.25009  20933942.00009
 -17372486.52509       782.61809        56.68809
  21777332.43809 -17715322.81909      3036.24509        52.56209  21777336.96909
 -13562750.85709      2365.90509        53.31209
 25  1 27  1 27 30.0000000  0  8G08G10G16G18G23G24G27G32
  22803836.00008 -11164037.66508      2763.32008        46.31208  22803840.25008
  -8464472.00308      2153.23708        49.43808
  20306579.03109 -24327148.92309      -374.44609        54.56209  20306581.68809
 -18721225.56109      -291.77609        57.68809
  23851482.28107  -7017679.46707     -2371.18207        36.18807  23851490.15607
  -5233885.83107     -1847.67407        39.93807
  23166823.90608 -10298266.14508     -2198.71808        42.37508  23166827.87508
  -7789957.24008     -1713.28708        44.18808
  21825045.31208 -15446465.15408     -2415.96208        45.56208  21825047.06208
 -11800862.43308     -1882.56808        47.56208
  25330675.75008   -736735.68008       592.27508        40.06208  25330686.00008
   -341301.69208       461.51308        45.25008
  20928259.37509 -22624596.22409       985.55209        53.18809  20928261.81209
 -17395745.75709       767.96209        56.50009
  21760034.93809 -17806221.19509      3023.61809        52.50009  21760039.56209
 -13633580.68809      2356.06609        53.37509
 25  1 27  1 28  0.0000000  0  8G08G10G16G18G23G24G27G32
  22788095.40608 -11246756.77708      2751.14308        46.43808  22788099.81208
  -8528928.40608      2143.74808        49.62508
  20308751.00009 -24315735.36609      -386.37009        54.43809  20308753.65609
 -18712331.88209      -301.06709        57.56209
  23865034.40607  -6946465.95807     -2376.49907        36.12507  23865040.75007
  -5178395.17107     -1851.81707        38.37507
  23179393.71908 -10232212.02708     -2204.95608        42.37508  23179397.81208
  -7738486.63708     -1718.14808        44.12508
  21838847.93808 -15373930.84308     -2419.61208        45.00008  21838849.90608
 -11744342.24208     -1885.41208        47.25008
  25327328.25008   -754327.76708       580.27808        40.18808  25327337.71908
   -355009.74808       452.16508        44.56208
  20922686.37509 -22653882.12809       966.82909        53.06209  20922688.96909
 -17418565.94509       753.37309        56.50009
  21742809.06209 -17896743.29909      3011.17209        52.43809  21742813.68809
 -13704117.30909      2346.36809        53.31209
 25  1 27  1 28 30.0000000  0  8G08G10G16G18G23G24G27G32
  22772423.21908 -11329111.35808      2739.01908        46.31208  22772428.18809
  -8593100.76409      2134.30009        50.12509
  20310991.40609 -24303962.29809      -398.40609        54.56209  20310994.00009
 -18703158.07209      -310.44609        57.75009
  23878616.12507  -6875097.61207     -2381.31307        38.00007  23878622.06207
  -5122783.86007     -1855.56907        37.62507
  23191998.90608 -10165971.76608     -2211.16508        42.31208  23192002.53108
  -7686870.97408     -1722.98508        44.18808
  21852672.37508 -15301283.78508     -2423.34208        45.06208  21852674.37508
 -11687734.22808     -1888.31908        47.87508
  25324048.00007   -771563.46107       568.59607        39.43807  25324056.65608
   -368440.08808       443.06208        43.81208
  20917220.96909 -22682603.11009       947.97109        53.31209  20917223.62509
 -17440945.94209       738.67909        56.93809
  21725655.43809 -17986886.22709      2998.44209        52.68809  21725659.90609
 -13774358.47309      2336.44909        53.75009
 25  1 27  1 29  0.0000000  0  8G08G10G16G18G23G24G27G32
  22756821.96908 -11411098.89708      2726.71108        46.62508  22756826.34408
  -8656987.10708      2124.71008        50.00008
  20313299.93809 -24291831.27109      -410.47109        54.62509  20313302.59409
 -18693705.32809      -319.84809        57.87509
  23892225.96907  -6803577.89507     -2386.68207        37.68807  23892231.75007
  -5067054.52507     -1859.75207        36.25007
  23204639.21908 -10099545.33208     -2217.36808        42.00008  23204643.68808
  -7635110.25808     -1727.81908        44.31208
  21866518.28108 -15228525.63708     -2427.19008        45.87508  21866519.87508
 -11631039.66008     -1891.31708        47.56208
  25320835.62507   -788441.24307       556.60407        39.00007  25320844.56208
   -381591.51308       433.71708        44.06208
  20911863.34409 -22710757.91109       928.95809        53.37509  20911866.00009
 -17462884.75609       723.86309        56.81209
  21708574.53109 -18076647.28509      2985.57609        52.81209  21708579.00009
 -13844302.07809      2326.42309        53.62509
 25  1 27  1 29 30.0000000  0  8G08G10G16G18G23G24G27G32
  22741290.50008 -11492716.64708      2714.47508        46.50008  22741294.75008
  -8720585.31208      2115.17508        49.50008
  20315676.31209 -24279343.65109      -422.21909        54.75009  20315678.81209
 -18683974.72509      -329.00209        57.68809
  23905864.28107  -6731909.63907     -2391.17207        36.87507  23905870.96907
  -5011209.41807     -1863.25107        38.12507
  23217315.75008 -10032932.62608     -2223.57708        42.06208  23217319.93808
  -7583204.39508     -1732.65708        44.56208
  21880384.34408 -15155657.79908     -2430.92308        45.68808  21880386.15608
 -11574259.60908     -1894.22608        47.50008
  25317692.93808   -804959.68708       544.64608        40.18808  25317703.18808
   -394463.01008       424.39908        45.06208
  20906613.68809 -22738345.06509       910.06109        53.31209  20906616.50009
 -17484381.25309       709.13809        56.81209
  21691566.71909 -18166023.59209      2972.71509        52.81209  21691571.03109
 -13913945.88609      2316.40109        53.56209
 25  1 27  1 30  0.0000000  0  8G08G10G16G18G23G24G27G32
  22725830.03108 -11573962.04608      2702.03908        46.75008  22725834.06208
  -8783893.38208      2105.48508        49.56208
  20318120.09409 -24266500.90109      -433.90109        54.50009  20318122.68809
 -18673967.39209      -338.10509        57.81209
  23919530.03107  -6660095.90407     -2396.03007        35.87507  23919538.40607
  -4955251.08107     -1867.03707        39.81207
  23230026.96908  -9966133.73408     -2229.76608        41.87508  23230031.09408
  -7531153.47708     -1737.48008        44.37508
  21894271.43808 -15082681.88008     -2434.21408        45.18808  21894273.06208
 -11517395.33208     -1896.79008        47.87508
  25314617.62507   -821117.47507       532.60707        39.62507  25314627.12508
   -407053.44208       415.01908        43.50008
  20901472.09409 -22765363.32409       891.19909        53.25009  20901475.09409
 -17505434.44409       694.44109        56.93809
  21674632.68809 -18255012.50409      2959.83609        52.81209  21674636.93809
 -13983287.82309      2306.36609        53.50009
 25  1 27  1 30 30.0000000  0  8G08G10G16G18G23G24G27G32
  22710440.81208 -11654832.49008      2689.46008        46.87508  22710444.93808
  -8846909.28008      2095.68308        49.62508
  20320631.25009 -24253304.45609      -445.67109        54.50009  20320633.71909
 -18663684.44609      -347.27609        57.62509
  23933221.34407  -6588139.88007     -2400.78407        34.75007  23933230.62507
  -4899181.87807     -1870.74007        39.18807
  23242774.43808  -9899148.61008     -2236.00808        42.50008  23242778.68808
  -7478957.41908     -1742.34408        44.25008
  21908178.56208 -15009599.39708     -2437.78608        45.18808  21908180.53108
 -11460448.01508     -1899.57308        48.18808
  25311613.56207   -836913.10107       520.45907        39.62507  25311621.03108
   -419361.66608       405.55208        43.37508
  20896439.09409 -22791811.37209       872.19709        53.31209  20896442.09409
 -17526043.31209       679.63409        56.75009
  21657772.90609 -18343611.19809      2946.78509        52.87509  21657777.03109
 -14052325.68209      2296.19609        53.43809
 25  1 27  1 31  0.0000000  0  8G08G10G16G18G23G24G27G32
  22695123.09408 -11735325.24208      2676.88708        46.56208  22695127.75009
  -8909630.86509      2085.88609        50.06209
  20323209.43809 -24239755.59609      -457.31909        54.43809  20323212.09409
 -18653126.90509      -356.35309        57.81209
  23946943.15607  -6516044.80707     -2405.58607        37.37507  23946950.12507
  -4843004.30707     -1874.48307        38.62507
  23255556.59408  -9831977.10808     -2241.96808        42.00008  23255559.93808
  -7426616.10508     -1746.98808        43.81208
  21922105.71908 -14936411.68208     -2441.33308        45.56208  21922107.96908
 -11403418.74508     -1902.33708        48.12508
  25308675.84407   -852345.10507       508.56907        39.25007  25308686.03108
   -431386.50708       396.28808        45.50008
  20891515.00009 -22817687.74509       853.14009        53.18809  20891517.93809
 -17546206.73109       664.78409        56.87509
  21640987.87509 -18431816.81709      2933.76209        52.81209  21640991.87509
 -14121057.26609      2286.04909        53.62509
 25  1 27  1 31 30.0000000  0  8G08G10G16G18G23G24G27G32
  22679878.37508 -11815437.80508      2663.91108        47.00008  22679883.37509
  -8972056.19809      2075.77509        50.50009
  20325854.59409 -24225855.88409      -469.25009        54.62509  20325857.25009
 -18642295.96009      -365.65009        57.68809
  23960687.84407  -6443813.80407     -2409.72407        37.56207  23960695.71907
  -4786720.73207     -1877.70707        38.18807
  23268374.68808  -9764619.29608     -2248.45208        42.12508  23268378.21908
  -7374129.62708     -1752.04108        43.75008
  21936052.78108 -14863120.38308     -2444.93408        45.68808  21936054.59408
 -11346308.71008     -1905.14308        47.31208
  25305807.93807   -867412.17807       496.15707        38.75007  25305818.40608
   -443127.07708       386.61608        45.12508
  20886699.84409 -22842991.32309       833.86509        53.37509  20886702.71909
 -17565923.80309       649.76509        56.81209
  21624278.12509 -18519626.72109      2920.31509        53.00009  21624282.31209
 -14189480.49409      2275.57009        53.43809
 25  1 27  1 32  0.0000000  0  8G08G10G16G18G23G24G27G32
  22664706.09408 -11895167.51408      2651.30108        46.81208  22664710.96909
  -9034183.20609      2065.94909        50.62509
  20328566.03109 -24211606.76409      -480.67109        54.37509  20328568.75009
 -18631192.76209      -374.54909        57.87509
  23974458.15607  -6371449.71307     -2414.58507        36.75007  23974465.96907
  -4730333.49807     -1881.49507        37.56207
  23281228.00008  -9697075.14408     -2254.21908        41.75008  23281231.84408
  -7321497.93608     -1756.53408        44.06208
  21950019.03108 -14789726.90308     -2447.94708        45.06208  21950020.71908
 -11289119.06208     -1907.49108        47.25008
  25303011.71908   -882112.97008       484.16508        40.31208  25303018.62508
   -454582.14608       377.27108        43.62508
  20881993.93809 -22867720.82709       814.82909        53.12509  20881996.87509
 -17585193.56209       634.93209        56.93809
  21607644.21909 -18607038.16109      2907.15609        52.87509  21607648.34409
 -14257593.23409      2265.31609        53.68809
 25  1 27  1 32 30.0000000  0  8G08G10G16G18G23G24G27G32
  22649606.96908 -11974511.87208      2638.32508        46.68808  22649612.28109
  -9096009.92809      2055.83809        50.25009
  20331343.75009 -24197009.73309      -492.44409        54.56209  20331346.53109
 -18619818.45709      -383.72209        57.62509
  23988253.46907  -6298955.77107     -2418.39807        35.31207  23988260.65607
  -4673845.06007     -1884.46607        36.00007
  23294115.96908  -9629344.68008     -2260.82508        41.62508  23294121.00008
  -7268721.10808     -1761.68208        44.06208
  21964004.40608 -14716232.78008     -2451.44308        44.93808  21964006.28108
 -11231850.99108     -1910.21508        46.87508
  25300282.34407   -896446.17307       471.68007        38.37507  25300293.93808
   -465750.82208       367.54308        45.81208
  20877397.62509 -22891875.09609       795.53009        53.31209  20877400.62509
 -17604015.07409       619.89309        56.87509
  21591086.62509 -18694048.49709      2893.69909        53.00009  21591090.65609
 -14325393.41909      2254.83009        53.50009
 25  1 27  1 33  0.0000000  0  8G08G10G16G18G23G24G27G32
  22634582.34408 -12053468.19908      2625.45208        46.62508  22634587.15608
  -9157534.29408      2045.80708        50.00008
  20334187.43809 -24182066.17109      -503.77209        54.37509  20334190.00009
 -18608174.13509      -392.55009        57.50009
  24002072.34407  -6226335.11707     -2422.89807        34.31207  24002081.65607
  -4617257.93407     -1887.97207        37.31207
  23307041.15608  -9561427.85308     -2266.81608        41.87508  23307045.68808
  -7215799.04508     -1766.35008        44.31208
  21978009.03108 -14642639.36608     -2454.64608        44.50008  21978010.93808
 -11174505.57108     -1912.71108        47.31208
  25297626.37507   -910410.36107       459.51707        38.68807  25297636.68808
   -476632.00008       358.06508        46.50008
  20872911.03109 -22915452.85009       776.43809        53.12509  20872913.84409
 -17622387.36009       605.01709        56.62509
  21574605.87509 -18780654.89209      2880.18609        52.62509  21574609.90609
 -14392878.84709      2244.30109        53.43809
 25  1 27  1 33 30.0000000  0  8G08G10G16G18G23G24G27G32
  22619632.18808 -12132033.91608      2612.33908        47.12508  22619635.96908
  -9218754.29008      2035.58908        49.93808
  20337096.87509 -24166777.46709      -515.19809        54.75009  20337099.43809
 -18596260.86209      -401.45309        57.68809
  24015915.62507  -6153590.73307     -2426.80207        34.93807  24015925.09407
  -4560574.39007     -1891.01407        39.00007
  23320000.25008  -9493324.67708     -2273.04708        41.93808  23320005.18808
  -7162731.78108     -1771.20508        44.25008
  21992031.90608 -14568948.19908     -2457.95408        44.87508  21992033.71908
 -11117083.94808     -1915.28908        47.18808
  25295038.62507   -924004.22407       446.83307        39.37507  25295048.46908
   -487224.55608       348.18208        45.00008
  20868534.37509 -22938452.92009       757.18309        53.43809  20868537.18809
 -17640309.50609       590.01209        56.87509
  21558202.37509 -18866854.68309      2866.66009        53.00009  21558206.56209
 -14460047.43509      2233.76109        53.43809
 25  1 27  1 34  0.0000000  0  8G08G10G16G18G23G24G27G32
  22604756.09408 -12210206.46108      2599.16508        46.68808  22604760.46909
  -9279667.91709      2025.32309        50.25009
  20340071.71909 -24151145.17609      -526.82409        54.62509  20340074.28109
 -18584079.87509      -410.51209        57.75009
  24029782.75007  -6080725.64507     -2431.08207        36.56207  24029791.53107
  -4503796.83007     -1894.34907        39.62507
  23332996.31208  -9425035.14308     -2279.45608        42.12508  23333000.31208
  -7109519.29408     -1776.19908        43.93808
  22006073.25008 -14495160.64208     -2461.14708        44.93808  22006075.12508
 -11059587.24608     -1917.77708        46.93808
  25292523.00007   -937226.46807       434.61407        40.00007  25292532.90608
   -497527.57508       338.66008        45.25008
  20864267.65609 -22960874.16109       737.77809        53.43809  20864270.53109
 -17657780.62209       574.89209        56.93809
  21541877.00009 -18952645.18009      2852.80809        52.93809  21541880.96909
 -14526897.10309      2222.96709        53.62509
 25  1 27  1 34 30.0000000  0  8G08G10G16G18G23G24G27G32
  22589955.71908 -12287983.26708      2585.94708        46.81208  22589960.40609
  -9340273.16809      2015.02409        50.50009
  20343111.40609 -24135170.70809      -538.08109        54.75009  20343114.06209
 -18571632.25709      -419.28409        57.75009
  24043671.03107  -6007742.81007     -2434.68007        37.62507  24043679.75007
  -4446927.50007     -1897.15307        38.87507
  23346025.28108  -9356559.30708     -2285.49608        41.18808  23346029.87508
  -7056161.61108     -1780.90608        43.37508
  22020132.68808 -14421278.14908     -2464.25508        45.06208  22020134.62508
 -11002016.56408     -1920.19908        47.43808
  25290077.96907   -950075.80207       422.11207        39.75007  25290088.06208
   -507540.02008       328.91808        46.06208
  20860111.50009 -22982715.38009       718.34209        53.56209  20860114.25009
 -17674799.77409       559.74709        57.06209
  21525630.00009 -19038023.69109      2839.04809        53.06209  21525633.90609
 -14593425.73809      2212.24509        53.68809
 25  1 27  1 35  0.0000000  0  8G08G10G16G18G23G24G27G32
  22575230.93808 -12365361.76508      2572.63208        47.00008  22575236.18809
  -9400568.03909      2004.64809        50.62509
  20346216.15609 -24118855.56209      -549.40709        54.62509  20346218.93809
 -18558919.15909      -428.10909        57.68809
  24057581.50007  -5934645.63907     -2438.37407        36.68807  24057589.25007
  -4389969.04507     -1900.03207        37.31207
  23359092.40608  -9287897.16108     -2291.83808        41.37508  23359096.46908
  -7002658.77908     -1785.84808        43.31208
  22034209.62508 -14347302.21708     -2467.26608        44.37508  22034212.15608
 -10944373.04608     -1922.54508        47.00008
  25287703.96908   -962551.00508       409.62908        40.06208  25287713.31208
   -517260.94508       319.19108        44.93808
  20856065.84409 -23003975.58509       699.07709        53.50009  20856068.71909
 -17691366.17009       544.73509        56.93809
  21509461.96909 -19122987.61409      2825.33909        53.06209  21509465.65609
 -14659631.30509      2201.56309        53.62509
 25  1 27  1 35 30.0000000  0  8G08G10G16G18G23G24G27G32
  22560582.40608 -12442339.43908      2559.49008        47.06208  22560587.34409
  -9460550.58909      1994.40809        50.68809
  20349385.53109 -24102201.21309      -560.48109        54.75009  20349387.96909
 -18545941.76009      -436.73809        57.68809
  24071511.53107  -5861437.03907     -2442.31207        34.43807  24071521.71907
  -4332923.76007     -1903.10007        37.43807
  23372194.25008  -9219048.82008     -2297.89608        41.68808  23372198.50008
  -6949010.84808     -1790.56808        43.68808
  22048304.53108 -14273234.20908     -2470.12508        44.43808  22048306.62508
 -10886657.82908     -1924.77208        47.06208
  25285401.84407   -974650.77507       397.27507        39.56207  25285410.43808
   -526689.31108       309.56508        43.81208
  20852130.75009 -23024653.67009       679.79209        53.50009  20852133.62509
 -17707478.98409       529.70809        57.00009
  21493372.87509 -19207534.24509      2811.45509        53.12509  21493376.90609
 -14725511.72809      2190.74409        53.93809
 25  1 27  1 36  0.0000000  0  9G08G10G16G18G21G23G24G27G32
  22546010.34408 -12518913.69908      2545.88408        46.75008  22546015.65609
  -9520218.79409      1983.80609        50.62509
  20352619.06209 -24085209.01209      -572.01409        54.56209  20352621.62509
 -18532701.10609      -445.72509        57.68809
  24085464.28107  -5788120.06407     -2445.93807        34.25007  24085473.78107
  -4275794.01707     -1905.92507        36.62507
  23385331.06208  -9150014.16108     -2304.18708        41.75008  23385335.93808
  -6895217.74008     -1795.47008        44.06208
  25305128.00007    952248.81907      3472.05807        33.00007  25305133.65607
    976475.89707      2705.50007        35.87507
  22062416.84408 -14199075.43408     -2473.50608        44.75008  22062418.59408
 -10828871.86208     -1927.40708        46.81208
  25283170.65608   -986373.83008       384.70508        40.18808  25283180.03108
   -535824.14508       299.77008        44.75008
  20848307.12509 -23044748.44409       660.18309        53.37509  20848309.93809
 -17723137.27209       514.42809        57.00009
  21477364.03109 -19291660.86509      2797.15809        53.06209  21477368.09409
 -14791064.85909      2179.60409        53.87509
 25  1 27  1 36 30.0000000  0  9G08G10G16G18G21G23G24G27G32
  22531516.46908 -12595082.10708      2532.35108        47.50008  22531520.71909
  -9579570.75309      1973.26109        50.06209
  20355916.43809 -24067880.65309      -582.99109        54.87509  20355919.15609
 -18519198.49809      -454.27809        57.56209
  24099437.09407  -5714698.11107     -2448.77407        36.31207  24099445.96907
  -4218582.47507     -1908.13607        37.93807
  23398503.31208  -9080793.34408     -2310.31208        41.87508  23398507.50008
  -6841279.58208     -1800.24408        43.75008
  25285296.18807    848028.67507      3476.15707        33.06207  25285300.65607
    895265.57307      2708.69407        36.43807
  22076545.75008 -14124827.47508     -2476.27208        45.18808  22076547.56208
 -10771016.39208     -1929.56308        46.75008
  25281011.53108   -997719.04608       372.00708        40.25008  25281020.87508
   -544664.57008       289.87508        44.12508
  20844594.37509 -23064259.07409       640.83709        53.81209  20844596.93809
 -17738340.37309       499.35409        56.87509
  21461435.75009 -19375365.04509      2783.25909        53.56209  21461439.59409
 -14856288.81909      2168.77309        53.87509
 25  1 27  1 37  0.0000000  0  9G08G10G16G18G21G23G24G27G32
  22517100.00008 -12670842.02208      2518.52808        47.25008  22517104.18809
  -9638604.42509      1962.48909        50.18809
  20359277.78109 -24050217.42809      -594.29009        54.56209  20359280.34409
 -18505434.96709      -463.08309        57.68809
  24113428.62507  -5641174.13207     -2452.53907        37.18807  24113436.65607
  -4161291.47907     -1911.06907        37.93807
  23411710.75008  -9011386.33708     -2316.56708        41.37508  23411715.71908
  -6787196.34708     -1805.11708        43.81208
  25265440.68807    743694.89107      3480.03707        32.31207  25265446.84407
    813966.62507      2711.71707        36.62507
  22090691.53108 -14050491.58508     -2479.49508        44.50008  22090693.75008
 -10713092.41008     -1932.07408        47.06208
  25278925.03108  -1008685.13708       359.34808        40.43808  25278933.00008
   -553209.55708       280.01208        42.81208
  20840993.00009 -23083184.39909       621.08609        53.31209  20840995.62509
 -17753087.40109       483.96309        56.93809
  21445588.25009 -19458644.03409      2768.96209        53.25009  21445592.15609
 -14921181.46809      2157.63309        54.18809
 25  1 27  1 37 30.0000000  0  9G08G10G16G18G21G23G24G27G32
  22502761.53108 -12746190.94608      2504.86108        47.68808  22502765.96909
  -9697317.82609      1951.84009        50.68809
  20362702.28109 -24032220.81609      -605.30309        54.68809  20362705.00009
 -18491411.64609      -471.66409        57.81209
  24127438.96907  -5567550.68907     -2455.77407        36.93807  24127447.90607
  -4103922.91807     -1913.59007        38.50007
  23424953.87508  -8941793.20108     -2322.68608        41.31208  23424959.09408
  -6732968.05408     -1809.88508        43.68808
  25245566.00007    639248.66507      3482.92207        33.68807  25245571.09407
    732580.05607      2713.96607        36.25007
  22104853.50008 -13976069.14008     -2482.20708        44.25008  22104855.84408
 -10655101.00708     -1934.18708        47.12508
  25276909.93807  -1019270.85707       346.75307        39.81207  25276918.96908
   -561458.15108       270.19708        43.31208
  20837503.37509 -23101523.44209       601.54809        53.43809  20837505.87509
 -17767377.57009       468.73909        56.93809
  21429822.25009 -19541495.18409      2754.54109        53.50009  21429826.15609
 -14985740.71609      2146.39609        54.25009
 25  1 27  1 38  0.0000000  0  9G08G10G16G18G21G23G24G27G32
  22488501.62508 -12821126.43008      2491.04708        47.50008  22488506.71909
  -9755709.07709      1941.07609        50.75009
  20366189.87509 -24013892.41709      -616.26509        54.18809  20366192.71909
 -18477129.79509      -480.20609        57.37509
  24141467.34407  -5493831.30707     -2458.77407        34.87507  24141476.00007
  -4046479.62107     -1915.92807        37.43807
  23438232.78108  -8872014.04808     -2328.84808        41.12508  23438237.53108
  -6678594.83208     -1814.68708        43.31208
  25225669.06207    534690.65407      3487.70307        33.00007  25225674.84407
    651106.40707      2717.69007        35.75007
  22119032.06208 -13901561.64208     -2484.76808        43.75008  22119034.37508
 -10597043.29308     -1936.18308        46.56208
  25274968.93807  -1029475.11207       333.90907        39.93807  25274978.62508
   -569409.49708       260.18908        43.68808
  20834125.28109 -23119275.32509       582.07309        53.18809  20834127.87509
 -17781210.22709       453.56309        56.81209
  21414138.06209 -19623916.00809      2740.31509        53.31209  21414141.90609
 -15049964.66509      2135.31009        54.18809
 25  1 27  1 38 30.0000000  0  9G08G10G16G18G21G23G24G27G32
  22474321.15608 -12895645.95908      2477.06808        47.56208  22474325.90609
  -9813776.20609      1930.18309        50.81209
  20369740.43809 -23995233.66609      -627.43909        54.31209  20369743.28109
 -18462590.53609      -488.91309        57.43809
  24155513.87507  -5420019.32607     -2461.78707        35.68807  24155523.09407
  -3988964.18807     -1918.27607        38.43807
  23451547.15608  -8802048.87608     -2335.36108        41.50008  23451551.21908
  -6624076.68408     -1819.76208        43.12508
  25205750.81207    430022.02307      3490.85907        33.68807  25205756.90607
    569546.50607      2720.15007        36.00007
  22133226.21908 -13826970.36008     -2487.71208        44.06208  22133228.65608
 -10538920.29608     -1938.47708        46.62508
  25273099.93808  -1039296.72808       320.97708        40.75008  25273109.15608
   -577062.71408       250.11208        44.31208
  20830859.09409 -23136439.10609       562.33209        53.43809  20830861.53109
 -17794584.62009       438.18009        56.87509
  21398536.25009 -19705903.95209      2725.75909        53.62509  21398540.06209
 -15113851.31709      2123.96809        54.31209
 25  1 27  1 39  0.0000000  0  9G08G10G16G18G21G23G24G27G32
  22460220.25008 -12969746.84208      2462.94908        47.50008  22460225.15609
  -9871517.09609      1919.18109        50.68809
  20373353.81209 -23976245.83209      -638.42809        54.37509  20373356.68809
 -18447794.83909      -497.47609        57.37509
  24169577.21907  -5346116.89407     -2465.12907        36.00007  24169586.15607
  -3931378.29707     -1920.88007        37.31207
  23464896.31208  -8731897.61508     -2341.64108        41.25008  23464901.06208
  -6569413.50608     -1824.65508        43.18808
  25185812.21907    325243.85107      3494.39007        33.56207  25185818.06207
    487901.25207      2722.90107        36.12507
  22147436.40608 -13752296.40708     -2490.54708        43.93808  22147439.06208
 -10480732.89308     -1940.68608        46.93808
  25271304.09408  -1048734.40308       308.20108        40.68808  25271312.90608
   -584416.73208       240.15608        44.06208
  20827705.12509 -23153013.62509       542.66409        53.31209  20827707.65609
 -17807499.83909       422.85509        56.87509
  21383017.34409 -19787456.18909      2711.03509        53.56209  21383021.03109
 -15177398.44409      2112.49509        54.18809
 25  1 27  1 39 30.0000000  0  9G08G10G16G18G21G23G24G27G32
  22446199.50008 -13043426.96208      2449.03108        47.68808  22446203.62509
  -9928930.14409      1908.33609        50.62509
  20377029.53109 -23956930.79509      -649.21409        54.56209  20377032.18809
 -18432744.17809      -505.88109        57.56209
  24183657.03107  -5272128.00107     -2467.63207        36.68807  24183666.50007
  -3873724.94207     -1922.83007        37.50007
  23478280.84408  -8661560.71908     -2347.81708        41.06208  23478285.93808
  -6514605.69808     -1829.46808        43.68808
  25165853.06207    220357.13207      3498.03507        33.75007  25165858.87507
    406171.47607      2725.74107        36.87507
  22161661.46908 -13677541.60508     -2493.21308        43.81208  22161664.00008
 -10422482.49708     -1942.76308        46.25008
  25269581.00007  -1057787.33507       295.56207        39.81207  25269590.21908
   -591470.98208       230.30808        43.87508
  20824663.15609 -23168998.43209       523.01509        53.37509  20824666.00009
 -17819955.55009       407.54409        57.12509
  21367581.71909 -19868570.55609      2696.47209        53.75009  21367585.62509
 -15240604.37809      2101.14709        54.50009
 25  1 27  1 40  0.0000000  0  9G08G10G16G18G21G23G24G27G32
  22432259.00008 -13116683.45308      2434.91208        47.93808  22432263.34409
  -9986013.09209      1897.33409        50.62509
  20380766.93809 -23937289.65409      -660.09809        54.62509  20380769.87509
 -18417439.41409      -514.36209        57.43809
  24197753.03107  -5198055.10607     -2470.31007        35.93807  24197761.75007
  -3816006.14407     -1924.91707        37.00007
  23491701.03108  -8591037.86108     -2353.55208        41.18808  23491706.12508
  -6459652.99008     -1833.93708        43.43808
  25145873.34407    115362.91107      3501.53607        33.31207  25145878.62507
    324357.92207      2728.46907        36.93807
  22175902.53108 -13602706.85308     -2495.74708        43.93808  22175904.62508
 -10364169.78208     -1944.73808        46.81208
  25267933.12508  -1066454.02508       282.40708        41.31208  25267941.93808
   -598224.23308       220.05808        44.62508
  20821733.81209 -23184392.26209       503.31509        53.62509  20821736.65609
 -17831950.75509       392.19409        57.00009
  21352230.00009 -19949244.11509      2681.72609        54.00009  21352233.90609
 -15303466.81809      2089.65709        54.37509
 25  1 27  1 40 30.0000000  0  9G08G10G16G18G21G23G24G27G32
  22418399.90608 -13189514.06508      2420.66908        47.50008  22418404.31209
 -10042764.20509      1886.23609        50.68809
  20384566.56209 -23917324.09909      -670.78909        54.50009  20384569.06209
 -18401881.85709      -522.69209        57.37509
  24211864.25007  -5123901.54407     -2473.09807        36.18807  24211873.68807
  -3758224.53207     -1927.08907        38.12507
  23505156.81208  -8520329.27108     -2359.92908        41.31208  23505162.12508
  -6404555.57108     -1838.90608        43.56208
  25125873.09407     10261.76907      3504.75807        32.81207  25125877.81207
    242460.98407      2730.98007        36.93807
  22190157.68808 -13527793.69108     -2498.41608        43.87508  22190160.06208
 -10305795.98608     -1946.81708        46.12508
  25266356.18807  -1074733.66007       269.62607        38.87507  25266366.18808
   -604675.91908       210.09908        44.37508
  20818917.21909 -23199194.49009       483.65509        53.31209  20818919.93809
 -17843484.97509       376.87409        57.06209
  21336962.59409 -20029474.59009      2667.02609        53.68809  21336966.50009
 -15365984.00809      2078.20209        54.56209
 25  1 27  1 41  0.0000000  0  9G08G10G16G18G21G23G24G27G32
  22404621.96908 -13261916.31508      2406.27908        47.50008  22404626.15609
 -10099181.49509      1875.02309        50.87509
  20388427.09409 -23897035.58309      -681.65809        54.25009  20388429.96909
 -18386072.63109      -531.16209        57.43809
  24225989.65607  -5049670.72707     -2475.69607        35.31207  24225999.00007
  -3700382.70207     -1929.11407        37.75007
  23518647.31208  -8449435.03408     -2366.31108        40.93808  23518652.81208
  -6349313.46408     -1843.87908        43.56208
  25105852.71907    -94945.04607      3508.88907        32.18807  25105858.31207
    160481.83807      2734.19907        36.43807
  22204428.12508 -13452803.36408     -2500.90608        44.00008  22204431.18808
 -10247362.03208     -1948.75808        47.62508
  25264854.15607  -1082624.99007       256.45307        38.62507  25264863.84408
   -610824.99608       199.83308        44.18808
  20816213.12509 -23213404.25409       463.82109        53.31209  20816215.84409
 -17854557.51709       361.41909        57.18809
  21321780.00009 -20109259.40309      2652.14609        53.75009  21321783.90609
 -15428153.91109      2066.60709        54.62509
 25  1 27  1 41 30.0000000  0  9G08G10G16G18G21G23G24G27G32
  22390925.93808 -13333887.77808      2391.66308        47.62508  22390931.03109
 -10155263.14309      1863.63309        51.18809
  20392349.28109 -23876425.68609      -692.39709        54.43809  20392351.71909
 -18370012.98609      -539.53109        57.31209
  24240130.03107  -4975365.26307     -2477.92207        34.75007  24240139.96907
  -3642482.73207     -1930.84907        38.62507
  23532173.93808  -8378355.31908     -2372.46308        41.43808  23532178.96908
  -6293926.83108     -1848.67308        43.43808
  25085812.75007   -200255.84707      3511.61607        33.50007  25085817.78107
     78421.58507      2736.32407        36.37507
  22218713.09408 -13377737.23608     -2503.58908        44.43808  22218715.75008
 -10188869.03408     -1950.84908        47.62508
  25263427.28107  -1090127.04307       243.17607        39.75007  25263436.90608
   -616670.76608       189.48808        45.75008
  20813621.84409 -23227020.85109       443.93809        53.18809  20813624.68809
 -17865167.87409       345.92609        57.00009
  21306682.68809 -20188596.11409      2637.00709        53.75009  21306686.59409
 -15489974.66209      2054.81109        54.50009
 25  1 27  1 42  0.0000000  0  9G08G10G16G18G21G23G24G27G32
  22377312.87508 -13405425.94908      2377.38808        47.93808  22377317.40609
 -10211007.11409      1852.51009        51.18809
  20396331.84409 -23855495.75809      -703.06609        54.43809  20396334.96909
 -18353703.96409      -547.84409        57.50009
  24254283.90607  -4900988.11807     -2480.10007        35.56207  24254293.40607
  -3584526.88607     -1932.54607        37.00007
  23545735.06208  -8307089.99908     -2378.90408        41.18808  23545740.59408
  -6238395.61608     -1853.69108        43.31208
  25065752.96907   -305669.57707      3515.83707        34.68807  25065758.75007
     -3718.79507      2739.61407        37.00007
  22233011.65608 -13302596.58208     -2505.85908        43.81208  22233014.25008
 -10130317.95708     -1952.61808        46.68808
  25262072.59407  -1097238.70707       230.50007        37.75007  25262083.28108
   -622212.29308       179.61108        44.87508
  20811143.84409 -23240043.36309       424.10409        53.37509  20811146.56209
 -17875315.29609       330.47109        56.93809
  21291671.25009 -20267482.13409      2621.97009        54.00009  21291674.87509
 -15551444.21709      2043.09409        54.56209
 25  1 27  1 42 30.0000000  0  9G08G10G16G18G21G23G24G27G32
  22363782.87508 -13476528.33608      2362.78808        48.25008  22363787.62509
 -10266411.54309      1841.13409        51.12509
  20400375.53109 -23834247.26309      -713.53509        54.50009  20400378.12509
 -18337146.71109      -556.00109        57.18809
  24268450.62507  -4826542.50207     -2482.65907        35.50007  24268460.96907
  -3526517.69007     -1934.53907        37.12507
  23559332.21908  -8235639.28808     -2384.78008        41.25008  23559337.37508
  -6182719.88208     -1858.27008        42.93808
  25045673.96907   -411185.73107      3518.47207        34.43807  25045678.59407
    -85939.08207      2741.66607        36.50007
  22247324.12508 -13227382.52808     -2508.34008        43.81208  22247327.31208
 -10071709.68608     -1954.55108        46.68808
  25260796.00008  -1103958.85608       217.67808        40.75008  25260803.87508
   -627448.78808       169.61908        43.25008
  20808778.90609 -23252471.07309       404.37309        53.18809  20808781.68809
 -17884999.24309       315.09509        56.81209
  21276745.87509 -20345914.98509      2606.89509        53.75009  21276749.62509
 -15612560.65809      2031.34609        54.50009
 25  1 27  1 43  0.0000000  0  9G08G10G16G18G21G23G24G27G32
  22350335.87508 -13547192.43608      2348.16408        48.56208  22350340.15609
 -10321474.45509      1829.73809        51.12509
  20404479.34409 -23812681.61609      -724.07209        54.56209  20404482.00009
 -18320342.32309      -564.21209        57.37509
  24282629.34407  -4752031.31307     -2484.55307        35.81207  24282639.81207
  -3468457.32607     -1936.01607        36.12507
  23572964.25008  -8164003.13208     -2391.05508        41.31208  23572969.28108
  -6126899.67608     -1863.16008        43.12508
  25025575.78107   -516803.11807      3522.46607        33.25007  25025580.59407
   -168238.16107      2744.77907        37.37507
  22261650.81208 -13152096.31608     -2510.60308        44.00008  22261653.93808
 -10013045.20008     -1956.31408        47.06208
  25259590.75007  -1110286.40607       204.35507        39.75007  25259600.81208
   -632379.34308       159.23808        44.93808
  20806527.18809 -23264303.13609       384.36009        53.31209  20806530.12509
 -17894219.06209       299.50209        57.06209
  21261907.18809 -20423892.05209      2591.59709        54.00009  21261910.93809
 -15673321.94409      2019.42609        54.56209
 25  1 27  1 43 30.0000000  0  9G08G10G16G18G21G23G24G27G32
  22336972.71908 -13617416.02808      2333.38908        48.31208  22336976.90609
 -10376194.12209      1818.22509        50.93809
  20408643.25009 -23790800.49009      -734.66609        54.62509  20408645.96909
 -18303292.11209      -572.46709        57.37509
  24296821.18807  -4677457.65307     -2486.73807        35.25007  24296830.68807
  -3410348.33107     -1937.71807        35.93807
  23586631.75008  -8092181.85508     -2397.12208        41.25008  23586636.40608
  -6070935.20808     -1867.88708        43.18808
  25005458.46907   -622520.51707      3525.84707        33.43807  25005462.65607
   -250615.20707      2747.41307        35.87507
  22275991.53108 -13076739.36408     -2513.04908        44.50008  22275993.96908
  -9954325.58308     -1958.22008        46.81208
  25258462.28107  -1116220.55207       191.32607        39.31207  25258471.62508
   -637003.37008       149.08508        45.31208
  20804389.12509 -23275539.10009       364.60409        53.12509  20804392.06209
 -17902974.38209       284.10709        56.93809
  21247156.09409 -20501411.10609      2576.25509        54.00009  21247159.65609
 -15733726.34309      2007.47109        54.75009
 25  1 27  1 44  0.0000000  0  9G08G10G16G18G21G23G24G27G32
  22323693.93808 -13687196.68408      2318.48408        48.43808  22323698.18809
 -10430568.62809      1806.61109        50.93809
  20412866.75009 -23768605.34309      -745.12509        54.56209  20412869.62509
 -18285997.20109      -580.61709        57.25009
  24311023.03107  -4602824.63507     -2488.64307        34.62507  24311033.62507
  -3352193.07007     -1939.20207        37.68807
  23600333.78108  -8020175.51008     -2403.49608        41.18808  23600338.87508
  -6014826.55508     -1872.85408        43.18808
  24985321.78107   -728336.77307      3528.66207        33.25007  24985326.93807
   -333069.26407      2749.60707        35.87507
  22290344.84408 -13001312.95108     -2515.47408        44.37508  22290346.93808
  -9895551.84608     -1960.10908        46.25008
  25257406.81207  -1121760.27907       178.07407        38.68807  25257416.71908
   -641320.01608       138.75908        44.37508
  20802364.62509 -23286178.22209       344.56509        53.31209  20802367.50009
 -17911264.63409       268.49309        56.87509
  21232492.03109 -20578469.70709      2560.79809        54.06209  21232495.65609
 -15793771.93709      1995.42709        54.62509
 25  1 27  1 44 30.0000000  0  9G08G10G16G18G21G23G24G27G32
  22310499.56208 -13756532.00508      2303.68708        48.50008  22310503.87509
 -10484596.11309      1795.08009        51.00009
  20417149.93809 -23746097.70709      -755.53009        54.81209  20417152.46909
 -18268458.78809      -588.72409        57.50009
  24325236.37507  -4528135.12607     -2490.86207        34.43807  24325247.53107
  -3293993.83907     -1940.93107        39.37507
  23614071.93808  -7947984.21908     -2409.46008        41.18808  23614077.09408
  -5958573.78408     -1877.50208        43.31208
  24965166.68807   -834250.89307      3532.28807        33.81207  24965171.78107
   -415599.60407      2752.43207        36.12507
  22304710.75008 -12925818.27808     -2517.72908        44.31208  22304713.28108
  -9836724.89108     -1961.86708        46.12508
  25256429.40607  -1126904.51107       164.90007        39.18807  25256437.78108
   -645328.58008       128.49308        44.25008
  20800453.90609 -23296219.89609       324.73609        53.37509  20800456.68809
 -17919089.33009       253.04109        57.06209
  21217916.28109 -20655065.41109      2545.38109        54.18809  21217920.00009
 -15853456.83109      1983.41409        55.00009
 25  1 27  1 45  0.0000000  0  9G08G10G16G18G21G23G24G27G32
  22297390.31208 -13825419.58508      2288.86508        48.00008  22297395.00009
 -10538274.72309      1783.53109        51.12509
  20421492.18809 -23723278.98009      -765.59809        54.62509  20421494.78109
 -18250677.97809      -596.57009        57.43809
  24339460.31207  -4453392.35507     -2492.20207        35.18807  24339471.46907
  -3235753.12907     -1941.97607        39.56207
  23627843.93808  -7875608.03308     -2415.54008        40.62508  23627849.56208
  -5902176.94108     -1882.23908        42.87508
  24944993.18807   -940261.58407      3535.38307        32.93807  24944998.21907
   -498205.20107      2754.84407        36.18807
  22319089.37508 -12850256.56808     -2519.73908        43.87508  22319092.53108
  -9777845.71408     -1963.43308        46.68808
  25255525.40608  -1131652.34408       151.77008        40.62508  25255534.40608
   -649028.17908       118.26208        44.31208
  20798656.81209 -23305663.46009       304.91709        53.12509  20798659.75009
 -17926447.98209       237.59809        57.12509
  21203429.06209 -20731195.77409      2530.01509        54.06209  21203432.68809
 -15912779.13209      1971.44009        54.81209
 25  1 27  1 45 30.0000000  0  9G08G10G16G18G21G23G24G27G32
  22284367.93808 -13893857.03508      2273.78708        48.43808  22284371.90609
 -10591602.57009      1771.78209        51.12509
  20425893.12509 -23700150.69309      -776.06709        54.56209  20425895.93809
 -18232655.95209      -604.72709        57.43809
  24353693.18807  -4378599.34007     -2493.69607        36.00007  24353703.53107
  -3177473.20107     -1943.14007        37.25007
  23641652.40608  -7803047.10608     -2422.07308        41.00008  23641657.43808
  -5845636.14108     -1887.32908        42.62508
  24924802.65607  -1046367.69207      3539.05507        33.50007  24924806.78107
   -580885.09107      2757.70507        35.62507
  22333481.06208 -12774628.98908     -2521.98508        44.06208  22333483.65608
  -9718915.23608     -1965.18308        46.18808
  25254697.00007  -1136002.84807       138.45007        40.00007  25254706.56208
   -652418.21008       107.88308        44.50008
  20796973.68809 -23314508.32909       284.84109        53.18809  20796976.62509
 -17933340.11009       221.95409        56.93809
  21189031.03109 -20806858.41809      2514.29409        54.18809  21189034.43809
 -15971736.97709      1959.19009        55.00009
 25  1 27  1 46  0.0000000  0  9G08G10G16G18G21G23G24G27G32
  22271430.46908 -13961842.19408      2258.55208        48.56208  22271434.81209
 -10644577.99209      1759.91109        51.31209
  20430353.21909 -23676714.48409      -786.35309        54.81209  20430355.71909
 -18214393.98009      -612.74209        57.50009
  24367934.93807  -4303759.17707     -2495.28107        36.06207  24367944.93807
  -3119156.52107     -1944.37507        36.06207
  23655495.75008  -7730301.77508     -2428.08808        40.93808  23655500.96908
  -5788951.64108     -1892.01708        42.87508
  24904592.46907  -1152567.93707      3541.45507        34.00007  24904597.12507
   -663638.40307      2759.57507        36.12507
  22347884.68808 -12698936.99808     -2524.13308        44.18808  22347887.34408
  -9659934.54208     -1966.85708        46.12508
  25253945.68808  -1139955.24208       125.23208        40.56208  25253953.28108
   -655497.97208        97.58308        43.06208
  20795404.43809 -23322754.10909       264.82909        53.31209  20795407.43809
 -17939765.41309       206.36009        57.06209
  21174722.18809 -20882051.13609      2498.48909        54.25009  21174725.81209
 -16030328.63609      1946.87409        55.18809
 25  1 27  1 46 30.0000000  0  9G08G10G16G18G21G23G24G27G32
  22258579.65608 -14029372.40408      2243.38608        48.37508  22258584.46909
 -10697198.89409      1748.09309        51.56209
  20434871.21909 -23652971.56709      -796.54309        54.81209  20434873.84409
 -18195893.02409      -620.68309        57.25009
  24382184.81207  -4228874.52207     -2496.85807        33.87507  24382195.28107
  -3060805.18107     -1945.60407        36.43807
  23669373.56208  -7657371.86208     -2433.99408        40.81208  23669379.00008
  -5732123.29908     -1896.61908        42.62508
  24884365.62507  -1258861.59207      3544.97807        34.75007  24884370.50007
   -746464.46007      2762.32107        35.81207
  22362300.53108 -12623181.45208     -2526.19108        43.81208  22362303.31208
  -9600904.34508     -1968.46108        46.43808
  25253268.25007  -1143508.32107       111.74307        39.62507  25253277.96908
   -658266.63108        87.07308        44.31208
  20793949.50009 -23330399.97509       244.99509        53.43809  20793952.43809
 -17945723.25509       190.90509        57.06209
  21160503.18809 -20956771.27709      2482.78609        54.25009  21160507.03109
 -16088552.06209      1934.63809        55.25009
 25  1 27  1 47  0.0000000  0  9G08G10G16G18G21G23G24G27G32
  22245816.40608 -14096445.43708      2228.14708        48.43808  22245820.18809
 -10749463.55709      1736.21809        51.31209
  20439447.50009 -23628923.57409      -806.62809        54.68809  20439450.15609
 -18177154.34609      -628.54209        57.43809
  24396443.59407  -4153948.51007     -2497.88107        34.50007  24396453.62507
  -3002421.60707     -1946.40107        35.43807
  23683287.31208  -7584257.60908     -2440.04208        40.50008  23683292.40608
  -5675151.32108     -1901.33108        42.56208
  24864121.68807  -1365247.10107      3547.57107        35.06207  24864125.75007
   -829362.20407      2764.34107        35.56207
  22376728.84408 -12547363.66608     -2528.28908        44.37508  22376730.87508
  -9541825.63208     -1970.09508        46.62508
  25252670.12508  -1146661.28508        98.61608        41.06208  25252678.50008
   -660723.48308        76.84308        44.87508
  20792608.84409 -23337445.50309       224.87109        53.12509  20792611.84409
 -17951213.30109       175.22409        57.12509
  21146374.65609 -21031016.60909      2467.05609        54.12509  21146378.43809
 -16146405.50509      1922.38109        55.12509
 25  1 27  1 47 30.0000000  0  9G08G10G16G18G21G23G24G27G32
  22233139.75008 -14163059.09308      2212.83908        47.93808  22233144.34409
 -10801370.26309      1724.29009        51.50009
  20444081.37509 -23604572.03109      -816.71909        54.62509  20444084.15609
 -18158179.12909      -636.40409        57.43809
  24410708.56207  -4078984.45607     -2499.43107        35.81207  24410719.18807
  -2944008.41007     -1947.60907        35.81207
  23697235.28108  -7510959.28408     -2446.39608        40.37508  23697241.00008
  -5618035.93208     -1906.28308        42.62508
  24843859.28107  -1471723.67307      3550.85407        34.12507  24843863.87507
   -912330.77107      2766.90007        35.56207
  22391168.15608 -12471484.91008     -2530.28308        44.12508  22391170.50008
  -9482699.39708     -1971.64908        46.31208
  25252146.34408  -1149413.38508        85.02708        40.93808  25252155.00008
   -662867.97808        66.25508        45.00008
  20791382.43809 -23343890.35209       204.78509        53.06209  20791385.56209
 -17956235.28609       159.57309        57.12509
  21132337.06209 -21104784.85809      2450.99109        54.12509  21132340.84409
 -16203887.18909      1909.86309        55.31209
 25  1 27  1 48  0.0000000  0  9G08G10G16G18G21G23G24G27G32
  22220551.43808 -14229210.95008      2197.47608        48.37508  22220556.18809
 -10852917.12609      1712.31909        51.68809
  20448772.75009 -23579918.39009      -826.71409        54.81209  20448775.62509
 -18138968.51409      -644.19309        57.50009
  24424980.28107  -4003984.87207     -2500.56407        34.31207  24424991.84407
  -2885567.50607     -1948.49107        36.56207
  23711218.00008  -7437476.98408     -2452.24108        40.06208  23711224.46908
  -5560777.15808     -1910.83708        42.87508
  24823579.59407  -1578289.27307      3553.59407        34.18807  24823584.00007
   -995368.77107      2769.03407        35.75007
  22405618.81208 -12395546.28108     -2532.01708        44.06208  22405621.37508
  -9423526.51808     -1973.00008        46.31208
  25251697.59407  -1151763.67607        71.81407        39.62507  25251707.65608
   -664699.38308        55.95908        44.93808
  20790270.50009 -23349733.95209       184.97809        53.31209  20790273.37509
 -17960788.76309       144.13909        56.93809
  21118390.65609 -21178073.68409      2435.12509        54.37509  21118394.28109
 -16260995.30209      1897.50009        55.50009
 25  1 27  1 48 30.0000000  0  9G08G10G16G18G21G23G24G27G32
  22208051.78108 -14294898.89208      2181.95808        48.25008  22208055.81209
 -10904102.50109      1700.22709        51.56209
  20453521.43809 -23554964.27109      -836.78709        54.68809  20453523.96909
 -18119523.76809      -652.04209        57.37509
  24439259.56207  -3928953.11607     -2501.88007        34.87507  24439270.31207
  -2827101.57307     -1949.51707        37.62507
  23725236.65607  -7363811.00207     -2458.53507        39.81207  23725242.87508
  -5503375.30408     -1915.74208        42.68808
  24803285.00007  -1684943.36407      3556.50907        34.31207  24803289.00007
  -1078475.75607      2771.30607        36.25007
  22420080.43808 -12319549.08408     -2534.16508        43.50008  22420083.28108
  -9364308.02908     -1974.67408        46.50008
  25251328.06208  -1153711.39208        58.26408        40.68808  25251337.21908
   -666217.09308        45.40108        45.37508
  20789272.90609 -23354976.06009       164.77309        53.06209  20789276.00009
 -17964873.55209       128.39509        56.93809
  21104535.93809 -21250880.96809      2418.91809        54.18809  21104539.50009
 -16317728.19509      1884.87209        55.43809
 25  1 27  1 49  0.0000000  0  9G08G10G16G18G21G23G24G27G32
  22195640.40608 -14360120.44008      2166.29908        48.25008  22195644.59409
 -10954924.44909      1688.02509        51.50009
  20458326.87509 -23529711.01509      -846.69209        54.56209  20458329.75009
 -18099845.92209      -659.76009        57.43809
  24453543.12507  -3853892.13307     -2502.50207        34.06207  24453554.71907
  -2768612.81007     -1950.00207        37.93807
  23739290.21907  -7289961.29007     -2464.70007        39.62507  23739296.37508
  -5445830.26708     -1920.54508        42.62508
  24782971.78107  -1791684.28407      3559.17007        34.00007  24782977.90607
  -1161650.43807      2773.37907        37.06207
  22434552.71908 -12243494.32508     -2536.05208        43.18808  22434556.00008
  -9305044.63508     -1976.14508        46.06208
  25251034.21908  -1155255.64408        45.02708        40.06208  25251043.15608
   -667420.36008        35.08608        45.50008
  20788390.06209 -23359616.05609       144.66309        53.18809  20788393.06209
 -17968489.15509       112.72409        57.00009
  21090773.15609 -21323204.19909      2402.65909        54.18809  21090776.81209
 -16374083.89509      1872.20209        55.50009
 25  1 27  1 49 30.0000000  0  9G08G10G16G18G21G23G24G27G32
  22183318.37508 -14424873.37408      2150.55208        48.50008  22183322.50009
 -11005381.24409      1675.75509        51.56209
  20463188.93809 -23504160.15109      -856.67009        54.81209  20463191.87509
 -18079936.17509      -667.53509        57.31209
  24467831.93807  -3778804.71207     -2503.22507        34.06207  24467842.81207
  -2710103.49107     -1950.56507        36.75007
  23753378.40608  -7215928.11008     -2471.01608        40.50008  23753384.28108
  -5388142.27508     -1925.46708        42.31208
  24762644.50007  -1898511.43007      3562.65107        34.68807  24762648.06207
  -1244892.23107      2776.09207        35.87507
  22449036.40608 -12167383.18108     -2538.02008        43.87508  22449038.78108
  -9245737.35208     -1977.67808        45.18808
  25250817.00007  -1156395.55207        31.11807        39.37507  25250825.78108
   -668308.58408        24.24808        45.12508
  20787621.78109 -23363653.63009       124.58009        53.43809  20787624.71909
 -17971635.33009        97.07509        56.87509
  21077102.93809 -21395041.17309      2386.45009        54.37509  21077106.65609
 -16430060.69009      1859.57209        55.37509
 25  1 27  1 50  0.0000000  0  9G08G10G16G18G21G23G24G27G32
  22171086.00008 -14489155.31108      2134.86608        48.75008  22171090.25009
 -11055471.02709      1663.53209        52.06209
  20468107.65609 -23478312.99809      -866.57709        54.81209  20468110.37509
 -18059795.56509      -675.25509        57.56209
  24482125.68807  -3703693.79707     -2503.76507        34.37507  24482136.65607
  -2651575.81207     -1950.98507        36.50007
  23767502.06208  -7141711.55408     -2476.97508        40.37508  23767506.87508
  -5330311.36508     -1930.11008        42.37508
  24742298.53107  -2005422.78607      3565.35407        33.12507  24742303.46907
  -1328199.67107      2778.19807        36.56207
  22463530.56208 -12091216.66208     -2539.82208        43.81208  22463533.28108
  -9186386.90008     -1979.08208        46.18808
  25250677.03108  -1157130.21108        17.68608        40.06208  25250686.31208
   -668881.07108        13.78108        45.56208
  20786968.09409 -23367088.26109       104.43409        53.37509  20786971.03109
 -17974311.70209        81.37709        57.06209
  21063525.62509 -21466389.51609      2370.16109        54.31209  21063529.25009
 -16485656.74509      1846.87909        55.68809
 25  1 27  1 50 30.0000000  0  9G08G10G16G18G21G23G24G27G32
  22158943.03108 -14552964.29508      2119.13608        48.31208  22158947.84409
 -11105192.28609      1651.27509        51.62509
  20473082.31209 -23452171.40709      -876.20409        54.81209  20473085.15609
 -18039425.52209      -682.75609        57.50009
  24496422.71907  -3628562.74907     -2504.60207        35.12507  24496433.81207
  -2593032.44807     -1951.63807        36.93807
  23781659.43808  -7067312.02908     -2482.92008        40.18808  23781665.78108
  -5272337.88508     -1934.74308        42.81208
  24721938.78107  -2112417.29607      3567.61007        34.75007  24721943.34407
  -1411571.86407      2779.95607        37.00007
  22478034.90608 -12014996.19108     -2541.64608        43.75008  22478037.12508
  -9126994.45108     -1980.50308        45.00008
  25250615.00008  -1157459.18008         4.15308        41.62508  25250623.15608
   -669137.39208         3.23608        45.37508
  20786429.21909 -23369920.00209        84.35309        53.31209  20786432.21909
 -17976518.28209        65.73009        56.93809
  21050042.00009 -21537247.29909      2353.76209        54.25009  21050045.40609
 -16540870.54609      1834.10009        55.50009
 25  1 27  1 51  0.0000000  0  9G08G10G16G18G21G23G24G27G32
  22146891.34408 -14616297.76008      2103.18408        48.37508  22146895.46909
 -11154543.01009      1638.84409        51.68809
  20478112.78109 -23425736.54209      -886.03509        54.75009  20478115.43809
 -18018826.95709      -690.41709        57.43809
  24510722.81207  -3553414.25507     -2505.27107        34.56207  24510734.62507
  -2534475.53107     -1952.15907        36.81207
  23795851.75007  -6992729.43307     -2489.12107        39.50007  23795858.37508
  -5214221.80108     -1939.57508        43.06208
  24701563.21907  -2219494.13507      3570.48307        34.56207  24701567.40607
  -1495008.35207      2782.19507        36.31207
  22492549.71908 -11938722.58508     -2543.39108        43.06208  22492552.15608
  -9067560.55708     -1981.86308        45.18808
  25250629.28108  -1157381.44108        -9.46008        41.43808  25250638.43808
   -669076.76208        -7.37208        45.50008
  20786005.46909 -23372148.19709        64.15009        53.12509  20786008.31209
 -17978254.57009        49.98709        56.93809
  21036651.87509 -21607611.98409      2337.29009        53.93809  21036655.50009
 -16595700.11109      1821.26509        55.37509
 25  1 27  1 51 30.0000000  0  9G08G10G16G18G21G23G24G27G32
  22134930.06208 -14679153.66408      2087.34108        48.06208  22134934.15609
 -11203521.60309      1626.50009        51.31209
  20483198.59409 -23399010.06409      -895.56409        54.50009  20483201.25009
 -17998001.14209      -697.84209        57.12509
  24525026.78107  -3478251.28307     -2505.43007        34.50007  24525037.65607
  -2475907.27807     -1952.28307        37.00007
  23810080.03107  -6917964.18807     -2495.12207        39.43807  23810086.03108
  -5155963.38108     -1944.25108        42.87508
  24681170.90607  -2326651.57207      3573.67707        33.87507  24681175.43807
  -1578507.48407      2784.68307        35.62507
  22507073.68808 -11862397.08208     -2544.87808        43.18808  22507076.68808
  -9008086.22008     -1983.02208        45.31208
  25250721.00007  -1156896.38007       -22.84707        39.81207  25250730.50008
   -668698.72508       -17.80308        45.75008
  20785696.25009 -23373772.78209        44.29209        53.00009  20785699.18809
 -17979520.48609        34.51309        56.81209
  21023356.00009 -21677481.54709      2320.89809        53.87509  21023359.68809
 -16650143.86009      1808.49209        55.37509
 25  1 27  1 52  0.0000000  0  9G08G10G16G18G21G23G24G27G32
  22123060.28108 -14741529.82308      2071.10608        48.56208  22123064.59409
 -11252126.38209      1613.84909        51.37509
  20488339.78109 -23371993.44709      -905.37809        54.75009  20488342.43809
 -17976949.26909      -705.49009        57.37509
  24539332.03107  -3403076.86507     -2505.99407        33.31207  24539343.90607
  -2417330.20207     -1952.72207        36.93807
  23824341.90607  -6843016.52607     -2501.23507        39.68807  23824348.09408
  -5097562.83108     -1949.01508        42.37508
  24660764.62507  -2433888.23707      3575.43707        34.56207  24660768.65607
  -1662068.42307      2786.05507        35.50007
  22521607.68808 -11786020.83808     -2546.75308        43.18808  22521610.81208
  -8948572.37008     -1984.48308        45.56208
  25250891.75008  -1156003.28708       -36.56008        40.81208  25250900.12508
   -668002.79108       -28.48808        45.43808
  20785502.00009 -23374793.49509        24.00409        53.06209  20785504.93809
 -17980315.88009        18.70409        56.81209
  21010154.96909 -21746853.85109      2304.01109        54.06209  21010158.59409
 -16704200.15209      1795.33309        55.50009
 25  1 27  1 52 30.0000000  0  9G08G10G16G18G21G23G24G27G32
  22111282.28108 -14803423.99608      2054.95108        48.43808  22111286.40609
 -11300355.57209      1601.26109        51.50009
  20493535.96909 -23344688.11709      -915.10709        54.81209  20493538.62509
 -17955672.41509      -713.07109        57.25009
  24553639.06207  -3327893.86707     -2505.75207        34.18807  24553649.87507
  -2358746.38407     -1952.53407        35.31207
  23838639.56208  -6767886.49308     -2507.26308        40.31208  23838644.43808
  -5039020.13008     -1953.71208        41.43808
  24640342.62507  -2541202.66207      3578.33507        34.50007  24640347.15607
  -1745690.01207      2788.31307        35.12507
  22536151.40608 -11709594.88808     -2548.38408        43.06208  22536154.31208
  -8889019.75508     -1985.75408        45.43808
  25251138.15607  -1154701.40607       -50.42707        39.56207  25251147.90608
   -666988.30008       -39.29408        45.18808
  20785422.78109 -23375210.05909         3.77909        53.06209  20785425.78109
 -17980640.49309         2.94509        56.75009
  20997048.87509 -21815726.67509      2287.28509        54.06209  20997052.43809
 -16757867.22509      1782.30009        55.50009
 25  1 27  1 53  0.0000000  0  9G08G10G16G18G21G23G24G27G32
  22099596.37508 -14864833.93208      2038.97208        48.62508  22099600.34409
 -11348207.43409      1588.80909        51.75009
  20498786.46909 -23317095.53609      -924.47809        54.93809  20498789.18809
 -17934171.71909      -720.37209        57.43809
  24567947.18807  -3252705.15607     -2506.49707        34.62507  24567959.31207
  -2300158.12907     -1953.11407        36.50007
  23852971.06208  -6692574.32908     -2513.36408        40.06208  23852976.43808
  -4980335.53108     -1958.46608        42.06208
  24619906.46907  -2648593.50407      3580.87607        33.43807  24619911.90607
  -1829370.96907      2790.29307        36.68807
  22550703.90608 -11633120.20708     -2549.94608        43.12508  22550706.68808
  -8829429.19808     -1986.97108        45.81208
  25251464.75008  -1152989.98808       -63.97908        40.56208  25251472.40608
   -665654.67508       -49.85408        43.87508
  20785458.37509 -23375022.25209       -16.24009        53.18809  20785461.50009
 -17980494.17309       -12.65509        57.12509
  20984038.21909 -21884097.82709      2270.72809        54.18809  20984041.90609
 -16811143.38709      1769.39809        55.56209
 25  1 27  1 53 30.0000000  0  9G08G10G16G18G21G23G24G27G32
  22088002.78108 -14925757.73108      2022.87808        48.43808  22088007.25009
 -11395680.50409      1576.26909        51.93809
  20504091.46909 -23289217.38309      -933.83109        54.62509  20504094.18809
 -17912448.51409      -727.66009        57.25009
  24582256.37507  -3177514.16407     -2506.23007        36.25007  24582267.46907
  -2241568.00407     -1952.90707        35.56207
  23867336.43807  -6617080.45407     -2519.38007        39.56207  23867343.12508
  -4921509.35008     -1963.15308        42.56208
  24599457.93807  -2756059.77107      3583.61607        34.50007  24599461.78107
  -1913110.77307      2792.42807        37.12507
  22565265.75008 -11556598.15008     -2551.40408        43.56208  22565268.46908
  -8769801.71208     -1988.10708        45.68808
  25251868.62508  -1150868.63008       -77.41908        41.31208  25251877.40608
   -664001.61408       -60.32708        45.18808
  20785609.21909 -23374230.14609       -36.31109        53.00009  20785612.34409
 -17979876.97909       -28.29409        57.06209
  20971123.53109 -21951965.39109      2253.99709        54.12509  20971127.06209
 -16864027.14409      1756.36109        55.62509
 25  1 27  1 54  0.0000000  0  9G08G10G16G18G21G23G24G27G32
  22076502.46908 -14986192.99908      2006.37708        49.00008  22076506.78109
 -11442772.88809      1563.41109        51.93809
  20509450.71909 -23261054.92509      -943.47709        55.12509  20509453.50009
 -17890503.76709      -735.17709        57.25009
  24596564.15607  -3102323.41407     -2506.54107        33.93807  24596576.34407
  -2182978.10607     -1953.14807        36.62507
  23881736.84407  -6541404.88907     -2525.34207        39.25007  23881744.18808
  -4862541.61008     -1967.79908        42.93808
  24578992.62507  -2863599.94307      3585.52207        34.68807  24578997.15607
  -1996908.18307      2793.91407        36.62507
  22579836.46908 -11480029.48708     -2553.07108        44.18808  22579839.00008
  -8710137.92008     -1989.40608        45.43808
  25252350.50008  -1148336.40808       -91.17208        41.87508  25252359.03108
   -662028.39408       -71.04308        44.56208
  20785875.06209 -23372833.35509       -56.59409        53.43809  20785878.09409
 -17978788.61109       -44.09909        56.93809
  20958304.93809 -22019327.00809      2236.93409        54.56209  20958308.50009
 -16916516.66809      1743.06509        55.68809
 25  1 27  1 54 30.0000000  0  9G08G10G16G18G21G23G24G27G32
  22065095.53108 -15046137.78808      1989.99308        49.00008  22065099.59409
 -11489483.09709      1550.64409        52.31209
  20514863.68809 -23232609.84109      -952.77109        54.87509  20514866.34409
 -17868338.79509      -742.41909        57.43809
  24610872.28107  -3027135.86307     -2506.27007        32.12507  24610884.34407
  -2124390.77107     -1952.93707        37.43807
  23896172.28107  -6465548.07107     -2531.69907        39.18807  23896179.90608
  -4803432.66708     -1972.75308        43.18808
  24558514.50007  -2971212.82107      3588.11007        34.56207  24558519.37507
  -2080762.23807      2795.93007        37.12507
  22594416.06208 -11403415.51808     -2554.61708        43.56208  22594418.78108
  -8650438.81508     -1990.61008        46.18808
  25252910.65607  -1145392.85607      -105.05407        39.62507  25252919.03108
   -659734.66508       -81.86008        44.81208
  20786255.90609 -23370831.99809       -76.68909        53.18809  20786258.96909
 -17977229.14709       -59.75809        57.12509
  20945583.03109 -22086180.83809      2219.98509        54.37509  20945586.53109
 -16968610.50909      1729.85909        56.00009
 25  1 27  1 55  0.0000000  0  9G08G10G16G18G21G23G24G27G32
  22053782.15608 -15105589.74008      1973.50308        49.12508  22053786.40609
 -11535809.25309      1537.79509        52.18809
  20520330.21909 -23203883.36509      -962.33409        54.75009  20520332.81209
 -17845954.54509      -749.87109        57.12509
  24625179.43807  -2951954.04107     -2506.11607        34.75007  24625190.87507
  -2065807.86707     -1952.81807        35.68807
  23910642.62507  -6389509.99307     -2537.52207        39.81207  23910649.28108
  -4744182.45608     -1977.29008        42.37508
  24538023.18807  -3078896.74707      3590.57907        34.25007  24538027.65607
  -2164671.65407      2797.85407        37.12507
  22609003.18808 -11326756.98708     -2556.16008        43.62508  22609006.18808
  -8590705.00408     -1991.81308        45.81208
  25253548.15607  -1142037.16507      -118.37907        38.68807  25253557.65608
   -657119.76608       -92.24308        44.43808
  20786751.90609 -23368225.73009       -96.92909        53.12509  20786754.90609
 -17975198.30709       -75.52909        56.87509
  20932958.21909 -22152524.55609      2202.93009        54.25009  20932961.71909
 -17020306.85409      1716.56909        55.75009
 25  1 27  1 55 30.0000000  0  9G08G10G16G18G21G23G24G27G32
  22042562.90608 -15164546.95108      1957.08308        49.31208  22042567.09409
 -11581749.92209      1524.99909        52.43809
  20525849.65609 -23174877.20809      -971.52609        54.93809  20525852.53109
 -17823352.36909      -757.03309        57.43809
  24639484.68807  -2876781.53107     -2505.59807        35.50007  24639496.71907
  -2007232.18507     -1952.41407        35.75007
  23925146.68807  -6313291.06407     -2543.75707        39.93807  23925153.18808
  -4684791.27908     -1982.14908        41.75008
  24517518.28107  -3186650.54907      3592.93707        34.75007  24517522.96907
  -2248635.50507      2799.69107        38.37507
  22623599.37508 -11250055.14808     -2557.41508        43.75008  22623602.53108
  -8530937.41408     -1992.79108        46.37508
  25254266.40608  -1138268.87608      -132.51208        40.68808  25254275.46908
   -654183.43508      -103.25608        46.25008
  20787363.09409 -23365014.68309      -117.06809        53.43809  20787366.09409
 -17972696.22609       -91.22209        57.12509
  20920430.96909 -22218356.29509      2185.89609        54.50009  20920434.18809
 -17071604.26209      1703.29609        55.87509
 25  1 27  1 56  0.0000000  0  9G08G10G16G18G21G23G24G27G32
  22031438.03108 -15223007.20008      1940.33208        49.06208  22031442.21909
 -11627303.35009      1511.94709        52.06209
  20531422.62509 -23145592.64309      -980.95009        54.62509  20531425.21909
 -17800533.25309      -764.37609        57.06209
  24653787.59407  -2801620.92207     -2505.31707        34.62507  24653797.50007
  -1948665.70907     -1952.19507        33.37507
  23939685.03107  -6236891.47207     -2549.48707        38.93807  23939691.18808
  -4625259.35108     -1986.61408        40.87508
  24497000.93807  -3294473.20407      3595.33707        35.12507  24497003.87507
  -2332653.03707      2801.56107        37.06207
  22638202.90608 -11173310.91408     -2558.91108        42.68808  22638206.34408
  -8471136.82708     -1993.95708        45.93808
  25255061.78108  -1134087.37008      -146.01608        40.62508  25255070.71908
   -650925.09908      -113.77808        45.93808
  20788089.37509 -23361198.72909      -137.28509        53.25009  20788092.31209
 -17969722.78309      -106.97509        56.93809
  20908001.25009 -22283673.89209      2168.62109        54.31209  20908004.75009
 -17122501.05009      1689.83409        55.75009
