     2.11           OBSERVATION DATA    G (GPS)             RINEX VERSION / TYPE
RinEdit             Dataflow Processing 20250308 080002 UTC PGM / RUN BY / DATE
ADE3                                                        MARKER NAME
50109S001                                                   MARKER NUMBER
Monitor Station     NGA                                     OBSERVER / AGENCY
NR035               NOV OEM6            D28CBA70            REC # / TYPE / VERS
762-11400           TPSCR.G5        TPSH                    ANT # / TYPE
 -3939218.6120  3467085.8240 -3613160.7130                  APPROX POSITION XYZ
        0.0000        0.0000        0.0000                  ANTENNA: DELTA H/E/N
     8    P1    L1    D1    S1    P2    L2    D2    S2      # / TYPES OF OBSERV
     1     1                                                WAVELENGTH FACT L1/2
  2025     3     7     0     0    0.0000000     GPS         TIME OF FIRST OBS
                                                            END OF HEADER
 25  3  7  0  0  0.0000000  0  9G01G02G08G10G18G23G27G28G32
  24895712.65607    249861.18407      3155.15907        35.81207  24895713.84407
    429063.68307      2458.56507        38.37507
  23385904.96908  -7306253.37108      3506.13008        41.06208  23385904.34408
  -5453632.23008      2732.05008        42.93808
  21513784.59409 -17678327.28709       399.37709        50.68809  21513787.75009
 -13540743.89909       311.20309        53.75009
  21219080.21909 -19575646.51309     -1625.50309        53.68809  21219082.75009
 -15019419.35809     -1266.62609        55.25009
  25256925.00007   1320841.09507     -3007.37807        33.37507  25256934.12508
   1264066.81908     -2343.41108        40.18808
  23973404.09407  -3979473.52507     -2592.33407        39.12507  23973409.87508
  -2860502.37508     -2020.00008        44.00008
  21278400.21909 -21006543.94109     -1767.88109        52.43809  21278403.06209
 -16134946.04909     -1377.56909        55.12509
  24468373.15607  -3374180.34107      3072.32907        38.25007  24468379.25007
  -2395142.29407      2394.02307        39.31207
  20222943.96909 -25896371.62509       490.17609        54.87509  20222945.84409
 -19944364.91709       381.95509        58.37509
 25  3  7  0  0 30.0000000  0 10G01G02G08G10G18G23G24G27G28G32
  24877694.75007    155184.97707      3156.69907        35.25007  24877697.96907
    355289.96807      2459.76607        38.68807
  23365895.28107  -7411399.70807      3503.44007        40.00007  23365895.84408
  -5535564.39608      2729.95308        43.37508
  21511561.56209 -17690007.88109       379.43809        50.50009  21511564.93809
 -13549845.69709       295.66609        53.81209
  21228376.03109 -19526797.09009     -1631.09109        53.81209  21228378.53109
 -14981354.92509     -1270.98009        55.31209
  25274108.50007   1411138.69607     -3012.22207        33.81207  25274117.62508
   1334428.11108     -2347.18608        41.06208
  23988203.21907  -3901708.45407     -2591.83807        38.43807  23988207.81208
  -2799906.40408     -2019.61408        42.87508
  25623287.21906     23098.03106     -1363.78706        25.81206          .00000
          .00000          .00000          .00000
  21288541.71909 -20953249.33709     -1784.98009        52.18809  21288544.65609
 -16093417.85809     -1390.89409        55.12509
  24450831.93807  -3466359.28507      3073.10107        37.62507  24450838.15608
  -2466969.80208      2394.62408        40.25008
  20220203.25009 -25910774.40009       470.02009        54.93809  20220205.18809
 -19955587.86609       366.24909        58.56209
 25  3  7  0  1  0.0000000  0 10G01G02G08G10G18G23G24G27G28G32
  24859669.43807     60459.51307      3157.97107        35.00007  24859671.75007
    281477.90207      2460.75707        38.56207
  23345901.09408  -7516468.94308      3500.81508        40.18808  23345901.03108
  -5617436.52408      2727.90808        42.50008
  21509452.75009 -17701090.88809       359.29709        50.25009  21509456.03109
 -13558481.85309       279.97209        53.68809
  21237702.81209 -19477784.61509     -1636.62109        53.43809  21237705.34409
 -14943163.43109     -1275.28909        55.18809
  25291317.46907   1501571.50607     -3016.85307        36.68807  25291327.53107
   1404894.82007     -2350.79507        39.50007
  24002997.15607  -3823958.62907     -2591.60407        36.50007  24003002.59408
  -2739322.33708     -2019.43208        41.62508
  25631114.68807     64224.40607     -1377.31907        30.18807  25631120.06207
     42537.44307     -1073.23607        37.75007
  21298779.00009 -20899451.82109     -1801.74609        51.93809  21298782.00009
 -16051497.78509     -1403.95809        54.81209
  24433286.71907  -3558559.60607      3073.65707        37.75007  24433292.71907
  -2538813.97507      2395.05807        39.93807
  20217577.46909 -25924571.93209       449.74609        54.68809  20217579.56209
 -19966339.19909       350.45209        58.43809
 25  3  7  0  1 30.0000000  0 10G01G02G08G10G18G23G24G27G28G32
  24841634.78107    -34314.34507      3159.80707        36.50007  24841637.78107
    207628.16507      2462.18707        39.43807
  23325923.68808  -7621458.92108      3498.44508        40.93808  23325922.56208
  -5699246.86208      2726.06108        43.37508
  21507457.43809 -17711576.41109       339.56809        50.37509  21507460.90609
 -13566652.41509       264.59809        53.75009
  21247060.03109 -19428610.36509     -1641.82109        53.00009  21247062.84409
 -14904845.87109     -1279.34109        55.37509
  25308551.93807   1592138.52407     -3021.15007        37.18807  25308561.09407
   1475466.22807     -2354.14307        37.00007
  24017790.46907  -3746224.52507     -2591.05507        37.31207  24017794.87508
  -2678750.49308     -2019.00408        41.00008
  25639014.40606    105745.96706     -1389.94406        28.50006  25639019.78107
     74891.94807     -1083.07307        33.81207
  21309111.84409 -20845153.80209     -1818.25209        52.12509  21309114.75009
 -16009187.69109     -1416.82009        54.93809
  24415737.65607  -3650778.68807      3074.20207        38.00007  24415743.71908
  -2610672.73808      2395.48208        40.87508
  20215067.00009 -25937764.56409       429.64809        54.81209  20215069.03109
 -19976619.16209       334.79109        58.43809
 25  3  7  0  2  0.0000000  0 10G01G02G08G10G18G23G24G27G28G32
  24823591.18807   -129135.33607      3161.37007        36.93807  24823593.37507
    133741.63407      2463.40507        38.43807
  23305958.68808  -7726367.57808      3495.50508        40.56208  23305959.43808
  -5780993.85208      2723.77108        43.56208
  21505575.93809 -17721464.22909       319.56109        50.37509  21505579.15609
 -13574357.24409       249.00809        53.68809
  21256448.18809 -19379275.28309     -1647.14109        53.25009  21256450.90609
 -14866403.00109     -1283.48709        55.25009
  25325812.03107   1682839.00707     -3025.31707        35.25007  25325820.46907
   1546141.62507     -2357.39007        36.12507
  24032580.78107  -3668506.38707     -2590.42207        39.37507  24032584.62508
  -2618191.10908     -2018.51108        41.25008
  25646989.34406    147661.82906     -1403.43506        24.87506  25646998.34407
    107553.56407     -1093.58607        34.62507
  21319539.37509 -20790357.44309     -1834.82409        52.18809  21319542.25009
 -15966489.29809     -1429.73309        55.00009
  24398185.59407  -3743013.65507      3074.35507        38.43807  24398190.90608
  -2682543.86308      2395.60208        40.50008
  20212671.71909 -25950352.41009       409.53109        54.87509  20212673.68809
 -19986427.87109       319.11509        58.50009
 25  3  7  0  2 30.0000000  0 10G01G02G08G10G18G23G24G27G28G32
  24805538.59407   -224002.29307      3163.13207        36.93807  24805540.46907
     59819.32607      2464.77807        38.12507
  23286011.46908  -7831192.35208      3492.62508        40.75008  23286011.75008
  -5862675.47608      2721.52608        43.31208
  21503808.15609 -17730754.09409       299.65809        50.31209  21503811.37509
 -13581596.13009       233.50009        53.62509
  21265867.18809 -19329780.21909     -1652.45609        53.43809  21265869.84409
 -14827835.46509     -1287.62809        55.00009
  25343098.12507   1773672.26607     -3030.03207        34.93807  25343107.43807
   1616920.34307     -2361.06407        37.68807
  24047366.28107  -3590804.28307     -2589.98007        38.93807  24047371.53108
  -2557644.16608     -2018.16708        41.43808
  25655041.31206    189971.28606     -1416.68006        25.62506  25655050.25007
    140521.85707     -1103.90607        35.68807
  21330061.25009 -20735064.78709     -1851.41609        52.06209  21330063.87509
 -15923404.18709     -1442.66209        54.62509
  24380630.87507  -3835261.39607      3074.80007        37.50007  24380637.43808
  -2754424.95808      2395.94808        40.81208
  20210391.53109 -25962335.46309       389.36809        54.75009  20210393.28109
 -19995765.31809       303.40309        58.43809
 25  3  7  0  3  0.0000000  0 10G01G02G08G10G18G23G24G27G28G32
  24787477.62507   -318914.21507      3164.53607        37.25007  24787479.78107
    -14138.03707      2465.87207        38.37507
  23266080.59408  -7935931.29708      3489.92408        40.81208  23266080.18808
  -5944290.20608      2719.42208        43.31208
  21502154.25009 -17739446.08009       279.87809        50.56209  21502157.15609
 -13588369.14709       218.08709        53.56209
  21275315.93809 -19280126.31909     -1657.71509        53.68809  21275318.65609
 -14789144.16009     -1291.72609        55.12509
  25360408.53107   1864637.14407     -3034.29007        35.68807  25360417.68807
   1687801.74607     -2364.38107        38.68807
  24062150.46907  -3513118.64307     -2589.00907        39.12507  24062154.78108
  -2497110.08708     -2017.40908        42.56208
  25663168.43807    232672.82607     -1429.65607        30.81207  25663175.12507
    173795.70907     -1114.01707        33.50007
  21340676.96909 -20679278.29009     -1867.63209        52.06209  21340679.84409
 -15879934.25009     -1455.29709        54.68809
  24363075.06207  -3927519.32207      3075.13207        37.62507  24363080.59408
  -2826313.92908      2396.20708        40.56208
  20208226.18809 -25973714.13309       369.35509        54.87509  20208228.12509
 -20004631.80909       287.80909        58.50009
 25  3  7  0  3 30.0000000  0 10G01G02G08G10G18G23G24G27G28G32
  24769407.71907   -413869.94207      3165.95907        36.93807  24769410.84407
    -88129.57307      2466.98107        39.06207
  23246166.34408  -8040582.09108      3486.87008        41.18808  23246165.71908
  -6025836.25308      2717.04208        43.31208
  21500614.28109 -17747540.11209       259.97309        50.68809  21500617.34409
 -13594676.21709       202.57609        53.81209
  21284795.09409 -19230314.56509     -1662.90809        53.81209  21284797.46909
 -14750329.85409     -1295.77209        55.31209
  25377742.12507   1955732.81907     -3038.44707        33.31207  25377753.09407
   1758784.97907     -2367.62107        39.56207
  24076929.59407  -3435449.64807     -2588.43807        38.06207  24076935.53108
  -2436589.00608     -2016.96408        43.06208
  25671368.06207    275765.70407     -1442.91007        32.68807  25671375.12507
    207374.52807     -1124.34607        31.50007
  21351386.31209 -20623000.16809     -1883.89409        51.93809  21351389.37509
 -15836081.22909     -1467.96909        54.93809
  24345516.93807  -4019784.43107      3075.46907        37.81207  24345523.15608
  -2898208.57108      2396.46908        40.37508
  20206175.84409 -25984488.61009       349.31609        54.81209  20206177.65609
 -20013027.50409       272.19509        58.56209
 25  3  7  0  4  0.0000000  0 10G01G02G08G10G18G23G24G27G28G32
  24751330.75007   -508868.46207      3167.21907        37.00007  24751333.62508
   -162154.42808      2467.96308        40.31208
  23226268.75008  -8145142.32208      3483.73008        41.25008  23226268.34408
  -6107311.68808      2714.59508        43.93808
  21499187.50009 -17755036.21809       239.93909        50.68809  21499190.68809
 -13600517.36809       186.96509        53.93809
  21294303.84409 -19180346.00309     -1668.29309        53.75009  21294306.21909
 -14711393.35309     -1299.96909        55.43809
  25395103.12507   2046958.47007     -3043.21807        36.25007  25395113.68808
   1829869.42408     -2371.33908        40.81208
  24091706.15607  -3357797.61007     -2588.16407        37.25007  24091710.78108
  -2376081.13908     -2016.75108        40.93808
  25679643.59407    319248.76107     -1455.94707        34.25007  25679651.84406
    241257.39306     -1134.50406        29.12506
  21362189.12509 -20566232.81909     -1900.33409        52.18809  21362191.96909
 -15791847.00309     -1480.78009        55.12509
  24327958.31207  -4112053.92207      3075.76907        38.43807  24327964.46908
  -2970106.61208      2396.70308        40.31208
  20204240.34409 -25994659.21909       328.89409        54.87509  20204242.28109
 -20020952.65009       256.28109        58.75009
 25  3  7  0  4 30.0000000  0 10G01G02G08G10G18G23G24G27G28G32
  24733244.84407   -603908.37107      3168.67407        37.25007  24733247.43807
   -236211.50207      2469.09707        40.00007
  23206389.62508  -8249609.90408      3480.58808        41.62508  23206389.40608
  -6188714.97408      2712.14708        43.43808
  21497874.93809 -17761934.21109       219.94909        50.62509  21497878.15609
 -13605892.46209       171.38909        53.56209
  21303842.15609 -19130221.39009     -1673.44509        53.56209  21303844.59409
 -14672335.25709     -1303.98309        55.00009
  25412487.68807   2138313.18507     -3047.15107        35.56207  25412498.21908
   1901054.52208     -2374.40308        40.06208
  24106480.78107  -3280162.52607     -2587.88307        38.06207  24106485.93808
  -2315586.50108     -2016.53208        41.50008
  25687990.53107    363121.20307     -1468.79907        33.06207          .00000
          .00000          .00000          .00000
  21373084.31209 -20508978.29809     -1916.59409        52.12509  21373087.18809
 -15747233.15609     -1493.45009        54.75009
  24310398.71907  -4204324.64607      3075.45407        37.31207  24310406.25008
  -3042005.65808      2396.45808        40.68808
  20202419.93809 -26004226.04009       308.80109        54.81209  20202421.75009
 -20028407.30509       240.62409        58.37509
 25  3  7  0  5  0.0000000  0 10G01G02G08G10G18G23G24G27G28G32
  24715152.12507   -698988.68507      3170.15607        37.68807  24715154.56207
   -310300.07107      2470.25207        40.00007
  23186527.78108  -8353982.47208      3477.44108        40.81208  23186528.25008
  -6270044.21208      2709.69508        44.06208
  21496675.96909 -17768234.31309       200.13709        50.56209  21496679.25009
 -13610801.66709       155.95109        53.68809
  21313410.09409 -19079941.88709     -1678.44509        53.56209  21313412.62509
 -14633156.46509     -1307.87909        55.31209
  25429895.81207   2229796.08507     -3051.33507        34.12507  25429906.28107
   1972339.48407     -2377.66407        37.68807
  24121250.84407  -3202544.86707     -2586.72407        38.81207  24121255.87508
  -2255105.36708     -2015.62908        41.37508
  25696413.59407    407381.74307     -1482.26607        34.00007          .00000
          .00000          .00000          .00000
  21384071.68809 -20451239.16809     -1932.48009        52.06209  21384074.68809
 -15702241.69209     -1505.82909        54.93809
  24292840.87507  -4296593.97507      3075.52707        37.50007  24292847.00008
  -3113903.55608      2396.51508        41.06208
  20200714.28109 -26013189.57409       288.88209        54.81209  20200716.03109
 -20035391.88009       225.10309        58.56209
 25  3  7  0  5 30.0000000  0 10G01G02G08G10G18G23G24G27G28G32
  24697051.21907   -794107.96807      3171.61407        37.56207  24697053.09407
   -384419.04607      2471.38707        39.62507
  23166685.34408  -8458257.19208      3474.37708        41.56208  23166685.06208
  -6351297.18908      2707.30708        43.87508
  21495590.84409 -17773936.26409       180.17309        50.31209  21495594.34409
 -13615244.79309       140.39509        53.68809
  21323006.93809 -19029508.13809     -1683.48909        52.87509  21323010.03109
 -14593857.49409     -1311.80909        55.25009
  25447328.78107   2321406.54307     -3055.77607        34.00007  25447339.65607
   2043723.88207     -2381.12507        37.25007
  24136017.31207  -3124944.50407     -2586.39407        38.00007  24136021.28107
  -2194637.71707     -2015.37207        39.87507
  25704909.00007    452029.71907     -1495.21207        31.25007          .00000
          .00000          .00000          .00000
  21395150.96909 -20393017.43409     -1948.66509        51.81209  21395153.90609
 -15656874.17809     -1518.44009        54.87509
  24275283.50007  -4388858.66307      3075.54007        37.18807  24275289.93808
  -3185797.87208      2396.52408        41.68808
  20199123.50009 -26021549.85309       268.79609        54.62509  20199125.18809
 -20041906.38309       209.45209        58.50009
 25  3  7  0  6  0.0000000  0 10G01G02G08G10G18G23G24G27G28G32
  24678942.90607   -889265.23407      3172.47807        36.87507  24678945.28107
   -458567.56207      2472.06107        39.56207
  23146861.62508  -8562432.63208      3470.69108        42.00008  23146860.78108
  -6432472.86108      2704.43508        44.00008
  21494619.78109 -17779040.40509       160.07109        50.50009  21494623.12509
 -13619222.09109       124.73009        53.87509
  21332633.40609 -18978921.34909     -1688.89609        53.00009  21332636.25009
 -14554439.27109     -1316.02309        55.37509
  25464787.43807   2413143.41007     -3060.05607        35.68807  25464797.68807
   2115206.75307     -2384.45907        38.06207
  24150781.78107  -3047361.92007     -2585.79607        38.18807  24150786.25008
  -2134183.95108     -2014.90608        40.75008
  25713479.62506    497063.68706     -1507.54906        29.62506  25713487.09407
     17630.07807     -1174.71307        31.56207
  21406321.62509 -20334315.73709     -1964.83409        51.93809  21406324.62509
 -15611132.66909     -1531.03909        55.00009
  24257727.18807  -4481115.93407      3075.02007        37.37507  24257733.96908
  -3257686.41808      2396.11908        41.31208
  20197647.15609 -26029307.46609       248.43309        54.75009  20197648.96909
 -20047951.28209       193.58409        58.68809
 25  3  7  0  6 30.0000000  0 10G01G02G08G10G18G23G24G27G28G32
  24660828.62507   -984459.30807      3173.82807        37.75007  24660831.40608
   -532744.81908      2473.11308        40.12508
  23127056.18808  -8666506.23208      3467.27308        41.12508  23127056.25008
  -6513569.14408      2701.77108        43.31208
  21493762.34409 -17783546.81709       140.23409        50.62509  21493765.56209
 -13622733.61409       109.27409        53.75009
  21342288.65609 -18928182.44809     -1693.91109        53.25009  21342291.75009
 -14514902.52109     -1319.93109        55.25009
  25482267.68807   2505005.71707     -3064.00607        34.31207  25482277.93807
   2186787.35607     -2387.53707        37.75007
  24165541.87507  -2969797.17607     -2585.08807        38.43807  24165547.53108
  -2073744.13108     -2014.35408        41.93808
  25722123.34407    542482.60707     -1520.69807        32.12507  25722128.87507
     53021.39807     -1184.96007        32.31207
  21417583.15609 -20275136.44809     -1980.52009        52.12509  21417586.15609
 -15565019.00609     -1543.26209        54.81209
  24240174.21907  -4573362.94007      3074.74907        38.81207  24240178.90608
  -3329566.97608      2395.90808        40.81208
  20196285.56209 -26036462.80009       228.44009        54.93809  20196287.43809
 -20053526.86409       178.00509        58.62509
 25  3  7  0  7  0.0000000  0 10G01G02G08G10G18G23G24G27G28G32
  24642707.18807  -1079688.73307      3175.03407        37.56207  24642709.15607
   -606949.57607      2474.05207        39.37507
  23107271.75008  -8770475.13608      3463.76708        41.50008  23107272.03108
  -6594583.85608      2699.03908        43.43808
  21493018.34409 -17787455.35009       120.38109        50.50009  21493021.78109
 -13625779.25909        93.80309        53.68809
  21351973.06209 -18877292.10109     -1698.84009        53.37509  21351975.90609
 -14475247.75809     -1323.77209        55.37509
  25499773.03107   2596992.89907     -3067.99607        34.87507  25499782.03107
   2258465.27007     -2390.64607        37.93807
  24180298.34407  -2892250.34407     -2584.64407        37.62507  24180303.21908
  -2013318.21808     -2014.00808        41.12508
  25730838.96907    588285.60207     -1533.32507        32.87507  25730844.84407
     88712.07707     -1194.79907        31.81207
  21428935.15609 -20215481.64109     -1996.43609        52.00009  21428938.00009
 -15518534.82209     -1555.66409        54.62509
  24222622.09407  -4665596.41407      3074.23307        38.37507  24222627.28108
  -3401437.02808      2395.50708        40.18808
  20195038.50009 -26043015.96709       208.39809        54.87509  20195040.43809
 -20058633.22309       162.38809        58.68809
 25  3  7  0  7 30.0000000  0 10G01G02G08G10G18G23G24G27G28G32
  24624579.28107  -1174952.56707      3176.22807        38.00007  24624581.71907
   -681181.18307      2474.98307        39.75007
  23087507.68808  -8874337.52808      3460.23908        41.68808  23087507.62508
  -6675515.57308      2696.29008        44.06208
  21492388.53109 -17790766.45209       100.49809        50.62509  21492391.40609
 -13628359.36109        78.31009        53.75009
  21361685.90609 -18826251.54309     -1703.75509        53.37509  21361688.62509
 -14435475.95509     -1327.60109        55.37509
  25517299.40607   2689103.81807     -3072.18507        32.31207  25517311.68807
   2330239.57007     -2393.91007        38.68807
  24195051.09407  -2814721.88907     -2583.69907        37.93807  24195056.34408
  -1952906.61708     -2013.27208        40.93808
  25739629.12506    634471.23906     -1545.56406        29.31206  25739633.53107
    124700.89607     -1204.33607        33.56207
  21440376.96909 -20155354.08009     -2012.07509        51.87509  21440379.96909
 -15471682.25909     -1567.85109        54.81209
  24205072.40607  -4757813.78607      3073.56007        36.93807  24205078.84408
  -3473294.49608      2394.98108        41.06208
  20193906.03109 -26048967.72009       188.47409        54.87509  20193907.71909
 -20063270.95509       146.86309        58.81209
 25  3  7  0  8  0.0000000  0 10G01G02G08G10G18G23G24G27G28G32
  24606445.00007  -1270249.38907      3177.23407        37.75007  24606447.31207
   -755438.46207      2475.76707        39.68807
  23067764.53108  -8978090.91508      3456.63608        42.12508  23067764.25008
  -6756362.32108      2693.48208        44.18808
  21491872.21909 -17793480.15809        80.51809        50.75009  21491875.71909
 -13630473.96609        62.74109        53.81209
  21371427.03109 -18775061.45509     -1708.83809        53.31209  21371429.84409
 -14395587.62409     -1331.56209        55.18809
  25534852.09407   2781337.64307     -3075.91607        31.75007  25534862.40607
   2402109.68407     -2396.81707        34.56207
  24209802.12507  -2737211.69607     -2583.41607        38.81207  24209806.59408
  -1892509.28508     -2013.05108        40.68808
  25748487.78106    681038.77606     -1558.99406        24.50006  25748494.00007
    160987.28507     -1214.80107        32.00007
  21451908.50009 -20094755.97009     -2027.71709        51.81209  21451911.71909
 -15424463.02409     -1580.03909        54.62509
  24187527.46907  -4850011.86907      3072.93907        37.87507  24187533.12508
  -3545136.93008      2394.49808        41.06208
  20192888.00009 -26054318.34409       168.38109        54.93809  20192889.81209
 -20067440.26709       131.20609        58.81209
 25  3  7  0  8 30.0000000  0 10G01G02G08G10G18G23G24G27G28G32
  24588304.31207  -1365578.07007      3178.27107        37.68807  24588306.15607
   -829720.57707      2476.57507        39.56207
  23048041.71908  -9081732.86308      3452.66108        41.75008  23048040.96908
  -6837122.23608      2690.38508        43.62508
  21491469.53109 -17795596.79809        60.67609        50.68809  21491472.40609
 -13632123.32909        47.28009        53.56209
  21381196.31209 -18723722.86009     -1713.75209        53.25009  21381199.31209
 -14355583.58009     -1335.39109        55.18809
  25552427.59407   2873693.34007     -3080.83007        31.62507  25552434.71907
   2474074.72407     -2400.64707        32.37507
  24224546.93807  -2659720.12407     -2582.79807        36.93807  24224552.21908
  -1832126.40508     -2012.57008        40.18808
  25757425.50006    727986.70806     -1571.12106        27.00006  25757430.03107
    197570.10007     -1224.25007        33.68807
  21463529.00009 -20033689.88209     -2043.27109        51.62509  21463532.28109
 -15376879.13909     -1592.16009        54.62509
  24169987.43807  -4942187.80007      3072.15807        38.43807  24169992.81208
  -3616962.11708      2393.88908        41.87508
  20191983.87509 -26059068.41309       148.41109        54.75009  20191985.59409
 -20071141.62109       115.64509        58.56209
 25  3  7  0  9  0.0000000  0 10G01G02G08G10G18G23G24G27G28G32
  24570158.06207  -1460937.33507      3179.03607        37.62507  24570160.43807
   -904026.48407      2477.17107        39.87507
  23028340.43808  -9185260.98708      3448.73308        41.06208  23028339.81208
  -6917793.48208      2687.32408        43.06208
  21491180.21909 -17797116.50009        40.67409        50.56209  21491183.56209
 -13633307.55209        31.69409        53.56209
  21390994.03109 -18672236.62909     -1718.71809        53.43809  21390996.96909
 -14315464.50309     -1339.26109        55.25009
  25570026.68807   2966169.79707     -3084.94407        34.00007  25570035.62507
   2546133.95207     -2403.85207        37.31207
  24239290.81207  -2582247.26207     -2582.16107        38.00007  24239295.71908
  -1771758.11708     -2012.07308        40.62508
  25766431.12506    775314.18506     -1583.42006        28.75006  25766436.37507
    234448.57207     -1233.83407        35.75007
  21475237.96909 -19972158.19409     -2058.83809        51.43809  21475241.31209
 -15328932.46309     -1604.28909        54.37509
  24152451.90607  -5034338.55307      3071.26207        38.50007  24152456.87508
  -3688767.70608      2393.19108        41.31208
  20191194.18809 -26063218.33409       128.34209        54.75009  20191196.09409
 -20074375.33109       100.00709        58.56209
 25  3  7  0  9 30.0000000  0 10G01G02G08G10G18G23G24G27G28G32
  24552006.68807  -1556325.84107      3180.10707        38.43807  24552008.71908
   -978355.18808      2478.00608        40.37508
  23008662.03108  -9288672.91408      3444.99308        42.00008  23008662.03108
  -6998374.16308      2684.41008        43.75008
  21491004.81209 -17798039.46909        20.73509        50.81209  21491007.87509
 -13634026.77609        16.15709        53.81209
  21400819.56209 -18620603.56109     -1723.53009        53.68809  21400822.43809
 -14275230.99209     -1343.01109        55.37509
  25587646.53107   3058766.42807     -3089.02307        31.00007  25587657.96908
   2618286.73708     -2407.03108        40.12508
  24254029.90607  -2504793.12807     -2581.52607        38.06207  24254034.43808
  -1711404.45108     -2011.57908        40.93808
  25775509.50006    823019.90306     -1597.00006        28.43806  25775514.25007
    271621.83007     -1244.41507        35.18807
  21487035.37509 -19910163.31109     -2074.19909        51.56209  21487038.65609
 -15280624.82709     -1616.25909        54.56209
  24134921.62507  -5126461.09407      3070.30807        38.31207  24134926.53108
  -3760551.28308      2392.44808        41.18808
  20190518.59409 -26066768.61409       108.40809        54.87509  20190520.21909
 -20077141.77409        84.47409        58.68809
 25  3  7  0 10  0.0000000  0 10G01G02G08G10G18G23G24G27G28G32
  24533849.75007  -1651742.20907      3180.80607        38.50007  24533850.93808
  -1052705.62808      2478.55008        40.25008
  22989006.46908  -9391966.03008      3441.20808        42.18808  22989006.31208
  -7078862.28408      2681.46108        44.00008
  21490942.81209 -17798365.93609         1.00109        50.62509  21490945.96909
 -13634281.19409          .78009        53.75009
  21410673.28109 -18568824.48109     -1728.42509        53.50009  21410675.71909
 -14234883.71209     -1346.82509        55.25009
  25605290.65607   3151482.40807     -3093.18107        31.31207  25605301.96907
   2690532.42507     -2410.27107        38.62507
  24268765.21907  -2427357.88007     -2580.84507        37.43807  24268771.03108
  -1651065.49008     -2011.04808        41.50008
  25784654.40606    871102.80706     -1609.28706        25.93806  25784665.43807
    309089.00007     -1253.99007        36.12507
  21498920.37509 -19847707.66009     -2089.54609        51.37509  21498923.65609
 -15231958.16309     -1628.21809        54.37509
  24117396.31207  -5218552.38307      3068.97507        37.75007  24117401.53108
  -3832310.56308      2391.40908        40.75008
  20189956.96909 -26069719.70309        88.42509        54.68809  20189959.06209
 -20079441.33209        68.90309        58.75009
 25  3  7  0 10 30.0000000  0 10G01G02G08G10G18G23G24G27G28G32
  24515686.84407  -1747185.57107      3182.07507        38.06207  24515689.15608
  -1127077.06308      2479.53908        40.56208
  22969372.81208  -9495138.52108      3436.97808        41.81208  22969373.15608
  -7159256.39508      2678.16408        44.56208
  21490993.84409 -17798096.59609       -18.82309        50.31209  21490997.06209
 -13634071.35509       -14.66709        53.68809
  21420553.59409 -18516900.60409     -1733.24709        53.25009  21420556.65609
 -14194423.60409     -1350.58209        55.18809
  25622956.62507   3244316.22207     -3096.23507        32.62507  25622966.34407
   2762870.07507     -2412.65107        33.31207
  24283497.03107  -2349941.97207     -2580.32707        37.62507  24283503.06208
  -1590741.59708     -2010.64508        41.25008
  25793877.81206    919561.37706     -1621.48706        28.18806  25793887.09407
    346848.93207     -1263.49607        36.81207
  21510892.31209 -19784794.09709     -2104.73609        51.06209  21510895.81209
 -15182934.67509     -1640.05409        54.25009
  24099879.28107  -5310609.80907      3067.91307        38.87507  24099884.18808
  -3904043.43908      2390.58108        41.37508
  20189509.34409 -26072072.54409        68.52809        54.62509  20189510.96909
 -20081274.70909        53.39809        58.62509
 25  3  7  0 11  0.0000000  0  9G01G02G08G10G23G24G27G28G32
  24497519.71907  -1842654.33307      3182.47307        38.12507  24497521.25007
  -1201468.34807      2479.84907        39.81207
  22949762.53108  -9598187.44708      3432.79808        40.75008  22949762.71908
  -7239554.23008      2674.90708        43.93808
  21491158.15609 -17797231.52609       -38.75009        50.25009  21491161.65609
 -13633397.32609       -30.19509        53.75009
  21430461.90609 -18464832.55209     -1737.98309        53.18809  21430464.56209
 -14153851.15609     -1354.27309        54.81209
  24298226.28107  -2272545.35807     -2579.50207        38.50007  24298230.40608
  -1530432.69808     -2010.00108        40.31208
  25803171.18806    968394.66606     -1633.45706        28.18806  25803177.53107
    384900.83307     -1272.82407        32.56207
  21522951.34409 -19721424.91509     -2119.90209        51.12509  21522954.46909
 -15133556.18309     -1651.87209        54.12509
  24082368.68807  -5402630.11607      3066.70907        39.25007  24082373.50008
  -3975747.40608      2389.64308        42.43808
  20189175.40609 -26073827.48209        48.50309        54.68809  20189177.31209
 -20082642.20909        37.79509        58.81209
 25  3  7  0 11 30.0000000  0  9G01G02G08G10G23G24G27G28G32
  24479348.25007  -1938147.39107      3183.74807        38.43807  24479350.18808
  -1275878.50708      2480.84208        40.31208
  22930177.71908  -9701110.73208      3428.57408        41.81208  22930177.37508
  -7319754.15408      2671.61608        44.00008
  21491436.65609 -17795771.19409       -58.54709        50.56209  21491439.81209
 -13632259.44609       -45.62109        53.62509
  21440397.71909 -18412621.27909     -1742.59509        53.31209  21440399.93809
 -14113167.08409     -1357.86609        54.43809
  24312949.18807  -2195168.20907     -2578.70807        37.50007  24312955.53108
  -1470139.01608     -2009.38308        41.12508
  25812534.81206   1017601.28106          .00006        28.56206  25812538.18806
    423243.78206          .00006        29.75006
  21535096.53109 -19657602.74809     -2134.92209        51.31209  21535099.68809
 -15083824.69609     -1663.57509        54.12509
  24064865.21907  -5494610.42907      3065.53207        38.62507  24064869.34408
  -4047420.16308      2388.72608        41.81208
  20188955.00009 -26074985.25009        28.66509        54.81209  20188956.93809
 -20083544.36009        22.33609        58.56209
 25  3  7  0 12  0.0000000  0  8G01G02G08G10G23G27G28G32
  24461172.43807  -2033663.16907      3184.15807        39.18807  24461174.40608
  -1350306.38408      2481.16208        40.43808
  22910616.18808  -9803905.71008      3424.39208        42.18808  22910615.75008
  -7399854.12008      2668.35708        43.50008
  21491827.68809 -17793715.83109       -78.29309        50.75009  21491830.75009
 -13630657.90409       -61.00809        53.50009
  21450359.96909 -18360267.46709     -1747.44409        53.12509  21450362.81209
 -14072371.95909     -1361.64509        54.56209
  24327671.43807  -2117810.47607     -2578.27907        37.93807  24327677.21908
  -1409860.46508     -2009.04808        41.31208
  21547327.06209 -19593329.95409     -2149.88509        51.31209  21547330.53109
 -15033742.08109     -1675.23509        54.18809
  24047369.28107  -5586547.50807      3063.61607        38.06207  24047374.65608
  -4119059.30008      2387.23308        41.81208
  20188848.18809 -26075546.33309         8.85709        54.93809  20188850.21909
 -20083981.57109         6.90209        58.62509
 25  3  7  0 12 30.0000000  0  8G01G02G08G10G23G27G28G32
  24442991.81207  -2129200.49007      3184.99307        38.68807  24442994.56208
  -1424751.03108      2481.81208        41.06208
  22891080.43808  -9906569.88508      3420.15908        42.06208  22891079.46908
  -7479852.15108      2665.05908        44.25008
  21492331.93809 -17791065.95409       -98.13009        50.75009  21492335.06209
 -13628593.09509       -76.46509        53.75009
  21460349.37509 -18307772.06309     -1752.12209        52.93809  21460352.59409
 -14031466.49109     -1365.29009        54.87509
  24342387.40607  -2040472.42407     -2577.59507        38.06207  24342392.56207
  -1349597.26007     -2008.51607        39.75007
  21559643.06209 -19528609.23909     -2164.73909        51.25009  21559646.40609
 -14983310.42609     -1686.80909        54.31209
  24029883.40607  -5678438.52907      3062.46607        39.25007  24029886.62508
  -4190662.51508      2386.33708        41.37508
  20188855.03109 -26075511.49909       -10.97409        55.06209  20188856.65609
 -20083954.42309        -8.55109        58.87509
 25  3  7  0 13  0.0000000  0  8G01G02G08G10G23G27G28G32
  24424807.65607  -2224757.95707      3185.85007        37.93807  24424809.75008
  -1499211.37408      2482.48008        40.68808
  22871568.43808 -10009100.74208      3415.63008        41.31208  22871568.81208
  -7559746.29808      2661.53008        44.37508
  21492949.18809 -17787821.95309      -117.93009        50.37509  21492952.53109
 -13626065.34409       -91.89309        53.50009
  21470365.71909 -18255135.82509     -1756.88209        52.75009  21470368.93809
 -13990451.29709     -1368.99909        54.75009
  24357101.37507  -1963154.07107     -2576.68207        37.62507  24357106.59408
  -1289349.38708     -2007.80408        40.62508
  21572043.96909 -19463443.09309     -2179.48709        50.87509  21572047.25009
 -14932531.69009     -1698.30209        53.87509
  24012406.65607  -5770280.32507      3060.51007        39.25007  24012410.84408
  -4262227.45308      2384.81308        41.43808
  20188974.81209 -26074881.37609       -30.82009        54.81209  20188976.56209
 -20083463.43809       -24.01609        58.68809
 25  3  7  0 13 30.0000000  0  8G01G02G08G10G23G27G28G32
  24406620.90607  -2320334.43107      3186.03007        38.68807  24406622.21908
  -1573686.54808      2482.62108        40.18808
  22852083.87508 -10111496.11308      3410.91308        41.87508  22852084.37508
  -7639534.85808      2657.85408        44.68808
  21493679.21909 -17783984.54109      -137.66809        50.50009  21493682.71909
 -13623075.18609      -107.27409        53.43809
  21480409.03109 -18202359.79809     -1761.51909        52.93809  21480412.15609
 -13949327.16309     -1372.61209        54.87509
  24371810.65607  -1885855.70707     -2576.21107        38.25007  24371816.84408
  -1229117.08708     -2007.43708        41.87508
  21584529.03109 -19397834.31009     -2194.27209        51.00009  21584532.09409
 -14881408.03009     -1709.82309        53.75009
  23994937.93807  -5862070.17907      3058.83507        38.18807  23994943.37508
  -4333751.85008      2383.50808        41.37508
  20189207.75009 -26073656.88009       -50.65709        54.87509  20189209.62509
 -20082509.27909       -39.47309        58.62509
 25  3  7  0 14  0.0000000  0  8G01G02G08G10G23G27G28G32
  24388429.40607  -2415928.37107      3186.59207        38.18807  24388432.31208
  -1648175.35108      2483.05908        40.93808
  22832624.65608 -10213753.24908      3406.14008        41.68808  22832624.31208
  -7719215.70808      2654.13508        43.93808
  21494522.68809 -17779553.98009      -157.61509        50.56209  21494525.78109
 -13619622.83709      -122.81709        53.56209
  21490478.50009 -18149444.61409     -1766.24509        52.81209  21490481.65609
 -13908094.61009     -1376.29509        54.87509
  24386517.34407  -1808577.28507     -2575.54407        39.18807  24386522.00008
  -1168900.31408     -2006.91808        41.18808
  21597097.65609 -19331785.33609     -2209.09909        50.93809  21597100.93809
 -14829941.37409     -1721.37609        53.93809
  23977480.59407  -5953804.82807      3056.75507        37.75007  23977486.96908
  -4405233.22908      2381.88708        42.06208
  20189553.81209 -26071838.57509       -70.58609        54.93809  20189555.68809
 -20081092.42809       -55.00209        58.75009
 25  3  7  0 14 30.0000000  0  9G01G02G08G10G23G24G27G28G32
  24370235.78107  -2511538.47407      3187.16307        38.06207  24370238.09408
  -1722676.70208      2483.50408        41.12508
  22813192.78108 -10315869.82208      3401.40108        42.50008  22813191.87508
  -7798787.08308      2650.44308        43.75008
  21495478.46909 -17774530.87709      -177.25309        50.68809  21495481.62509
 -13615708.77309      -138.12009        53.50009
  21500574.37509 -18096391.09909     -1770.73509        53.06209  21500577.37509
 -13866754.26509     -1379.79309        54.62509
  24401217.87507  -1731318.88407     -2574.64607        38.31207  24401225.21908
  -1108699.16508     -2006.21808        41.81208
  25870198.78106     41765.11306     -1719.71706        25.37506  25870203.93806
     26761.74206     -1340.03906        27.25006
  21609749.50009 -19265298.82709     -2223.52809        51.06209  21609753.03109
 -14778133.78909     -1732.61909        53.81209
  23960036.65607  -6045481.28907      3055.03207        39.00007  23960041.56208
  -4476669.25708      2380.54408        42.62508
  20190012.53109 -26069427.28709       -90.23909        55.18809  20190014.50009
 -20079213.50909       -70.31609        58.68809
 25  3  7  0 15  0.0000000  0  8G01G02G08G10G23G27G28G32
  24352038.43807  -2607163.32107      3187.53707        37.18807  24352040.81208
  -1797189.57608      2483.79508        41.00008
  22793787.18808 -10417843.36508      3396.73808        41.31208  22793787.31208
  -7878246.96608      2646.80908        44.18808
  21496546.84409 -17768915.74509      -197.00409        50.50009  21496550.34409
 -13611333.38909      -153.51009        53.62509
  21510696.25009 -18043200.05409     -1775.29309        52.87509  21510699.25009
 -13825306.75109     -1383.34509        54.62509
  24415917.40607  -1654080.56907     -2574.16507        38.62507  24415922.50008
  -1048513.67808     -2005.84308        41.68808
  21622484.43809 -19198377.41709     -2237.85209        51.00009  21622487.78109
 -14725987.32009     -1743.78009        53.81209
  23942603.00007  -6137096.45507      3053.00007        39.75007  23942607.93808
  -4548057.57208      2378.96108        42.62508
  20190584.43809 -26066423.75909      -109.96109        55.12509  20190586.09409
 -20076873.11709       -85.68409        58.75009
 25  3  7  0 15 30.0000000  0  8G01G02G08G10G23G27G28G32
  24333838.84407  -2702801.66407      3188.23207        37.62507  24333841.68808
  -1871712.90308      2484.33708        41.18808
  22774410.31208 -10519670.65808      3391.75508        41.81208  22774410.59408
  -7957592.86508      2642.92608        44.37508
  21497727.87509 -17762709.21009      -216.71109        50.56209  21497731.50009
 -13606497.15409      -168.86609        53.56209
  21520844.18809 -17989872.31109     -1779.92409        52.87509  21520847.18809
 -13783752.71609     -1386.95409        54.43809
  24430610.40607  -1576862.48007     -2573.41107        37.93807  24430616.96908
   -988343.94408     -2005.25508        40.81208
  21635301.50009 -19131023.76209     -2252.34109        51.12509  21635304.90609
 -14673504.03009     -1755.07109        53.75009
  23925181.46907  -6228647.34707      3050.70807        39.50007  23925185.37508
  -4619395.83208      2377.17508        41.56208
  20191268.62509 -26062828.87809      -129.66109        55.25009  20191270.28109
 -20074071.91509      -101.03409        58.68809
 25  3  7  0 16  0.0000000  0  9G01G02G08G10G23G27G28G31G32
  24315637.96907  -2798451.98807      3188.36707        38.68807  24315640.28108
  -1946245.64808      2484.44208        40.87508
  22755061.78108 -10621350.13508      3386.77708        42.06208  22755061.59408
  -8036823.59508      2639.04708        44.56208
  21499021.56209 -17755911.98309      -236.49909        50.31209  21499025.00009
 -13601200.64809      -184.28509        53.75009
  21531017.87509 -17936408.72609     -1784.31409        52.56209  21531020.71909
 -13742092.83509     -1390.37509        54.43809
  24445300.96907  -1499664.80507     -2572.79507        37.18807  24445307.40608
   -928190.07608     -2004.77608        41.43808
  21648200.18809 -19063240.63609     -2266.52609        50.81209  21648203.68809
 -14620686.08409     -1766.12409        53.87509
  23907771.93807  -6320131.08207      3048.39407        37.87507  23907777.03108
  -4690681.68708      2375.37208        42.25008
  25122087.71908    977166.91408      2906.77708        41.06208  25122097.00008
    995250.96608      2265.02108        45.25008
  20192064.75009 -26058643.49409      -149.32909        54.87509  20192066.56209
 -20070810.58509      -116.36009        58.75009
 25  3  7  0 16 30.0000000  0  9G01G02G08G10G23G27G28G31G32
  24297433.96907  -2894112.95007      3188.81807        37.81207  24297436.50008
  -2020786.63908      2484.79308        40.06208
  22735741.40608 -10722879.04108      3381.68208        42.25008  22735740.96908
  -8115936.99808      2635.07708        44.12508
  21500427.21909 -17748524.59309      -255.91609        50.50009  21500430.90609
 -13595444.26709      -199.41509        53.62509
  21541217.31209 -17882809.96709     -1788.80409        52.75009  21541220.37509
 -13700327.61309     -1393.87309        54.37509
  24459987.50007  -1422487.43907     -2572.29707        38.06207  24459994.06208
   -868052.09508     -2004.38808        41.43808
  21661180.09409 -18995030.60709     -2280.71309        50.87509  21661183.50009
 -14567535.49809     -1777.17909        53.68809
  23890376.43807  -6411544.41507      3045.99107        38.75007  23890381.34408
  -4761912.71608      2373.50008        42.12508
  25105479.78107    889894.75707      2911.40907        39.93807  25105488.78108
    927246.85808      2268.63008        44.56208
  20192973.56209 -26053868.41209      -168.84309        55.18809  20192975.31209
 -20067089.74509      -131.56609        58.62509
 25  3  7  0 17  0.0000000  0  9G01G02G08G10G23G27G28G31G32
  24279228.03107  -2989783.15907      3189.09907        37.12507  24279230.81207
  -2095334.86307      2485.01207        39.81207
  22716449.96908 -10824254.76008      3376.80208        41.87508  22716449.56208
  -8194931.05908      2631.27408        44.12508
  21501945.46909 -17740547.74809      -275.59309        50.43809  21501948.87509
 -13589228.59409      -214.74809        53.50009
  21551442.50009 -17829076.88609     -1793.30309        52.81209  21551445.93809
 -13658457.75009     -1397.37909        54.62509
  24474669.62507  -1345330.50007     -2571.52607        36.25007  24474676.31208
   -807929.99908     -2003.78608        40.75008
  21674241.09409 -18926396.41709     -2294.88309        50.93809  21674244.50009
 -14514054.40409     -1788.22009        53.75009
  23872995.46907  -6502884.35807      3043.47907        39.87507  23873000.15608
  -4833086.56308      2371.54208        42.68808
  25088846.37507    802484.17107      2915.87607        37.00007  25088855.15608
    859134.86108      2272.11208        43.43808
  20193994.46909 -26048504.56409      -188.60609        55.18809  20193996.09409
 -20062910.14409      -146.96609        58.56209
 25  3  7  0 17 30.0000000  0  9G01G02G08G10G23G27G28G31G32
  24261021.31207  -3085461.14007      3189.45107        37.00007  24261023.59408
  -2169889.12908      2485.28608        40.31208
  22697188.21908 -10925474.61808      3371.38908        41.68808  22697188.43808
  -8273803.62308      2627.05608        44.56208
  21503575.09409 -17731982.11709      -295.30809        50.18809  21503578.81209
 -13582554.11409      -230.11009        53.50009
  21561693.25009 -17775210.18209     -1797.76609        52.75009  21561696.18809
 -13616483.74709     -1400.85709        54.68809
  24489349.78107  -1268194.10007     -2570.74707        37.81207  24489354.81207
   -747823.92507     -2003.18007        40.00007
  21687381.93809 -18857340.78109     -2308.78209        50.75009  21687385.43809
 -14460244.89509     -1799.05109        53.75009
  23855628.65607  -6594147.83907      3041.06007        39.43807  23855633.28108
  -4904200.84308      2369.65708        43.31208
  25072187.28107    714937.70807      2920.26607        39.12507  25072195.50008
    790917.01708      2275.53208        42.62508
  20195126.71909 -26042552.85209      -208.08609        54.81209  20195128.53109
 -20058272.45209      -162.14509        58.56209
 25  3  7  0 18  0.0000000  0  9G01G02G08G10G23G27G28G31G32
  24242813.75007  -3181145.66707      3189.66607        37.43807  24242814.78107
  -2244448.49707      2485.45407        40.00007
  22677957.15608 -11026536.30108      3366.19408        42.56208  22677957.03108
  -8352552.95608      2623.00808        44.87508
  21505317.46909 -17722828.56809      -314.96809        50.18809  21505320.46909
 -13575421.52609      -245.43009        53.50009
  21571968.84409 -17721210.75309     -1802.21409        52.62509  21571972.00009
 -13574406.32709     -1404.32309        54.68809
  24504022.90607  -1191078.31007     -2570.38607        36.62507  24504030.18807
   -687733.92807     -2002.89807        39.87507
  21700602.50009 -18787866.50809     -2322.75109        50.62509  21700606.28109
 -14406109.18809     -1809.93609        54.06209
  23838275.75007  -6685331.96107      3038.04007        38.12507  23838281.12508
  -4975253.25108      2367.30308        42.75008
  25055502.34408    627257.59608      2925.16108        40.87508  25055510.25008
    722594.98808      2279.34608        44.31208
  20196370.90609 -26036014.31609      -227.67809        54.81209  20196372.87509
 -20053177.49809      -177.41209        58.75009
 25  3  7  0 18 30.0000000  0  9G01G02G08G10G23G27G28G31G32
  24224603.96907  -3276835.19907      3189.72407        37.62507  24224606.34408
  -2319011.73408      2485.49908        40.75008
  22658756.34408 -11127436.96908      3360.43008        42.68808  22658756.56208
  -8431176.81408      2618.51708        45.31208
  21507171.09409 -17713087.81409      -334.55809        50.43809  21507174.37509
 -13567831.35609      -260.69509        53.50009
  21582269.71909 -17667079.35809     -1806.75509        52.62509  21582272.93809
 -13532226.05909     -1407.86109        54.31209
  24518695.00007  -1113983.24507     -2569.82207        37.93807  24518700.50007
   -627660.02707     -2002.45807        39.50007
  21713902.21909 -18717976.36309     -2336.75809        50.81209  21713905.84409
 -14351649.42909     -1820.85009        53.68809
  23820939.43807  -6776433.66607      3035.15607        38.56207  23820943.78108
  -5046241.44708      2365.05708        41.43808
  25038792.31208    539446.08208      2929.18508        40.06208  25038800.40608
    654170.62108      2282.48108        44.25008
  20197727.15609 -26028889.90309      -247.24409        55.12509  20197728.46909
 -20047626.01509      -192.65709        58.62509
 25  3  7  0 19  0.0000000  0  9G01G02G08G10G23G27G28G31G32
  24206394.37507  -3372528.04807      3190.00507        37.43807  24206396.34408
  -2393577.62108      2485.71808        40.18808
  22639586.71908 -11228173.93908      3355.12508        42.43808  22639587.00008
  -8509673.11108      2614.38308        45.12508
  21509136.12509 -17702760.34409      -354.03109        50.25009  21509139.40609
 -13559784.01009      -275.86809        53.43809
  21592595.65609 -17612816.44109     -1810.97209        52.37509  21592598.84409
 -13489943.31709     -1411.14709        54.31209
  24533362.81207  -1036908.66507     -2568.92807        38.12507  24533367.84408
   -567602.15008     -2001.76208        40.75008
  21727280.53109 -18647672.76009     -2350.33909        50.75009  21727284.31209
 -14296867.48809     -1831.43309        53.75009
  23803620.71907  -6867449.49207      3032.35407        39.93807  23803624.71908
  -5117162.75108      2362.87308        41.93808
  25022057.18807    451505.77507      2933.44507        39.56207  25022065.15608
    585645.87208      2285.80108        42.93808
  20199193.81209 -26021180.29109      -266.70909        54.87509  20199195.75009
 -20041618.53109      -207.82509        58.75009
 25  3  7  0 19 30.0000000  0  9G01G02G08G10G23G27G28G31G32
  24188184.15607  -3468222.83007      3189.83407        37.18807  24188186.59408
  -2468145.01208      2485.58508        41.12508
  22620449.00008 -11328744.88508      3349.61408        43.18808  22620448.15608
  -8588040.05108      2610.08908        44.87508
  21511212.56209 -17691847.06609      -373.38609        50.18809  21511216.34409
 -13551280.19409      -290.95009        53.56209
  21602946.40609 -17558422.84509     -1815.31509        52.56209  21602949.50009
 -13447558.75709     -1414.53109        54.31209
  24548024.40607   -959854.69707     -2568.27407        37.25007  24548031.18808
   -507560.30708     -2001.25208        40.68808
  21740737.25009 -18576958.62409     -2363.86509        50.75009  21740740.71909
 -14241765.65109     -1841.97309        53.68809
  23786316.68807  -6958376.51707      3029.45807        39.81207  23786321.84408
  -5188014.87508      2360.61708        42.93808
  25005299.68808    363439.11608      2937.70008        41.50008  25005306.87508
    517022.67908      2289.11708        42.75008
  20200771.93809 -26012886.61809      -286.09109        54.93809  20200774.03109
 -20035155.94509      -222.92809        58.81209
 25  3  7  0 20  0.0000000  0  9G01G02G08G10G23G27G28G31G32
  24169974.50007  -3563918.09207      3189.91507        38.00007  24169977.15608
  -2542712.74008      2485.64808        41.18808
  22601342.96908 -11429147.07808      3344.10608        43.12508  22601342.68808
  -8666275.48508      2605.79708        45.06208
  21513401.18809 -17680348.80309      -392.89609        50.37509  21513404.25009
 -13542320.55809      -306.15209        53.18809
  21613322.25009 -17503899.29709     -1819.60909        52.68809  21613324.96909
 -13405072.93809     -1417.87709        53.93809
  24562684.68807   -882821.32707     -2567.35407        38.00007  24562690.28107
   -447534.50607     -2000.53507        39.93807
  21754271.40609 -18505836.65609     -2377.44909        50.81209  21754274.84409
 -14186346.03509     -1852.55709        53.50009
  23769030.84407  -7049211.69607      3026.12107        38.50007  23769037.12508
  -5258795.41008      2358.01608        43.37508
  24988516.50008    275248.41908      2941.70908        40.50008  24988524.50008
    448302.84608      2292.24108        42.50008
  20202461.18809 -26004009.87909      -305.56409        54.93809  20202463.12509
 -20028239.02209      -238.10209        58.62509
 25  3  7  0 20 30.0000000  0  9G01G02G08G10G23G27G28G31G32
  24151763.18807  -3659612.45107      3189.59207        37.93807  24151766.46908
  -2617279.78608      2485.39608        41.18808
  22582269.81208 -11529378.10208      3338.09608        43.18808  22582268.90608
  -8744377.55808      2601.11408        45.12508
  21515700.21909 -17668266.55009      -412.46809        50.37509  21515703.40609
 -13532905.84509      -321.40409        53.31209
  21623722.15609 -17449246.65809     -1823.98209        52.81209  21623725.28109
 -13362486.52109     -1421.28509        54.37509
  24577338.40607   -805808.77407     -2566.84307        36.81207  24577344.90607
   -387524.91807     -2000.13807        39.43807
  21767882.37509 -18434309.83609     -2390.92809        50.75009  21767886.00009
 -14130610.93809     -1863.06109        53.62509
  23751764.46907  -7139952.16307      3023.10507        38.68807  23751769.43808
  -5329502.06408      2355.66708        43.06208
  24971710.81207    186935.83407      2945.77407        39.50007  24971719.75008
    379488.01708      2295.40808        42.62508
  20204260.84409 -25994551.28209      -324.94609        54.93809  20204263.21909
 -20020868.70209      -253.20509        58.81209
 25  3  7  0 21  0.0000000  0  9G01G02G08G10G23G27G28G31G32
  24133554.03107  -3755304.38607      3189.51907        37.68807  24133556.40608
  -2691844.94108      2485.34008        40.75008
  22563228.81208 -11629435.37908      3332.35108        42.87508  22563228.96908
  -8822344.22608      2596.63708        45.31208
  21518110.21909 -17655601.13309      -431.91409        50.12509  21518113.78109
 -13523036.73609      -336.55609        53.43809
  21634146.90609 -17394465.55409     -1828.19309        52.75009  21634150.06209
 -13319800.01209     -1424.56609        54.56209
  24591990.59407   -728817.00007     -2565.92007        37.25007  24591995.96907
   -327531.53107     -1999.41807        39.18807
  21781570.46909 -18362380.87709     -2404.33609        50.56209  21781573.81209
 -14074562.49409     -1873.50909        53.56209
  23734516.34408  -7230594.58908      3019.60908        40.31208  23734518.90608
  -5400132.44008      2352.94208        41.62508
  24954882.43808     98503.76808      2949.72908        40.68808  24954891.43808
    310580.17208      2298.49008        44.75008
  20206171.71909 -25984511.84409      -344.30409        54.87509  20206173.46909
 -20013045.78009      -268.28909        58.68809
 25  3  7  0 21 30.0000000  0  9G01G02G08G10G23G27G28G31G32
  24115345.50007  -3850992.60107      3189.38507        37.81207  24115348.06208
  -2766407.14508      2485.23508        41.37508
  22544222.59408 -11729316.28108      3326.47208        43.06208  22544221.96908
  -8900173.47408      2592.05608        45.00008
  21520631.28109 -17642353.64809      -451.26709        50.06209  21520634.93809
 -13512714.04209      -351.63709        53.43809
  21644595.68809 -17339556.92909     -1832.48309        52.50009  21644598.81209
 -13277014.12609     -1427.90909        54.50009
  24606637.37507   -651846.15307     -2565.43007        37.18807  24606643.81208
   -267554.48208     -1999.03608        40.18808
  21795333.93809 -18290052.80109     -2417.65609        50.25009  21795337.21909
 -14018203.04409     -1883.88809        53.25009
  23717286.46907  -7321136.20507      3016.25207        39.81207  23717289.56208
  -5470684.25008      2350.32708        41.31208
  24938032.15608      9954.60408      2953.54508        42.43808  24938040.62508
    241581.07708      2301.46408        44.43808
  20208192.18809 -25973892.81809      -363.64309        54.56209  20208194.28109
 -20004771.22609      -283.35809        58.75009
 25  3  7  0 22  0.0000000  0  9G01G02G08G10G23G27G28G31G32
  24097137.59407  -3946675.35407      3189.41207        38.06207  24097139.59408
  -2840965.12308      2485.25608        41.31208
  22525250.15608 -11829018.01308      3320.53708        43.37508  22525249.06208
  -8977863.12608      2587.43108        45.00008
  21523263.21909 -17628524.83109      -470.40809        50.50009  21523266.50009
 -13501938.37909      -366.55109        53.62509
  21655068.75009 -17284521.23709     -1836.57009        52.62509  21655071.81209
 -13234129.24409     -1431.09309        54.50009
  24621281.12507   -574896.14507     -2564.73107        36.93807  24621287.68808
   -207593.65308     -1998.49208        40.68808
  21809172.93809 -18217328.22409     -2430.51309        50.43809  21809176.31209
 -13961534.63309     -1893.90609        53.37509
  23700075.81207  -7411573.69907      3012.88607        38.87507  23700080.62508
  -5541154.92008      2347.70308        43.12508
  24921159.84408    -78708.98808      2957.45408        41.06208  24921167.09408
    172492.81008      2304.50908        41.87508
  20210323.00009 -25962695.14209      -382.68109        54.87509  20210325.21909
 -19996045.78409      -298.19309        58.81209
 25  3  7  0 22 30.0000000  0  9G01G02G08G10G23G27G28G31G32
  24078931.21907  -4042351.15307      3189.07507        38.25007  24078933.71908
  -2915517.64608      2484.99308        41.81208
  22506311.81208 -11928537.81308      3314.25308        42.93808  22506311.65608
  -9055411.00308      2582.53508        45.43808
  21526004.96909 -17614115.63009      -490.00709        50.25009  21526008.25009
 -13490710.46609      -381.82409        53.43809
  21665565.62509 -17229359.15909     -1840.99909        52.25009  21665568.62509
 -13191145.85709     -1434.54409        54.12509
  24635920.03107   -497966.94607     -2563.92107        37.18807  24635926.93808
   -147649.02808     -1997.86008        40.25008
  21823086.96909 -18144209.93809     -2443.81309        50.06209  21823090.53109
 -13904559.42809     -1904.27009        53.25009
  23682885.68807  -7501904.01707      3009.17207        38.31207  23682891.81208
  -5611541.99308      2344.81008        43.75008
  24904265.93808   -167484.54408      2960.99908        40.68808  24904273.81208
    103317.31108      2307.27108        41.87508
  20212564.09409 -25950919.92409      -402.10909        54.81209  20212565.90609
 -19986870.29609      -313.33209        58.75009
 25  3  7  0 23  0.0000000  0  9G01G02G08G10G23G27G28G31G32
  24060726.09407  -4138018.33407      3188.66907        38.12507  24060728.12508
  -2990063.50108      2484.67708        41.18808
  22487408.46908 -12027873.13808      3308.10808        42.43808  22487408.18808
  -9132815.12108      2577.74608        44.93808
  21528857.12509 -17599126.95709      -509.29909        50.12509  21528860.59409
 -13479031.02409      -396.85709        53.18809
  21676086.96909 -17174071.30909     -1845.00509        52.50009  21676089.78109
 -13148064.46909     -1437.66609        54.06209
  24650556.03107   -421058.42307     -2563.46407        37.06207  24650562.03108
    -87720.53408     -1997.50508        40.31208
  21837075.28108 -18070700.77008     -2456.79008        49.93808  21837079.06209
 -13847279.65509     -1914.38109        53.12509
  23665718.93807  -7592123.87107      3005.51507        39.81207  23665722.90608
  -5681843.03208      2341.96008        43.12508
  24887351.21908   -256369.80308      2964.80008        40.37508  24887360.00008
     34056.35808      2310.23408        43.81208
  20214914.43809 -25938568.26309      -421.28409        54.68809  20214916.31209
 -19977245.64209      -328.27309        58.56209
 25  3  7  0 23 30.0000000  0  9G01G02G08G10G23G27G28G31G32
  24042523.21907  -4233675.63307      3188.57207        38.50007  24042525.53108
  -3064601.63108      2484.60108        42.00008
  22468541.71908 -12127021.25708      3302.00408        43.12508  22468541.56208
  -9210073.37008      2572.99008        45.37508
  21531820.03109 -17583559.98509      -528.40809        50.50009  21531823.09409
 -13466900.96709      -411.74709        53.37509
  21686631.87509 -17118658.52509     -1849.09909        52.81209  21686634.65609
 -13104885.73309     -1440.85609        54.31209
  24665186.96907   -344170.80707     -2562.10407        37.00007  24665193.46907
    -27808.29507     -1996.44507        39.75007
  21851137.50008 -17996803.70308     -2469.48208        49.93808  21851141.56209
 -13789697.62009     -1924.27209        53.25009
  23648572.06208  -7682230.36608      3001.99708        40.37508  23648575.68808
  -5752055.75608      2339.21908        42.31208
  24870416.00008   -345362.35608      2968.10808        41.00008  24870424.93808
    -35288.20208      2312.81108        43.87508
  20217374.50009 -25925641.48409      -440.39309        54.87509  20217376.43809
 -19967172.83809      -343.16309        58.68809
 25  3  7  0 24  0.0000000  0  9G01G02G08G10G23G27G28G31G32
  24024322.09407  -4329321.44707      3188.28607        38.62507  24024324.53108
  -3139130.80708      2484.37908        41.56208
  22449710.84408 -12225979.84908      3295.47108        43.31208  22449709.78108
  -9287183.94008      2567.90008        45.31208
  21534891.68809 -17567415.77409      -547.61509        50.25009  21534895.43809
 -13454321.10509      -426.71309        53.43809
  21697200.06209 -17063121.51409     -1853.23209        52.87509  21697203.06209
 -13061610.20809     -1444.07709        54.43809
  24679814.03107   -267304.09907     -2561.72107        36.18807  24679820.81207
     32087.57007     -1996.14607        39.87507
  21865272.68808 -17922521.63108     -2482.43408        49.81208  21865276.87509
 -13731815.59909     -1934.36409        53.31209
  23631447.12507  -7772220.44007      2997.80007        39.81207  23631450.59408
  -5822177.79408      2335.94808        42.12508
  24853461.84408   -434459.90408      2971.85308        41.50008  24853470.03108
   -104714.52908      2315.73008        44.75008
  20219943.37509 -25912140.83309      -459.49009        54.68809  20219945.18809
 -19956652.86709      -358.04409        58.68809
 25  3  7  0 24 30.0000000  0  9G01G02G08G10G23G27G28G31G32
  24006124.71907  -4424954.14607      3187.48507        38.68807  24006126.68808
  -3213649.79808      2483.75508        41.31208
  22430916.18808 -12324746.03808      3289.10608        43.06208  22430915.12508
  -9364144.56708      2562.94008        44.93808
  21538073.62509 -17550695.32509      -566.98709        50.31209  21538077.03109
 -13441292.22309      -441.80809        53.25009
  21707791.71909 -17007460.87009     -1857.50009        52.75009  21707794.65609
 -13018238.34009     -1447.40309        54.06209
  24694437.31207   -190458.22807     -2561.21307        36.00007  24694445.68808
     91967.26008     -1995.75108        41.12508
  21879481.34408 -17847857.40808     -2495.10008        49.81208  21879485.09409
 -13673635.77909     -1944.23409        53.06209
  23614344.65607  -7862090.97107      2993.53507        39.43807  23614349.81208
  -5892206.66308      2332.62508        42.93808
  24836487.87508   -523659.94908      2975.06608        41.93808  24836494.59408
   -174220.75108      2318.23308        42.68808
  20222621.12509 -25898067.48809      -478.65209        54.62509  20222623.37509
 -19945686.63109      -372.97609        58.56209
 25  3  7  0 25  0.0000000  0  9G01G02G08G10G23G27G28G31G32
  23987929.78107  -4520572.08807      3186.82907        39.37507  23987931.40608
  -3288157.28008      2483.24308        41.68808
  22412157.62508 -12423317.13008      3282.45108        42.81208  22412157.68808
  -9440953.19108      2557.75408        45.25008
  21541364.87509 -17533399.66309      -586.02509        50.50009  21541368.37509
 -13427815.12909      -456.64309        53.25009
  21718407.09409 -16951677.16309     -1861.50909        52.68809  21718410.03109
 -12974770.57609     -1450.52609        54.00009
  24709057.25007   -113633.10707     -2560.51507        36.68807  24709064.59408
    151830.75708     -1995.20708        41.12508
  21893761.75009 -17772813.79609     -2507.75609        50.12509  21893765.46909
 -13615160.34009     -1954.09609        53.06209
  23597266.25007  -7951838.76307      2989.44607        39.87507  23597271.50008
  -5962139.83708      2329.43808        43.56208
  24819494.15608   -612959.61808      2978.29608        42.25008  24819501.28108
   -243804.62708      2320.75008        43.56208
  20225408.34409 -25883422.58009      -497.50709        54.87509  20225410.31209
 -19934275.02609      -387.66809        58.50009
 25  3  7  0 25 30.0000000  0  9G01G02G08G10G23G27G28G31G32
  23969736.18807  -4616173.91707      3186.39207        38.50007  23969738.78108
  -3362652.16208      2482.90308        41.68808
  22393437.93808 -12521690.55308      3275.68408        42.81208  22393438.40608
  -9517607.77108      2552.48108        46.12508
  21544765.28108 -17515530.04208      -605.25908        50.00008  21544768.78109
 -13413890.79009      -471.63009        53.25009
  21729045.46909 -16895771.19309     -1865.60109        52.25009  21729048.93809
 -12931207.54709     -1453.71509        54.12509
  24723671.93807    -36828.81307     -2559.82407        36.06207  24723680.12508
    211678.03408     -1994.66808        40.31208
  21908113.37508 -17697393.89108     -2520.37608        49.50008  21908117.50009
 -13556391.68309     -1963.92909        53.06209
  23580212.21908  -8041460.77708      2985.05108        40.56208  23580216.50008
  -6031975.02708      2326.01408        43.62508
  24802481.75008   -702357.04608      2981.30108        40.25008  24802489.50008
   -313464.64708      2323.09208        43.25008
  20228303.78109 -25868207.53609      -516.65509        54.56209  20228305.65609
 -19922419.15509      -402.58909        58.62509
 25  3  7  0 26  0.0000000  0  9G01G02G08G10G23G27G28G31G32
  23951547.40607  -4711757.83407      3186.11807        39.00007  23951549.59408
  -3437133.11208      2482.68908        41.43808
  22374756.78108 -12619863.36308      3269.33308        43.31208  22374756.90608
  -9594106.01308      2547.53308        45.93808
  21548274.87509 -17497087.44909      -624.16709        50.18809  21548278.59409
 -13399519.98609      -486.36409        53.31209
  21739707.18809 -16839743.44409     -1869.48009        52.37509  21739710.53109
 -12887549.62909     -1456.73809        53.87509
  24738284.84407     39954.76207     -2558.91107        36.50007  24738291.31208
    271509.16308     -1993.95708        40.06208
  21922536.68808 -17621600.43308     -2532.49808        49.62508  21922540.59409
 -13497331.94709     -1973.37509        53.06209
  23563182.15608  -8130953.82108      2980.87408        40.25008  23563185.96908
  -6101709.74208      2322.75908        43.25008
  24785451.09408   -791849.56008      2984.77508        40.43808  24785458.96908
   -383198.71808      2325.79908        43.93808
  20231307.21909 -25852423.51509      -535.40309        54.68809  20231309.40609
 -19910119.93709      -417.19709        58.62509
 25  3  7  0 26 30.0000000  0  9G01G02G08G10G23G27G28G31G32
  23933362.06207  -4807322.36307      3185.22207        38.81207  23933364.37508
  -3511598.95608      2481.99108        41.31208
  22356114.34408 -12717833.15608      3262.31908        43.56208  22356113.09408
  -9670446.07708      2542.06708        45.43808
  21551893.34409 -17478073.24809      -643.23209        50.50009  21551896.78109
 -13384703.77209      -501.22009        53.18809
  21750392.15609 -16783594.72309     -1873.64309        52.75009  21750395.09409
 -12843797.42909     -1459.98109        53.56209
  24752892.18807    116717.50707     -2558.47207        38.00007  24752899.03107
    331324.08107     -1993.61407        39.87507
  21937030.34408 -17545436.47008     -2545.03208        49.87508  21937034.53109
 -13437983.51909     -1983.14209        53.00009
  23546176.34408  -8220314.93708      2976.65008        40.12508  23546180.81208
  -6171341.62608      2319.46808        42.75008
  24768404.81208   -881434.83208      2987.55108        42.87508  24768411.71908
   -453005.13408      2327.96208        43.93808
  20234418.93809 -25836071.96909      -554.51209        54.87509  20234420.90609
 -19897378.47909      -432.08709        58.37509
 25  3  7  0 27  0.0000000  0  9G01G02G08G10G23G27G28G31G32
  23915180.75007  -4902865.75107      3184.32407        39.00007  23915182.50008
  -3586048.33208      2481.29108        41.06208
  22337510.68808 -12815596.78608      3255.22008        43.87508  22337509.00008
  -9746625.48008      2536.53508        45.50008
  21555620.25009 -17458488.42109      -662.45609        50.37509  21555623.93809
 -13369442.91609      -516.20009        53.37509
  21761099.90609 -16727325.43809     -1877.81009        52.75009  21761102.84409
 -12799951.29009     -1463.22909        53.81209
  24767496.62507    193459.68407     -2558.01007        37.12507  24767503.46908
    391122.92508     -1993.25508        40.18808
  21951593.93808 -17468904.83708     -2557.19208        49.81208  21951598.00009
 -13378348.57509     -1992.61709        53.18809
  23529197.62508  -8309540.83708      2971.88708        40.31208  23529201.75008
  -6240868.15508      2315.75608        43.12508
  24751339.56208   -971110.17908      2990.40008        42.56208  24751347.21908
   -522881.72908      2330.18208        44.81208
  20237638.31209 -25819154.07609      -573.45009        54.81209  20237640.34409
 -19884195.72109      -446.84409        58.62509
 25  3  7  0 27 30.0000000  0  9G01G02G08G10G23G27G28G31G32
  23897003.62507  -4998386.72707      3183.78407        39.00007  23897005.84408
  -3660480.22108      2480.87108        41.87508
  22318945.65608 -12913151.92208      3248.50608        43.68808  22318944.84408
  -9822642.43708      2531.30308        45.56208
  21559455.50009 -17438334.44209      -681.05209        50.31209  21559459.00009
 -13353738.55009      -530.69009        53.25009
  21771830.75009 -16670936.53009     -1881.57509        52.62509  21771833.87509
 -12756011.93809     -1466.16209        53.93809
  24782094.71907    270180.93707     -2556.76007        35.81207  24782102.53107
    450905.49507     -1992.28107        38.18807
  21966227.00008 -17392008.68908     -2569.08008        49.68808  21966230.84409
 -13318429.60409     -2001.88009        52.93809
  23512245.03108  -8398628.66108      2967.35408        40.56208  23512249.28108
  -6310287.09908      2312.22408        43.68808
  24734257.93808  -1060873.23008      2993.49108        42.18808  24734264.71908
   -592826.70008      2332.59108        42.87508
  20240965.37509 -25801671.45709      -592.06309        54.75009  20240967.18809
 -19870572.90609      -461.34809        58.43809
 25  3  7  0 28  0.0000000  0  9G01G02G08G10G23G27G28G31G32
  23878831.59407  -5093883.19807      3182.78607        39.68807  23878833.68808
  -3734893.01108      2480.09308        42.62508
  22300422.12508 -13010495.32808      3241.22308        43.93808  22300421.62508
  -9898494.39808      2525.62808        46.06208
  21563399.00009 -17417612.23309      -700.24409        50.37509  21563402.34409
 -13337591.41609      -545.64509        53.31209
  21782583.50009 -16614428.20809     -1885.65909        52.37509  21782587.25009
 -12711979.53009     -1469.34509        54.12509
  24796692.25007    346881.79007     -2556.59407        36.06207  24796699.00007
    510672.18507     -1992.15107        39.31207
  21980928.65608 -17314750.58608     -2581.37008        49.62508  21980932.65609
 -13258228.59509     -2011.45709        52.93809
  23495319.28108  -8487574.89708      2962.44608        41.00008  23495323.00008
  -6379595.70908      2308.40008        44.00008
  24717160.56208  -1150721.10208      2996.32808        42.37508  24717167.46908
   -662837.73508      2334.80108        44.06208
  20244399.34409 -25783625.07009      -610.95009        54.75009  20244401.31209
 -19856510.79909      -476.06509        58.62509
 25  3  7  0 28 30.0000000  0  9G01G02G08G10G23G27G28G31G32
  23860663.75007  -5189353.81607      3182.02907        39.81207  23860666.40608
  -3809285.66308      2479.50308        42.75008
  22281938.93808 -13107624.81708      3234.08208        43.93808  22281938.43808
  -9974179.69008      2520.06408        45.93808
  21567449.93809 -17396323.31609      -719.01109        50.37509  21567453.65609
 -13321002.70309      -560.26809        53.18809
  21793359.21909 -16557801.33409     -1889.55809        52.37509  21793362.84409
 -12667854.74709     -1472.38309        53.81209
  24811282.50007    423562.03107     -2555.87207        35.56207  24811290.06207
    570422.78907     -1991.58807        38.37507
  21995698.93808 -17237133.79708     -2593.09108        49.87508  21995702.65609
 -13197748.09109     -2020.59009        52.87509
  23478419.93808  -8576376.73708      2957.79108        40.75008  23478424.40608
  -6448791.79908      2304.77208        43.81208
  24700046.31208  -1240651.78508      2999.08908        41.18808  24700053.90608
   -732913.31108      2336.95308        44.87508
  20247940.28109 -25765016.60209      -629.60909        54.81209  20247942.25009
 -19842010.71309      -490.60509        58.31209
 25  3  7  0 29  0.0000000  0  9G01G02G08G10G23G27G28G31G32
  23842501.06207  -5284796.75707      3181.04707        38.87507  23842503.53108
  -3883656.75208      2478.73808        42.06208
  22263497.12508 -13204537.41008      3226.87708        44.00008  22263496.40608
 -10049695.94708      2514.45008        46.00008
  21571608.62509 -17374468.78209      -737.79309        50.06209  21571612.46909
 -13303973.23309      -574.90409        53.18809
  21804157.75009 -16501056.31709     -1893.42809        52.18809  21804160.90609
 -12623637.89909     -1475.39809        53.56209
  24825872.15607    500221.78407     -2554.80707        36.37507  24825878.56207
    630157.48707     -1990.75907        39.56207
  22010537.00008 -17159161.07208     -2605.00708        50.00008  22010540.71909
 -13136990.23909     -2029.87609        52.87509
  23461550.18808  -8665030.84408      2952.65408        40.62508  23461553.96908
  -6517872.76608      2300.76908        43.43808
  24682918.56208  -1330662.49108      3001.55808        43.75008  24682925.12508
   -803051.26508      2338.87608        44.93808
  20251587.93809 -25745847.26109      -648.25409        54.68809  20251590.18809
 -19827073.57509      -505.13309        58.43809
 25  3  7  0 29 30.0000000  0  9G01G02G08G10G23G27G28G31G32
  23824345.53107  -5380210.56007      3180.03707        39.68807  23824347.06208
  -3958005.11508      2477.95108        42.50008
  22245096.78108 -13301230.46408      3219.58008        44.06208  22245095.65608
 -10125041.16208      2508.76408        45.62508
  21575874.56208 -17352050.06008      -756.60408        49.93808  21575878.53109
 -13286504.14609      -589.56209        53.12509
  21814978.21909 -16444193.89909     -1897.21709        52.00009  21814981.56209
 -12579329.58209     -1478.35109        53.25009
  24840454.81207    576861.13907     -2554.45107        35.18807  24840461.71907
    689876.23407     -1990.48107        38.00007
  22025441.71908 -17080835.56208     -2616.62408        49.81208  22025445.50009
 -13075957.48509     -2038.92709        52.93809
  23444708.06208  -8753534.22508      2947.64208        40.50008  23444711.71908
  -6586836.30108      2296.86408        43.25008
  24665774.90608  -1420750.79008      3004.33808        42.12508  24665781.00008
   -873249.67508      2341.04308        43.31208
  20255342.31209 -25726118.63509      -666.76009        54.75009  20255344.34409
 -19811700.63609      -519.55309        58.43809
 25  3  7  0 30  0.0000000  0  9G01G02G08G10G23G27G28G31G32
  23806193.65607  -5475593.55307      3179.00107        39.12507  23806196.81208
  -4032329.52008      2477.14408        42.62508
  22226738.71908 -13397701.30208      3212.11408        44.25008  22226738.03108
 -10200213.23008      2502.94608        45.81208
  21580248.00009 -17329068.60709      -775.26409        50.06209  21580251.71909
 -13268596.56309      -604.10209        53.00009
  21825821.09409 -16387214.68109     -1901.07909        52.18809  21825824.28109
 -12534930.25609     -1481.36009        53.12509
  24855036.62507    653479.89507     -2553.49907        38.00007  24855042.84407
    749578.93207     -1989.73907        38.50007
  22040413.18808 -17002160.26308     -2628.13208        49.68808  22040417.31209
 -13014652.17009     -2047.89509        52.68809
  23427895.78108  -8841883.81208      2942.55408        40.87508  23427899.18808
  -6655679.97708      2292.89908        43.31208
  24648617.15608  -1510914.22908      3006.69908        42.25008  24648623.15608
   -943506.66508      2342.88308        43.43808
  20259202.71909 -25705832.18909      -685.43209        54.81209  20259204.81209
 -19795893.02709      -534.10309        58.37509
 25  3  7  0 30 30.0000000  0  9G01G02G08G10G23G27G28G31G32
  23788049.00007  -5570943.99107      3177.53907        39.50007  23788052.12508
  -4106628.51208      2476.00408        42.62508
  22208423.65608 -13493947.06308      3204.38708        43.87508  22208423.46908
 -10275209.88508      2496.92508        46.00008
  21584728.18809 -17305525.72409      -794.19709        50.06209  21584731.81209
 -13250251.49909      -618.85509        53.00009
  21836686.15609 -16330119.22109     -1905.20009        52.18809  21836689.43809
 -12490440.34409     -1484.57209        53.37509
  24869612.25007    730078.30207     -2552.92707        36.18807  24869619.21907
    809265.79307     -1989.29407        39.06207
  22055450.65608 -16923138.11308     -2639.91708        49.68808  22055454.28109
 -12953076.57309     -2057.07809        52.56209
  23411113.06208  -8930076.39208      2936.84808        40.93808  23411117.03108
  -6724401.33808      2288.45308        43.87508
  24631444.68808  -1601150.22508      3008.81308        42.18808  24631452.65608
  -1013820.23508      2344.53008        44.18808
  20263169.03109 -25684989.38109      -704.04309        55.00009  20263170.96909
 -19779651.88409      -548.60509        58.43809
 25  3  7  0 31  0.0000000  0  9G01G02G08G10G23G27G28G31G32
  23769911.65607  -5666260.18407      3176.70407        39.50007  23769913.46908
  -4180900.84408      2475.35408        42.50008
  22190152.43808 -13589964.94408      3196.76508        44.25008  22190152.03108
 -10350028.99708      2490.98608        46.25008
  21589314.71908 -17281422.75608      -812.78308        50.00008  21589318.40609
 -13231470.02009      -633.33809        53.06209
  21847573.12509 -16272908.06709     -1908.93109        51.93809  21847576.28109
 -12445860.28509     -1487.47809        53.50009
  24884185.06207    806656.38207     -2552.03907        35.06207  24884193.09407
    868936.78707     -1988.60107        39.31207
  22070553.46908 -16843772.13308     -2651.23008        49.50008  22070557.46909
 -12891233.08609     -2065.89409        52.75009
  23394361.34408  -9018108.88108      2931.53608        41.12508  23394365.18808
  -6792997.93308      2284.31308        44.25008
  24614260.34408  -1691456.08708      3011.21108        42.00008  24614266.40608
  -1084188.21108      2346.39808        42.87508
  20267241.06209 -25663591.68209      -722.48309        54.93809  20267242.81209
 -19762978.37309      -562.97409        58.43809
 25  3  7  0 31 30.0000000  0  9G01G02G08G10G23G27G28G31G32
  23751780.46907  -5761540.53707      3175.49607        39.75007  23751782.21908
  -4255145.20908      2474.41208        42.56208
  22171925.00008 -13685752.23508      3189.07508        44.37508  22171924.59408
 -10424668.41508      2484.99308        46.25008
  21594007.78109 -17256761.16609      -831.35509        50.12509  21594011.28109
 -13212253.24409      -647.80909        52.81209
  21858481.87509 -16215581.77509     -1912.77309        51.81209  21858485.25009
 -12401190.49909     -1490.47309        53.50009
  24898753.06207    883214.20207     -2551.67507        34.56207  24898760.87507
    928592.00807     -1988.31807        37.37507
  22085721.28108 -16764065.36608     -2662.54608        49.43808  22085725.81209
 -12829124.03409     -2074.71109        52.75009
  23377640.06208  -9105978.17908      2926.24008        40.81208  23377643.96908
  -6861467.34808      2280.18708        44.18808
  24597061.96908  -1781829.62108      3013.57208        41.68808  24597068.87508
  -1154608.92108      2348.23808        43.87508
  20271418.03109 -25641640.62209      -740.86409        54.81209  20271420.18809
 -19745873.66009      -577.29709        58.37509
 25  3  7  0 32  0.0000000  0  9G01G02G08G10G23G27G28G31G32
  23733656.25007  -5856783.15907      3174.03807        39.31207  23733658.46908
  -4329360.24308      2473.27608        42.62508
  22153741.65608 -13781305.77908      3181.22608        44.31208  22153740.96908
 -10499125.70508      2478.87708        45.93808
  21598807.09408 -17231542.31708      -849.92908        49.87508  21598810.15609
 -13192602.22709      -662.28209        52.68809
  21869412.90609 -16158140.82609     -1916.58709        51.87509  21869416.00009
 -12356431.37509     -1493.44409        53.37509
  24913317.78107    959751.92707     -2550.76207        34.62507  24913324.90607
    988231.52007     -1987.60707        38.12507
  22100953.37508 -16684020.72008     -2673.82808        49.18808  22100957.46909
 -12766751.70309     -2083.50209        52.43809
  23360951.09408  -9193681.03908      2920.75008        40.75008  23360954.21908
  -6929807.08108      2275.90908        43.62508
  24579852.62508  -1872268.03008      3015.68408        42.12508  24579859.81208
  -1225080.10108      2349.88308        45.50008
  20275700.15609 -25619137.63109      -759.35309        54.68809  20275702.12509
 -19728338.87709      -591.70409        58.18809
 25  3  7  0 32 30.0000000  0  9G01G02G08G10G23G27G28G31G32
  23715539.37507  -5951986.63607      3172.74407        39.25007  23715540.96908
  -4403544.70508      2472.26808        42.75008
  22135603.21908 -13876623.66808      3173.15408        44.25008  22135602.15608
 -10573399.37508      2472.58808        46.12508
  21603711.62508 -17205767.92808      -868.45008        49.87508  21603715.12509
 -13172518.34409      -676.71409        52.93809
  21880364.93809 -16100586.00809     -1920.42209        51.87509  21880368.21909
 -12311583.51609     -1496.43309        53.37509
  24927879.68807   1036269.45507     -2550.37807        35.00007  24927886.62507
   1047855.27007     -1987.30807        38.75007
  22116249.18808 -16603641.45208     -2684.98808        49.12508  22116253.00009
 -12704118.63409     -2092.19809        52.31209
  23344293.71908  -9281214.54708      2914.89008        41.12508  23344296.71908
  -6998014.88208      2271.34308        43.50008
  24562631.34408  -1962768.82708      3017.58508        44.31208  24562637.15608
  -1295599.95708      2351.36508        44.75008
  20280087.06209 -25596084.51409      -777.69309        54.81209  20280089.15609
 -19710375.42309      -605.99409        58.43809
 25  3  7  0 33  0.0000000  0  9G01G02G08G10G23G27G28G31G32
  23697430.21907  -6047148.91607      3171.27207        39.25007  23697431.90608
  -4477697.12508      2471.12108        42.68808
  22117510.53108 -13971701.99608      3165.42508        44.50008  22117509.78108
 -10647486.35708      2466.56508        46.62508
  21608721.59408 -17179439.20408      -886.82908        49.81208  21608725.43809
 -13152002.50909      -691.03509        53.18809
  21891338.75009 -16042917.55809     -1924.13109        51.56209  21891342.53109
 -12266647.12709     -1499.32309        53.81209
  24942436.53107   1112767.02707     -2549.46507        35.93807  24942442.59407
   1107463.56907     -1986.59607        38.00007
  22131607.93808 -16522930.34608     -2695.92808        49.12508  22131611.50009
 -12641226.98809     -2100.72309        52.12509
  23327669.12508  -9368575.30608      2908.96008        41.06208  23327672.59408
  -7066088.06508      2266.72208        43.81208
  24545397.09408  -2053329.37808      3019.52408        42.68808  24545403.03108
  -1366166.36808      2352.87608        43.81208
  20284578.56209 -25572482.54309      -795.86909        54.93809  20284580.31209
 -19691984.29409      -620.15809        58.50009
 25  3  7  0 33 30.0000000  0  9G01G02G08G10G23G27G28G31G32
  23679329.75007  -6142268.47107      3169.74407        38.87507  23679332.40608
  -4551816.21008      2469.93008        43.25008
  22099463.65608 -14066538.58508      3157.16308        44.87508  22099462.68808
 -10721384.95008      2460.12708        46.50008
  21613837.43808 -17152557.83208      -905.37608        49.87508  21613840.93809
 -13131056.02109      -705.48809        53.12509
  21902334.62509 -15985136.23309     -1927.95209        51.75009  21902338.12509
 -12221622.78409     -1502.30009        53.62509
  24956990.84407   1189244.63507     -2548.90607        37.00007  24956997.46907
   1167056.24007     -1986.16107        38.50007
  22147029.25008 -16441890.62408     -2706.89008        48.93808  22147033.09409
 -12578079.27109     -2109.26509        52.06209
  23311077.93808  -9455760.42008      2903.18408        40.81208  23311081.56208
  -7134024.36308      2262.22108        43.87508
  24528153.50008  -2143947.11108      3021.39908        42.06208  24528159.00008
  -1436777.28308      2354.33708        42.93808
  20289173.96909 -25548333.51009      -814.08909        54.81209  20289175.78109
 -19673166.88009      -634.35509        58.37509
 25  3  7  0 34  0.0000000  0  9G01G02G08G10G23G27G28G31G32
  23661238.40607  -6237343.40507      3168.38407        39.81207  23661240.09408
  -4625900.55108      2468.87108        42.93808
  22081463.50008 -14161130.71508      3149.15808        44.68808  22081462.09408
 -10795093.07808      2453.88908        46.37508
  21619057.50008 -17125125.36808      -923.52508        49.75008  21619061.12509
 -13109680.13109      -719.63009        53.06209
  21913351.71909 -15927242.37109     -1931.54309        51.62509  21913354.53109
 -12176510.74309     -1505.09809        53.25009
  24971538.18807   1265702.47707     -2547.80507        34.31207  24971548.18807
   1226633.59007     -1985.30307        38.87507
  22162512.78108 -16360525.17308     -2717.54908        48.87508  22162517.15609
 -12514677.73709     -2117.57109        52.18809
  23294521.03108  -9542766.56108      2897.35108        40.75008  23294524.71908
  -7201821.21508      2257.67608        43.87508
  24510898.93808  -2234619.58908      3023.55708        42.31208  24510904.50008
  -1507430.88308      2356.01908        42.81208
  20293873.25009 -25523638.86509      -832.19009        54.81209  20293875.18809
 -19653924.32209      -648.46009        58.18809
 25  3  7  0 34 30.0000000  0  9G01G02G08G10G23G27G28G31G32
  23643154.18807  -6332372.18607      3166.89007        39.00007  23643156.68808
  -4699948.92608      2467.70608        43.18808
  22063510.15608 -14255475.14208      3140.62008        44.81208  22063509.43808
 -10868608.17108      2447.23708        46.81208
  21624382.25008 -17097143.23808      -941.73808        49.68808  21624386.43809
 -13087875.91309      -733.82209        53.31209
  21924389.46909 -15869236.65109     -1935.30809        51.37509  21924392.75009
 -12131311.53909     -1508.03209        53.37509
  24986084.21907   1342140.51207     -2547.90507        35.12507  24986091.12507
   1286195.43207     -1985.38107        38.31207
  22178057.28108 -16278837.20708     -2728.18608        48.68808  22178062.25009
 -12451024.90209     -2125.85909        52.31209
  23277999.25008  -9629590.71908      2890.92308        41.12508  23278002.78108
  -7269476.27208      2252.66708        44.31208
  24493634.37508  -2325344.11508      3025.11708        43.75008  24493640.59408
  -1578125.00108      2357.23408        45.31208
  20298676.09409 -25498400.36709      -850.28809        55.00009  20298677.90609
 -19634257.96909      -662.56209        58.31209
 25  3  7  0 35  0.0000000  0  9G01G02G08G10G23G27G28G31G32
  23625080.03107  -6427352.88207      3165.53507        39.56207  23625082.59408
  -4773959.79608      2466.65008        43.43808
  22045604.18808 -14349569.33508      3132.38308        44.75008  22045603.65608
 -10941928.28508      2440.81808        46.68808
  21629811.21908 -17068613.06908      -959.90508        49.68808  21629815.40609
 -13065644.66609      -747.97809        53.25009
  21935449.00009 -15811119.48309     -1939.01909        51.62509  21935452.28109
 -12086025.49509     -1510.92409        53.62509
  25000628.34407   1418558.89907     -2546.67707        36.43807  25000636.00007
   1345742.00207     -1984.42407        39.56207
  22193662.87508 -16196829.66008     -2738.76008        48.56208  22193667.50009
 -12387123.05109     -2134.09909        52.18809
  23261512.28108  -9716229.72508      2885.04908        41.31208  23261515.62508
  -7336987.03108      2248.09008        44.12508
  24476360.40608  -2416117.97808      3026.54808        43.31208  24476366.40608
  -1648857.55408      2358.34908        45.75008
  20303581.90609 -25472619.55009      -868.28109        55.00009  20303583.78109
 -19614169.04809      -676.58309        58.25009
 25  3  7  0 35 30.0000000  0  9G01G02G08G10G23G27G28G31G32
  23607015.06207  -6522283.71707      3163.67207        39.50007  23607017.50008
  -4847931.84608      2465.19908        43.25008
  22027746.84408 -14443410.36708      3123.71608        45.18808  22027746.90608
 -11015051.13708      2434.06408        47.12508
  21635345.18808 -17039536.47508      -978.23208        50.00008  21635348.68809
 -13042987.62809      -762.25909        53.00009
  21946529.62509 -15752891.35909     -1942.81009        51.93809  21946533.03109
 -12040652.98409     -1513.87809        53.56209
  25015165.46907   1494957.77507     -2546.24307        35.62507  25015172.81207
   1405273.42507     -1984.08507        38.87507
  22209329.00008 -16114505.64008     -2749.32608        48.75008  22209333.53109
 -12322974.59009     -2142.33209        51.81209
  23245060.46908  -9802680.37608      2878.51608        41.37508  23245063.75008
  -7404351.05908      2242.99908        43.75008
  24459077.65608  -2506938.70608      3027.96908        42.81208  24459083.31208
  -1719626.57908      2359.45608        44.68808
  20308590.68809 -25446298.09309      -886.29209        55.12509  20308592.71909
 -19593658.83109      -690.61709        58.06209
 25  3  7  0 36  0.0000000  0  9G01G02G08G10G23G27G28G31G32
  23588960.37507  -6617162.92007      3162.08507        39.87507  23588961.90608
  -4921863.64808      2463.96208        43.12508
  22009938.40608 -14536995.44108      3115.39108        45.25008  22009938.12508
 -11087974.53408      2427.57708        47.12508
  21640981.18808 -17009915.05108      -996.33808        49.87508  21640985.37509
 -13019906.04709      -776.36709        53.06209
  21957630.87509 -15694552.75709     -1946.41109        51.62509  21957634.21909
 -11995194.38909     -1516.68409        53.18809
  25029699.62507   1571337.36407     -2545.76207        35.00007  25029708.28107
   1464789.78507     -1983.71007        39.50007
  22225054.50008 -16031868.18008     -2759.67308        48.87508  22225058.96909
 -12258581.88409     -2150.39509        51.93809
  23228645.90608  -9888939.58808      2872.31208        40.93808  23228649.53108
  -7471565.89908      2238.16508        44.00008
  24441786.43808  -2597803.81208      3029.58308        43.06208  24441791.03108
  -1790430.23808      2360.71408        43.56208
  20313701.90609 -25419437.61609      -904.20709        55.06209  20313704.09409
 -19572728.61409      -704.57709        58.18809
 25  3  7  0 36 30.0000000  0 10G01G02G03G08G10G23G27G28G31G32
  23570915.15607  -6711988.75307      3159.87307        39.56207  23570918.37508
  -4995753.87408      2462.23908        43.81208
  21992178.96908 -14630321.81008      3106.53808        45.06208  21992178.40608
 -11160696.35008      2420.67908        47.06208
  24934485.93807    954948.13207      2336.24507        39.12507  24934492.50008
    977430.51908      1820.45108        42.43808
  21646721.75008 -16979750.60408     -1014.49708        49.62508  21646725.53109
 -12996401.34209      -790.51709        52.93809
  21968753.15609 -15636104.28709     -1950.11009        51.75009  21968756.03109
 -11949650.18709     -1519.56609        52.43809
  25044230.56207   1647697.52507     -2545.19507        35.00007  25044239.90607
   1524291.02507     -1983.26907        38.68807
  22240838.90608 -15948920.51008     -2770.01008        48.56208  22240843.31209
 -12193947.46009     -2158.44909        52.00009
  23212268.65608  -9975004.30708      2865.72008        41.37508  23212271.87508
  -7538629.17908      2233.02908        44.25008
  24424486.78108  -2688710.62408      3030.99408        43.37508  24424492.15608
  -1861266.40508      2361.81308        43.31208
  20318915.78109 -25392039.96609      -922.16809        55.00009  20318917.65609
 -19551379.80709      -718.57209        58.06209
 25  3  7  0 37  0.0000000  0 10G01G02G03G08G10G23G27G28G31G32
  23552881.40608  -6806759.43708      3158.47908        40.12508  23552882.93808
  -5069601.06808      2461.15308        43.56208
  21974469.71908 -14723386.66608      3097.86608        45.37508  21974468.65608
 -11233214.38208      2413.92208        47.37508
  24921151.53107    884879.14207      2335.20507        39.68807  24921157.75008
    922831.39508      1819.64008        42.06208
  21652564.43808 -16949044.67208     -1032.47108        49.68808  21652568.46909
 -12972474.68609      -804.52309        53.12509
  21979896.37509 -15577546.29009     -1953.74309        51.87509  21979899.46909
 -11904020.65709     -1522.39709        52.62509
  25058757.71907   1724038.50607     -2544.87107        33.62507  25058765.75007
   1583777.29107     -1983.01607        38.62507
  22256681.96908 -15865665.57308     -2780.15908        48.56208  22256686.50009
 -12129073.61509     -2166.35709        52.25009
  23195928.50008 -10060871.26508      2859.02308        41.50008  23195932.12508
  -7605538.38908      2227.81108        44.62508
  24407179.87508  -2779656.20108      3032.15608        43.87508  24407185.87508
  -1932132.76108      2362.71908        44.81208
  20324231.25009 -25364106.71209      -940.02209        55.18809  20324233.28109
 -19529613.65809      -732.48509        58.37509
 25  3  7  0 37 30.0000000  0 10G01G02G03G08G10G23G27G28G31G32
  23534857.09407  -6901473.27907      3156.12307        39.68807  23534859.93808
  -5143404.03608      2459.31708        43.93808
  21956810.25008 -14816187.15908      3088.81108        45.12508  21956809.12508
 -11305526.41108      2406.86608        47.18808
  24907824.31207    814846.36007      2333.53007        39.31207  24907831.21908
    868260.50408      1818.33508        41.87508
  21658510.56208 -16917799.27708     -1050.63508        49.75008  21658514.12509
 -12948127.68509      -818.67609        52.93809
  21991060.34409 -15518879.57709     -1957.57809        51.50009  21991063.96909
 -11858306.40209     -1525.38509        53.12509
  25073282.65607   1800360.13707     -2543.92107        35.31207  25073290.84407
   1643248.46807     -1982.27607        39.18807
  22272582.81208 -15782106.73408     -2790.48308        48.62508  22272587.28109
 -12063962.97209     -2174.40309        52.12509
  23179626.50008 -10146537.62208      2851.96008        41.18808  23179630.00008
  -7672291.28008      2222.30708        44.43808
  24389865.90608  -2870638.55608      3033.19308        42.87508  24389872.59408
  -2003027.77908      2363.52708        46.31208
  20329648.56209 -25335639.88909      -957.91309        55.31209  20329650.21909
 -19507431.72409      -746.42509        58.37509
 25  3  7  0 38  0.0000000  0 10G01G02G03G08G10G23G27G28G31G32
  23516846.09408  -6996128.03708      3154.06508        40.81208  23516847.62508
  -5217160.92908      2457.71308        43.68808
  21939201.56208 -14908719.95208      3079.91208        45.31208  21939200.59408
 -11377629.85408      2399.93108        47.06208
  24894505.31208    744849.93908      2332.55608        40.18808  24894510.90608
    813717.96708      1817.57608        40.81208
  21664558.75008 -16886015.62008     -1068.35908        49.87508  21664562.50009
 -12923361.26309      -832.48809        52.81209
  22002245.43809 -15460104.09009     -1960.98909        51.93809  22002248.71909
 -11812507.37009     -1528.04309        53.31209
  25087802.21907   1876663.04407     -2542.82207        34.62507  25087810.03107
   1702705.14407     -1981.42007        39.00007
  22288541.03108 -15698246.62308     -2800.31208        48.68808  22288545.43809
 -11998617.56009     -2182.06209        52.06209
  23163363.37508 -10231999.75708      2845.09008        41.56208  23163366.53108
  -7738885.03708      2216.95408        44.00008
  24372545.65608  -2961654.80808      3034.41208        41.87508  24372552.96908
  -2073949.17108      2364.47708        46.43808
  20335166.87509 -25306640.69709      -975.49309        55.37509  20335168.68809
 -19484834.97809      -760.12509        58.18809
 25  3  7  0 38 30.0000000  0 10G01G02G03G08G10G23G27G28G31G32
  23498845.56208  -7090722.30208      3152.29508        40.56208  23498847.09408
  -5290870.73908      2456.33408        43.87508
  21921644.12508 -15000982.34808      3070.99108        44.68808  21921643.65608
 -11449522.59808      2392.98008        47.12508
  24881191.43807    674889.27807      2331.66307        39.56207  24881198.40608
    759203.23808      1816.88008        42.68808
  21670709.31208 -16853695.88008     -1086.00108        49.75008  21670712.81209
 -12898177.12009      -846.23409        52.68809
  22013450.56209 -15401220.64609     -1964.37309        51.68809  22013454.06209
 -11766624.22809     -1530.68009        53.18809
  25102317.93807   1952946.97007     -2541.81407        34.56207  25102327.00007
   1762146.99807     -1980.63407        39.25007
  22304555.87508 -15614088.73008     -2810.02208        48.43808  22304560.28109
 -11933040.12509     -2189.62709        52.06209
  23147139.96908 -10317254.97308      2838.52508        41.31208  23147142.90608
  -7805317.55708      2211.83808        44.06208
  24355221.50008  -3052702.34008      3035.52008        43.75008  24355225.96908
  -2144894.99108      2365.34008        44.68808
  20340786.00009 -25277111.34009      -993.00009        55.12509  20340787.81209
 -19461825.10409      -773.76709        57.93809
 25  3  7  0 39  0.0000000  0 10G01G02G03G08G10G23G27G28G31G32
  23480855.71908  -7185254.11908      3150.23408        40.12508  23480858.28108
  -5364531.81608      2454.72808        44.50008
  21904139.34408 -15092971.71408      3061.75008        44.81208  21904138.62508
 -11521202.56708      2385.78008        47.31208
  24867885.78108    604964.20008      2330.57908        40.12508  24867891.93808
    704716.26108      1816.03508        43.06208
  21676961.21908 -16820841.62608     -1104.02608        49.81208  21676964.78109
 -12872576.45109      -860.28009        52.93809
  22024675.81209 -15342229.62709     -1968.09109        51.31209  22024679.43809
 -11720657.25909     -1533.57709        53.31209
  25116831.50007   2029212.16607     -2541.53107        36.50007  25116839.65607
   1821574.24407     -1980.41407        37.81207
  22320626.96908 -15529636.04708     -2819.88508        48.25008  22320631.56209
 -11867232.96609     -2197.31309        52.18809
  23130956.71908 -10402299.95808      2831.59708        41.68808  23130959.78108
  -7871586.25108      2206.43908        44.68808
  24337889.09408  -3143778.46408      3036.41408        44.00008  24337893.50008
  -2215863.16508      2366.03708        43.37508
  20346505.87509 -25247053.43109     -1010.68609        55.12509  20346507.90609
 -19438403.37409      -787.54809        58.31209
 25  3  7  0 39 30.0000000  0 10G01G02G03G08G10G23G27G28G31G32
  23462879.46908  -7279721.56508      3148.08308        40.62508  23462881.15608
  -5438142.76108      2453.05208        43.43808
  21886686.81208 -15184685.29208      3052.62208        45.06208  21886686.31208
 -11592667.66508      2378.66708        47.12508
  24854585.71908    535074.44008      2329.15508        40.31208  24854592.50008
    650256.81808      1814.92608        43.06208
  21683314.84409 -16787454.67609     -1121.62109        50.12509  21683318.40609
 -12846560.69309      -873.99009        52.81209
  22035922.40609 -15283131.41109     -1971.73109        51.81209  22035925.62509
 -11674606.76209     -1536.41409        53.18809
  25131339.87507   2105458.79907     -2541.28207        32.87507  25131348.62507
   1880987.02607     -1980.21907        36.68807
  22336753.06208 -15444891.63308     -2829.57008        48.31208  22336758.15609
 -11801198.49609     -2204.86009        51.87509
  23114814.09408 -10487131.52608      2824.17708        42.18808  23114816.75008
  -7937688.68008      2200.65808        44.43808
  24320553.06208  -3234880.73908      3037.28008        43.68808  24320558.09408
  -2286851.69708      2366.71208        43.81208
  20352326.15609 -25216468.77009     -1028.15909        55.37509  20352327.90609
 -19414571.18609      -801.16309        57.87509
 25  3  7  0 40  0.0000000  0 10G01G02G03G08G10G23G27G28G31G32
  23444915.87508  -7374122.98608      3145.57608        40.81208  23444917.56208
  -5511702.27908      2451.09808        44.18808
  21869287.40608 -15276120.04108      3043.22508        44.81208  21869286.84408
 -11663915.48308      2371.34408        47.62508
  24841292.90608    465219.54908      2327.81708        40.25008  24841299.12508
    595824.50008      1813.88408        43.62508
  21689769.06208 -16753537.09508     -1139.33608        49.87508  21689772.84409
 -12820131.46609      -887.79409        53.25009
  22047188.25009 -15223926.70309     -1975.23209        51.68809  22047191.96909
 -11628473.28709     -1539.14209        53.56209
  25145847.15607   2181686.67207     -2540.31707        35.18807  25145854.34407
   1940385.20007     -1979.46807        36.25007
  22352934.28108 -15359858.85708     -2839.06508        48.06208  22352939.25009
 -11734939.32909     -2212.25809        52.00009
  23098711.50008 -10571746.82008      2817.03408        41.56208  23098714.50008
  -8003622.55808      2195.09108        44.62508
  24303211.25008  -3326006.43908      3037.83708        42.37508  24303217.96908
  -2357858.46208      2367.14608        46.81208
  20358245.96909 -25185359.35209     -1045.57409        55.18809  20358247.78109
 -19390330.10409      -814.73309        58.25009
 25  3  7  0 40 30.0000000  0 10G01G02G03G08G10G23G27G28G31G32
  23426964.06208  -7468456.42008      3143.49908        41.06208  23426966.21908
  -5585208.80808      2449.47908        43.62508
  21851941.34408 -15367273.17908      3033.77708        45.12508  21851940.90608
 -11734943.86608      2363.98208        47.31208
  24828005.34407    395399.33307      2326.69907        38.50007  24828013.21908
    541419.24708      1813.01208        43.37508
  21696323.93808 -16719090.51908     -1157.03408        49.87508  21696328.18809
 -12793290.04909      -901.58509        53.25009
  22058474.84409 -15164615.70909     -1978.73809        51.75009  22058478.34409
 -11582256.99209     -1541.87409        53.25009
  25160349.62507   2257896.30707     -2540.24907        34.06207  25160357.50007
   1999769.10407     -1979.41507        38.25007
  22369169.56208 -15274540.66708     -2848.75008        48.06208  22369174.78109
 -11668457.76009     -2219.80509        51.87509
  23082651.78108 -10656142.51408      2809.45608        42.00008  23082654.71908
  -8069385.32708      2189.18608        44.56208
  24285867.34408  -3417152.59008      3038.40808        43.56208  24285873.21908
  -2428881.13208      2367.59108        46.31208
  20364265.03109 -25153726.86509     -1062.99809        55.12509  20364267.21909
 -19365681.42709      -828.31009        57.93809
 25  3  7  0 41  0.0000000  0 10G01G02G03G08G10G23G27G28G31G32
  23409026.15608  -7562719.87408      3141.32308        40.31208  23409028.46908
  -5658660.81408      2447.78408        43.87508
  21834649.90608 -15458141.57908      3024.27508        45.31208  21834649.34408
 -11805750.35908      2356.57808        47.31208
  24814726.34407    325613.64007      2325.66207        39.75007  24814732.78108
    487040.89408      1812.20408        43.06208
  21702979.56208 -16684116.71908     -1174.43808        49.87508  21702983.56209
 -12766037.80309      -915.14709        53.06209
  22069781.68809 -15105198.76209     -1982.34109        51.43809  22069785.03109
 -11535958.12909     -1544.68209        52.75009
  25174847.25007   2334087.63007     -2539.22407        33.68807  25174856.75007
   2059138.81707     -1978.61607        37.25007
  22385459.18808 -15188940.11508     -2858.01808        47.93808  22385464.00009
 -11601756.16609     -2227.02709        51.50009
  23066634.25008 -10740315.40008      2802.09208        42.06208  23066636.90608
  -8134974.49608      2183.44808        44.37508
  24268519.46908  -3508317.01108      3039.09408        44.18808  24268524.56208
  -2499918.09808      2368.12508        45.12508
  20370384.21909 -25121573.01709     -1080.46109        55.31209  20370385.93809
 -19340626.49809      -841.91809        57.81209
 25  3  7  0 41 30.0000000  0 10G01G02G03G08G10G23G27G28G31G32
  23391102.68808  -7656911.53608      3138.31508        40.68808  23391104.50008
  -5732056.87808      2445.44108        44.06208
  21817412.43808 -15548722.66108      3014.55308        45.18808  21817412.15608
 -11876332.97508      2349.00208        47.43808
  24801453.15608    255862.07908      2324.50408        40.68808  24801460.00008
    432689.12708      1811.30208        43.68808
  21709734.68808 -16648617.72308     -1192.02408        49.81208  21709738.87509
 -12738376.31309      -928.85009        53.12509
  22081108.56209 -15045676.48109     -1985.81109        51.50009  22081112.03109
 -11489577.20309     -1547.38509        53.00009
  25189343.50007   2410260.88507     -2538.85707        35.06207  25189352.50007
   2118494.47307     -1978.33007        37.00007
  22401801.59408 -15103060.44908     -2867.18308        47.81208  22401806.68809
 -11534837.08909     -2234.16809        51.62509
  23050659.53108 -10824262.50408      2794.60408        42.18808  23050662.34408
  -8200387.72708      2177.61408        44.68808
  24251168.50008  -3599496.78108      3039.40408        43.68808  24251171.56208
  -2570967.06008      2368.36708        43.56208
  20376601.71909 -25088899.86709     -1097.74909        55.25009  20376603.25009
 -19315166.92409      -855.38909        57.75009
 25  3  7  0 42  0.0000000  0 10G01G02G03G08G10G23G27G28G31G32
  23373192.62508  -7751029.47408      3135.78408        41.12508  23373194.37508
  -5805395.47808      2443.46808        44.06208
  21800230.96908 -15639013.29308      3004.79008        45.43808  21800230.46908
 -11946689.27308      2341.39508        47.62508
  24788186.65608    186144.43008      2323.43808        40.75008  24788192.03108
    378363.76308      1810.47108        42.25008
  21716589.40608 -16612595.36808     -1209.36808        49.68808  21716593.75009
 -12710307.00909      -942.36409        53.25009
  22092455.03109 -14986049.14809     -1989.34609        51.25009  22092458.81209
 -11443114.39509     -1550.14009        53.25009
  25203835.00007   2486416.15407     -2538.25007        36.18807  25203843.03107
   2177836.10507     -1977.85707        37.06207
  22418196.84408 -15016904.73708     -2876.47208        47.68808  22418201.59409
 -11467702.90209     -2241.40709        51.50009
  23034728.12508 -10907980.58708      2786.70708        41.81208  23034731.46908
  -8265622.49908      2171.46008        45.00008
  24233814.65608  -3690688.80208      3039.95108        43.43808  24233819.78108
  -2642025.59108      2368.79308        44.68808
  20382917.43809 -25055709.14009     -1114.91909        55.06209  20382919.59409
 -19289304.03509      -868.76809        57.87509
 25  3  7  0 42 30.0000000  0 10G01G02G03G08G10G23G27G28G31G32
  23355296.65608  -7845071.84408      3133.54708        41.31208  23355298.46908
  -5878675.18508      2441.72508        44.00008
  21783105.12508 -15729010.48208      2995.12208        45.50008  21783104.56208
 -12016816.91008      2333.86108        47.68808
  24774925.12507    116460.34607      2322.31707        39.12507  24774932.43808
    324064.54308      1809.59808        44.00008
  21723543.25008 -16576051.62708     -1226.73308        49.68808  21723547.71909
 -12681831.43909      -955.89609        53.06209
  22103821.96909 -14926317.24609     -1992.70809        51.50009  22103825.59409
 -11396570.12209     -1552.75909        53.25009
  25218325.43807   2562553.64407     -2537.45107        35.62507  25218332.90607
   2237163.80007     -1977.23507        37.81207
  22434643.81208 -14930476.19708     -2885.43508        47.75008  22434648.50009
 -11400356.13509     -2248.39109        51.25009
  23018840.87508 -10991466.67208      2779.01608        41.75008  23018844.43808
  -8330676.48508      2165.46708        45.12508
  24216459.18808  -3781891.22408      3040.25608        43.12508  24216464.62508
  -2713092.16908      2369.03108        46.56208
  20389331.65609 -25022002.83609     -1131.99509        55.37509  20389333.46909
 -19263039.41209      -882.07409        57.75009
 25  3  7  0 43  0.0000000  0 10G01G02G03G08G10G23G27G28G31G32
  23337415.56208  -7939036.92708      3130.86708        41.00008  23337417.71908
  -5951894.69908      2439.63608        43.18808
  21766035.65608 -15818711.62808      2985.03408        45.68808  21766034.46908
 -12086713.86908      2326.00108        47.43808
  24761671.62507     46809.49407      2321.23507        38.81207  24761678.37508
    269791.25008      1808.75508        43.93808
  21730596.21908 -16538988.58708     -1244.04108        49.75008  21730600.46909
 -12652951.21809      -969.38209        52.81209
  22115208.03109 -14866481.27109     -1996.32809        51.00009  22115211.93809
 -11349944.74109     -1555.58009        53.00009
  25232807.53107   2638673.33907     -2537.63907        32.68807  25232818.40607
   2296477.61907     -1977.38107        39.56207
  22451142.03108 -14843778.09108     -2894.45308        47.75008  22451146.96909
 -11332799.29209     -2255.41809        51.25009
  23002999.15608 -11074717.64608      2770.91808        42.18808  23003002.31208
  -8395547.28608      2159.15708        45.31208
  24199102.00008  -3873101.13808      3040.44408        43.62508  24199107.59408
  -2784164.59808      2369.17708        46.18808
  20395843.78109 -24987782.93309     -1149.23309        55.43809  20395845.53109
 -19236374.57809      -895.50709        57.75009
 25  3  7  0 43 30.0000000  0 10G01G02G03G08G10G23G27G28G31G32
  23319549.87508  -8032922.68008      3128.09808        40.87508  23319551.75008
  -6025052.39308      2437.47908        43.93808
  21749022.31208 -15908113.75108      2974.93208        45.43808  21749021.90608
 -12156377.81508      2318.12908        47.87508
  24748423.68807    -22808.45507      2319.99307        39.50007  24748429.46908
    215543.60608      1807.78608        43.37508
  21737747.87508 -16501408.11308     -1261.36508        49.56208  21737751.59409
 -12623667.79309      -982.88209        52.81209
  22126613.96909 -14806541.59609     -1999.80009        50.43809  22126618.31209
 -11303238.54709     -1558.28609        53.12509
  25247291.78107   2714775.37907     -2536.47207        37.25007  25247300.28107
   2355777.77907     -1976.47207        39.25007
  22467690.84408 -14756813.48208     -2903.21808        47.18808  22467696.21909
 -11265034.79909     -2262.24809        51.68809
  22987202.37508 -11157730.40508      2763.03008        42.25008  22987205.25008
  -8460232.44908      2153.01008        45.18808
  24181744.62508  -3964315.94608      3040.56908        43.87508  24181749.37508
  -2855240.87508      2369.27408        46.12508
  20402452.81209 -24953051.31909     -1166.27709        55.12509  20402454.56209
 -19209311.00109      -908.78709        57.93809
 25  3  7  0 44  0.0000000  0 10G01G02G03G08G10G23G27G28G31G32
  23301699.21908  -8126727.02408      3125.28808        41.31208  23301701.71908
  -6098146.64608      2435.28908        44.43808
  21732067.00008 -15997213.83508      2965.09008        45.43808  21732066.78108
 -12225806.41208      2310.46008        47.68808
  24735181.00007    -92393.49607      2319.08707        39.37507  24735188.31208
    161321.58008      1807.08108        44.43808
  21744997.40608 -16463312.11108     -1278.32808        49.62508  21745001.31209
 -12593982.66209      -996.09909        52.62509
  22138040.09409 -14746498.45509     -2003.08809        50.81209  22138044.06209
 -11256451.73409     -1560.84809        52.81209
  25261769.93807   2790860.12707     -2535.94207        34.68807  25261778.81207
   2415064.40707     -1976.05907        37.81207
  22484289.62508 -14669585.45408     -2911.83608        47.12508  22484295.00009
 -11197065.05609     -2268.96309        51.25009
  22971450.96908 -11240501.66908      2754.99508        42.18808  22971454.06208
  -8524729.46308      2146.75008        45.00008
  24164386.53108  -4055532.30608      3040.69808        43.18808  24164390.37508
  -2926318.37308      2369.37508        44.43808
  20409158.93809 -24917809.79409     -1183.07109        55.12509  20409161.09409
 -19181850.10709      -921.87409        57.81209
 25  3  7  0 44 30.0000000  0 10G01G02G03G08G10G23G27G28G31G32
  23283865.03108  -8220448.07808      3122.54608        41.56208  23283866.96908
  -6171175.99108      2433.15308        44.50008
  21715170.59408 -16086008.80708      2954.79008        45.81208  21715169.93808
 -12294997.25008      2302.43408        47.93808
  24721946.62508   -161946.08208      2317.75608        40.37508  24721953.31208
    107124.86208      1806.04408        44.37508
  21752344.50008 -16424702.62208     -1295.49608        49.50008  21752348.18809
 -12563897.40809     -1009.47709        52.56209
  22149485.90609 -14686352.27709     -2006.64809        51.00009  22149489.59409
 -11209584.64709     -1563.62209        52.68809
  25276244.87507   2866927.68807     -2535.72307        33.43807  25276253.46907
   2474337.62607     -1975.88807        38.56207
  22500938.31208 -14582097.15708     -2920.62508        47.25008  22500943.75009
 -11128892.50109     -2275.81209        51.06209
  22955746.56208 -11323028.40708      2746.88508        41.93808  22955750.03108
  -8589035.92108      2140.43008        45.18808
  24147028.25008  -4146747.99108      3040.27808        42.50008  24147032.65608
  -2997395.34308      2369.04808        44.43808
  20415961.93809 -24882060.34309     -1200.11209        55.18809  20415963.96909
 -19153993.41609      -935.15209        57.81209
 25  3  7  0 45  0.0000000  0 10G01G02G03G08G10G23G27G28G31G32
  23266046.75008  -8314083.89108      3119.70908        41.50008  23266048.50008
  -6244138.88208      2430.94208        44.12508
  21698331.87508 -16174496.03808      2944.45308        45.62508  21698331.31208
 -12363948.29908      2294.37908        48.00008
  24708716.40607   -231466.35307      2316.59907        40.00007  24708723.31208
     52953.31508      1805.14208        44.06208
  21759789.12508 -16385581.67508     -1312.54408        49.43808  21759793.09409
 -12533413.62709     -1022.76209        52.87509
  22160950.68809 -14626103.46309     -2009.91509        50.75009  22160954.46909
 -11162637.56409     -1566.16709        52.81209
  25290717.12507   2942978.28807     -2534.88307        33.18807  25290726.00007
   2533597.59907     -1975.23307        38.62507
  22517635.93808 -14494351.79108     -2929.03108        47.12508  22517640.75009
 -11060519.62509     -2282.36209        51.00009
  22940089.65608 -11405307.47108      2738.44708        42.00008  22940092.71908
  -8653149.39808      2133.85508        45.68808
  24129671.06208  -4237960.37408      3040.43708        43.87508  24129675.40608
  -3068469.73008      2369.17208        45.12508
  20422861.12509 -24845804.91409     -1216.89009        55.00009  20422863.00009
 -19125742.46309      -948.22609        57.93809
 25  3  7  0 45 30.0000000  0 10G01G02G03G08G10G23G27G28G31G32
  23248243.96908  -8407632.48208      3116.97008        40.81208  23248246.25008
  -6317033.85908      2428.80808        43.87508
  21681552.37508 -16262672.65208      2934.01108        45.56208  21681551.68808
 -12432657.31708      2286.24208        47.87508
  24695493.90608   -300954.71308      2315.73708        40.25008  24695499.56208
     -1193.38208      1804.47108        42.56208
  21767330.46908 -16345951.31508     -1329.47808        49.31208  21767334.65609
 -12502532.89109     -1035.95709        52.87509
  22172435.37509 -14565752.31109     -2013.39609        51.06209  22172439.28109
 -11115610.75009     -1568.88009        52.87509
  25305185.93807   3019012.01107     -2534.30207        35.43807  25305196.00008
   2592844.46108     -1974.78108        40.68808
  22534382.00008 -14406352.46208     -2937.53908        47.18808  22534386.81209
 -10991948.86609     -2288.99109        50.93809
  22924480.21908 -11487335.76408      2729.99008        42.37508  22924483.37508
  -8717067.46308      2127.26508        45.81208
  24112314.53108  -4329166.79508      3039.91508        44.18808  24112320.53108
  -3139539.51708      2368.76508        47.18808
  20429856.09409 -24809045.46909     -1233.77709        55.06209  20429858.31209
 -19097098.77509      -961.38509        57.87509
 25  3  7  0 46  0.0000000  0  9G01G02G03G08G10G27G28G31G32
  23230459.87508  -8501092.07008      3113.97508        41.37508  23230461.43808
  -6389859.44108      2426.47408        44.12508
  21664832.34408 -16350535.81108      2923.49608        45.62508  21664831.87508
 -12501122.07908      2278.04908        48.25008
  24682276.53108   -370411.42908      2314.74108        40.56208  24682282.96908
    -55315.42608      1803.69408        43.56208
  21774968.34408 -16305813.74508     -1346.30408        49.31208  21774972.25009
 -12471256.93809     -1049.06809        53.00009
  22183939.18809 -14505299.32709     -2016.82109        51.06209  22183942.90609
 -11068504.59609     -1571.54909        52.87509
  22551174.84408 -14318102.51908     -2945.71808        47.00008  22551180.43809
 -10923182.81909     -2295.36509        51.37509
  22908918.75008 -11569110.27908      2721.64808        42.62508  22908922.09408
  -8780787.76708      2120.76508        46.00008
  24094960.56208  -4420364.61308      3039.75308        43.06208  24094966.09408
  -3210602.52908      2368.63908        47.25008
  20436946.59409 -24771784.13209     -1250.35609        55.12509  20436948.75009
 -19068064.00009      -974.30409        57.93809
 25  3  7  0 46 30.0000000  0  9G01G02G03G08G10G27G28G31G32
  23212692.56208  -8594460.59708      3110.91308        41.87508  23212694.59408
  -6462614.12708      2424.08808        44.31208
  21648172.96908 -16438082.36408      2912.98808        45.56208  21648172.15608
 -12569340.13008      2269.86108        47.56208
  24669065.25008   -439836.93008      2313.74508        40.12508  24669070.84408
   -109413.14208      1802.91808        43.18808
  21782702.37508 -16265171.05408     -1363.08108        49.06208  21782706.84409
 -12439587.37409     -1062.14109        52.81209
  22195462.34409 -14444744.90209     -2020.07609        50.62509  22195465.75009
 -11021319.39009     -1574.08509        52.31209
  22568016.12508 -14229605.07408     -2953.89908        47.18808  22568021.06209
 -10854223.93609     -2301.74009        50.93809
  22893406.12508 -11650627.91408      2713.12708        42.18808  22893409.28108
  -8844307.94608      2114.12508        45.31208
  24077607.43808  -4511550.76108      3039.35308        42.56208  24077612.87508
  -3281656.47308      2368.32708        45.81208
  20444132.81209 -24734022.90509     -1266.89909        55.25009  20444134.68809
 -19038639.70409      -987.19409        57.75009
 25  3  7  0 47  0.0000000  0  9G01G02G03G08G10G27G28G31G32
  23194942.62508  -8687735.96408      3107.73908        41.62508  23194944.78108
  -6535296.17108      2421.61508        44.68808
  21631574.18808 -16525309.23308      2902.16108        45.81208  21631573.43808
 -12637309.08908      2261.42408        47.93808
  24655859.78107   -509231.18107      2312.53207        40.00007  24655866.46908
   -163486.49908      1801.97308        44.43808
  21790532.68808 -16224025.19608     -1379.84408        49.18808  21790536.75009
 -12407525.72409     -1075.20309        53.06209
  22207004.75009 -14384089.19609     -2023.53309        50.81209  22207008.46909
 -10974055.26009     -1576.77909        52.75009
  22584903.18808 -14140863.20808     -2962.12608        47.06208  22584908.12509
 -10785074.57209     -2308.15009        51.00009
  22877943.00008 -11731885.45808      2704.23608        42.25008  22877946.50008
  -8907625.40708      2107.19708        45.68808
  24060258.56208  -4602722.66508      3038.81808        44.43808  24060262.06208
  -3352699.32608      2367.91008        44.56208
  20451413.31209 -24695763.61309     -1283.68209        55.31209  20451415.06209
 -19008827.29409     -1000.27109        57.75009
 25  3  7  0 47 30.0000000  0  9G01G02G03G08G10G27G28G31G32
  23177210.40608  -8780916.48108      3104.43108        41.18808  23177212.50008
  -6607904.31408      2419.03708        44.37508
  21615036.68808 -16612213.82208      2891.44808        45.93808  21615036.00008
 -12705026.92108      2253.07608        47.87508
  24642660.78108   -578594.85808      2311.59208        41.25008  24642666.90608
   -217536.01608      1801.24008        44.56208
  21798457.12508 -16182378.62708     -1396.62808        49.12508  21798461.93809
 -12375073.93709     -1088.28209        52.87509
  22218566.09409 -14323332.83609     -2026.87709        50.87509  22218570.06209
 -10926712.69809     -1579.38509        52.50009
  22601835.96908 -14051880.36608     -2970.01008        47.00008  22601841.40609
 -10715737.43309     -2314.29309        50.93809
  22862530.78108 -11812880.07108      2695.43508        42.68808  22862533.68808
  -8970738.01608      2100.33908        45.56208
  24042912.21908  -4693877.72508      3038.12308        44.43808  24042915.71908
  -3423729.12408      2367.36808        44.56208
  20458788.06209 -24657008.64909     -1300.07309        55.62509  20458789.93809
 -18978628.64609     -1013.04409        57.75009
 25  3  7  0 48  0.0000000  0  9G01G02G03G08G10G27G28G31G32
  23159497.46908  -8873999.75708      3101.18708        40.93808  23159499.40608
  -6680436.67108      2416.50908        43.93808
  21598561.18808 -16698792.76608      2880.58308        45.37508  21598560.34408
 -12772490.99008      2244.61108        47.56208
  24629466.18807   -647927.78707      2310.62007        39.12507  24629473.09408
   -271561.59408      1800.48308        42.87508
  21806477.71908 -16140233.08308     -1413.07908        48.87508  21806482.06209
 -12342233.31409     -1101.10009        52.50009
  22230147.15609 -14262475.74509     -2030.21709        50.68809  22230151.00009
 -10879291.64709     -1581.98809        52.12509
  22618814.81208 -13962659.29308     -2977.95908        47.12508  22618819.43809
 -10646214.67409     -2320.48809        50.50009
  22847169.00008 -11893608.27208      2686.41408        42.87508  22847171.78108
  -9033643.04608      2093.30908        45.75008
  24025568.59408  -4785012.97908      3037.52408        42.25008  24025573.81208
  -3494743.40708      2366.90208        46.06208
  20466256.81209 -24617759.57509     -1316.47209        55.18809  20466258.90609
 -18948044.97809     -1025.82309        57.50009
 25  3  7  0 48 30.0000000  0  9G01G02G03G08G10G27G28G31G32
  23141803.71908  -8966983.99108      3098.12308        41.81208  23141804.96908
  -6752891.88508      2414.12208        44.06208
  21582148.62508 -16785043.61608      2869.65808        46.06208  21582147.43808
 -12839699.40608      2236.09708        48.00008
  24616279.12508   -717230.37508      2309.72208        40.75008  24616285.06208
   -325563.53408      1799.78308        43.75008
  21814592.34408 -16097590.97408     -1429.58008        49.12508  21814596.46909
 -12309005.76909     -1113.95809        52.68809
  22241747.03109 -14201518.52509     -2033.44009        51.00009  22241750.65609
 -10831792.57509     -1584.49909        52.75009
  22635837.37508 -13873203.46308     -2985.64008        47.00008  22635842.81209
 -10576508.99309     -2326.47209        50.93809
  22831857.81208 -11974067.25108      2677.71008        42.87508  22831860.90608
  -9096338.27108      2086.52708        46.25008
  24008230.18808  -4876125.83408      3036.73608        42.75008  24008236.00008
  -3565740.20908      2366.28808        46.93808
  20473819.31209 -24578018.75209     -1332.68109        55.43809  20473821.40609
 -18917078.12709     -1038.45309        57.75009
 25  3  7  0 49  0.0000000  0  9G01G02G03G08G10G27G28G31G32
  23124128.31208  -9059867.10408      3094.54608        41.62508  23124129.71908
  -6825268.29708      2411.33408        44.12508
  21565798.31208 -16870963.11008      2858.52808        45.81208  21565797.18808
 -12906649.62808      2227.42408        47.81208
  24603096.65608   -786502.93108      2308.60608        41.06208  24603102.65608
   -379542.03108      1798.91408        43.56208
  21822800.87508 -16054454.43808     -1446.07208        49.12508  21822805.06209
 -12275392.97109     -1126.80909        52.50009
  22253365.93809 -14140461.42309     -2036.82409        51.00009  22253369.90609
 -10784215.66509     -1587.13509        53.00009
  22652904.43808 -13783515.98308     -2993.40308        46.93808  22652910.31209
 -10506622.79509     -2332.52209        51.06209
  22816598.78108 -12054253.80608      2668.30608        42.87508  22816601.81208
  -9158821.23908      2079.19908        45.93808
  23990897.37508  -4967213.63408      3036.02308        43.93808  23990901.84408
  -3636717.53608      2365.73208        45.81208
  20481474.81209 -24537788.15209     -1349.07509        55.43809  20481477.09409
 -18885729.64809     -1051.22709        57.81209
 25  3  7  0 49 30.0000000  0  9G01G02G03G08G10G27G28G31G32
  23106471.46908  -9152647.17708      3091.18208        40.50008  23106474.68808
  -6897564.41008      2408.71308        44.50008
  21549511.68808 -16956548.44608      2847.27508        45.87508  21549510.90608
 -12973339.47108      2218.65608        47.93808
  24589920.50008   -855745.86408      2307.80308        40.18808  24589926.50008
   -433497.49008      1798.28808        43.56208
  21831103.40608 -16010825.80008     -1462.37808        49.06208  21831107.43809
 -12241396.70009     -1139.51509        52.43809
  22265003.62509 -14079304.85009     -2040.14609        50.75009  22265007.25009
 -10736561.26109     -1589.72409        52.68809
  22670015.15608 -13693600.10008     -3000.93508        46.75008  22670020.87509
 -10436558.62709     -2338.39109        50.75009
  22801392.06208 -12134164.97608      2659.10408        42.81208  22801394.62508
  -9221089.59408      2072.02908        45.56208
  23973569.59408  -5058273.51308      3034.83208        43.93808  23973572.71908
  -3707673.12608      2364.80408        44.93808
  20489223.18809 -24497069.94709     -1365.35209        55.12509  20489225.21909
 -18854001.19909     -1063.91009        57.56209
 25  3  7  0 50  0.0000000  0  9G01G02G03G08G10G27G28G31G32
  23088837.34408  -9245322.08308      3087.40208        41.56208  23088839.43808
  -6969778.56808      2405.76808        44.75008
  21533289.87508 -17041796.66008      2835.90808        46.25008  21533288.62508
 -13039766.60208      2209.79908        48.06208
  24576748.71907   -924959.26507      2306.36007        39.87507  24576753.96908
   -487429.93608      1797.16408        42.56208
  21839498.43808 -15966707.17408     -1478.71108        48.93808  21839502.90609
 -12207018.61709     -1152.24209        52.37509
  22276660.31209 -14018049.06709     -2043.46709        50.87509  22276663.87509
 -10688829.53409     -1592.31209        52.50009
  22687168.71908 -13603458.95508     -3008.43508        47.00008  22687173.81209
 -10366318.93109     -2344.23509        50.43809
  22786238.68808 -12213797.60708      2649.70008        43.18808  22786241.15608
  -9283140.92108      2064.70108        45.68808
  23956247.09408  -5149302.80008      3033.76508        44.00008  23956250.81208
  -3778604.87808      2363.97208        45.56208
  20497064.56209 -24455866.15609     -1381.50609        55.62509  20497066.37509
 -18821894.37909     -1076.49809        57.81209
 25  3  7  0 50 30.0000000  0  9G01G02G03G08G10G27G28G31G32
  23071222.75008  -9337889.83508      3083.75508        41.62508  23071223.59408
  -7041909.21508      2402.92608        44.25008
  21517132.37508 -17126704.66908      2824.38008        46.25008  21517131.34408
 -13105928.66408      2200.81508        48.31208
  24563584.12508   -994143.43908      2305.47408        41.56208  24563589.87508
   -541339.59108      1796.47308        43.62508
  21847986.62508 -15922100.84508     -1495.00708        48.68808  21847990.87509
 -12172260.53009     -1164.94109        52.06209
  22288335.40609 -13956694.36809     -2046.87509        50.75009  22288339.53109
 -10641020.74609     -1594.96809        52.50009
  22704364.78108 -13513095.76608     -3015.78408        46.93808  22704369.46909
 -10295906.20809     -2349.96109        50.43809
  22771138.75008 -12293148.64408      2640.15108        43.06208  22771141.18808
  -9344972.84508      2057.26108        45.81208
  23938930.34408  -5240298.88308      3032.56108        43.25008  23938934.68808
  -3849510.75708      2363.03508        46.12508
  20504997.06209 -24414178.92309     -1397.69309        55.43809  20504999.09409
 -18789410.85309     -1089.11109        57.62509
 25  3  7  0 51  0.0000000  0  9G01G02G03G08G10G27G28G31G32
  23053628.46908  -9430348.36308      3080.18608        41.43808  23053629.21908
  -7113954.77408      2400.14508        43.87508
  21501039.87508 -17211269.90908      2813.10108        46.06208  21501039.15608
 -13171823.60808      2192.02608        48.43808
  24550424.37508  -1063298.70408      2304.81408        41.56208  24550430.31208
   -595226.67808      1795.95908        43.87508
  21856567.81208 -15877009.14508     -1511.19908        48.68808  21856571.93809
 -12137124.21309     -1177.55709        52.06209
  22300030.12509 -13895241.11309     -2050.08309        50.81209  22300033.46909
 -10593135.15409     -1597.46709        52.31209
  22721601.34408 -13422513.76208     -3022.89808        46.31208  22721606.78109
 -10225322.99109     -2355.50509        50.50009
  22756092.34408 -12372215.07608      2630.84708        42.81208  22756095.46908
  -9406582.96708      2050.01108        46.06208
  23921620.50008  -5331258.90508      3031.38408        43.43808  23921625.93808
  -3920388.49408      2362.11808        46.62508
  20513021.59409 -24372010.37009     -1413.59409        55.37509  20513023.62509
 -18756552.26109     -1101.50209        57.62509
 25  3  7  0 51 30.0000000  0  9G01G02G03G08G10G27G28G31G32
  23036054.46908  -9522695.51708      3076.58708        41.43808  23036056.37508
  -7185913.57908      2397.34008        44.43808
  21485013.50008 -17295489.08908      2801.60408        46.06208  21485012.59408
 -13237448.90508      2183.06808        48.50008
  24537269.90608  -1132425.22708      2303.50108        41.37508  24537275.28108
   -649091.39708      1794.93608        43.31208
  21865240.28108 -15831434.23108     -1527.08308        48.43808  21865244.46909
 -12101611.36309     -1189.93409        52.18809
  22311742.84409 -13833689.48509     -2053.26909        50.56209  22311746.75009
 -10545172.91809     -1599.95009        52.75009
  22738879.65608 -13331715.96608     -3030.23708        46.31208  22738885.43809
 -10154571.64209     -2361.22309        50.50009
  22741101.34408 -12450993.73808      2621.13508        42.87508  22741104.28108
  -9467968.85508      2042.44308        46.31208
  23904319.81208  -5422180.14808      3030.09808        44.37508  23904323.71908
  -3991236.05608      2361.11508        46.50008
  20521137.00009 -24329362.53109     -1429.49209        55.12509  20521139.21909
 -18723320.21509     -1113.89009        57.68809
 25  3  7  0 52  0.0000000  0  9G01G02G03G08G10G27G28G31G32
  23018502.56208  -9614929.42108      3072.56808        40.87508  23018505.21908
  -7257784.10808      2394.20908        45.06208
  21469053.40608 -17379359.47108      2789.81708        46.31208  21469052.43808
 -13302802.42008      2173.88308        48.75008
  24524120.25008  -1201523.39908      2302.86908        40.31208  24524125.62508
   -702934.03908      1794.44308        42.62508
  21874004.28108 -15785378.58608     -1543.25008        48.31208  21874008.93809
 -12065723.93709     -1202.53209        52.37509
  22323474.62509 -13772039.88709     -2056.66509        50.43809  22323478.53109
 -10497134.36209     -1602.59609        53.00009
  22756199.00008 -13240705.83808     -3037.24408        46.62508  22756204.09409
 -10083654.82309     -2366.68309        50.12509
  22726165.56208 -12529481.73608      2611.47708        42.93808  22726168.34408
  -9529128.27208      2034.91708        46.12508
  23887025.31208  -5513060.00508      3028.64508        44.06208  23887029.96908
  -4062051.36008      2359.98308        46.06208
  20529343.68809 -24286237.73309     -1445.36909        55.37509  20529345.56209
 -18689716.51009     -1126.26109        57.68809
 25  3  7  0 52 30.0000000  0  9G01G02G03G08G10G27G28G31G32
  23000973.34408  -9707047.90108      3068.60608        41.43808  23000975.56208
  -7329564.68608      2391.12208        44.75008
  21453160.43808 -17462878.26508      2778.13008        46.50008  21453159.46908
 -13367881.96108      2164.77708        48.37508
  24510976.18807  -1270593.45307      2301.79407        39.75007  24510982.75008
   -756754.71808      1793.60608        43.62508
  21882859.90608 -15738844.44608     -1559.05308        48.50008  21882864.03109
 -12029463.64309     -1214.84609        52.00009
  22335224.21908 -13710292.58008     -2059.87308        50.00008  22335228.75009
 -10449019.64609     -1605.09609        52.81209
  22773557.12508 -13149486.40508     -3044.10208        46.25008  22773563.00009
 -10012574.90609     -2372.02709        50.18809
  22711285.28108 -12607675.89508      2601.45808        42.87508  22711288.18808
  -9590058.72308      2027.11008        45.75008
  23869739.46908  -5603895.43808      3027.00208        43.62508  23869743.87508
  -4132832.04808      2358.70308        46.18808
  20537640.28109 -24242638.00109     -1461.11809        55.25009  20537642.43809
 -18655742.72809     -1138.53409        57.43809
 25  3  7  0 53  0.0000000  0  9G01G02G03G08G10G27G28G31G32
  22983467.00008  -9799048.77708      3064.71908        42.56208  22983467.90608
  -7401253.63408      2388.09308        44.68808
  21437334.90608 -17546041.97208      2766.15208        46.56208  21437333.87508
 -13432684.81508      2155.44308        48.75008
  24497838.06208  -1339635.45308      2300.94008        41.12508  24497843.78108
   -810553.53508      1792.94008        43.12508
  21891805.31208 -15691834.07208     -1574.97308        48.68808  21891809.71909
 -11992832.24909     -1227.25209        52.18809
  22346992.78108 -13648447.73908     -2063.14008        50.00008  22346997.81209
 -10400828.92409     -1607.64109        53.12509
  22790955.06208 -13058060.81808     -3050.95208        46.43808  22790961.06209
  -9941334.36209     -2377.36509        50.43809
  22696462.21908 -12685573.12408      2591.65808        43.18808  22696464.71908
  -9650757.79208      2019.47408        45.93808
  23852462.84408  -5694683.58208      3025.47908        43.93808  23852467.81208
  -4203575.86808      2357.51608        46.68808
  20546027.21909 -24198565.43609     -1476.97509        55.50009  20546029.09409
 -18621400.49609     -1150.89009        57.43809
 25  3  7  0 53 30.0000000  0  9G01G02G03G08G10G27G28G31G32
  22965981.87508  -9890930.15808      3060.75408        41.75008  22965983.18808
  -7472849.46708      2385.00308        44.56208
  21421577.15608 -17628848.13608      2754.36508        46.50008  21421576.46908
 -13497209.04608      2146.25908        48.68808
  24484705.18808  -1408649.93808      2300.13208        42.00008  24484711.65608
   -864330.98708      1792.31108        43.37508
  21900842.00008 -15644350.05208     -1590.61308        48.68808  21900845.84409
 -11955831.79809     -1239.43909        52.06209
  22358780.18808 -13586505.80408     -2066.25508        49.93808  22358784.65609
 -10352562.53709     -1610.06909        52.68809
  22808391.25008 -12966432.46108     -3057.47608        46.06208  22808397.68809
  -9869935.81609     -2382.44809        50.43809
  22681695.62508 -12763170.55408      2581.57208        43.00008  22681698.50008
  -9711223.25608      2011.61508        46.06208
  23835196.56208  -5785422.08608      3023.82108        44.93808  23835200.75008
  -4274281.01108      2356.22408        46.93808
  20554503.34409 -24154022.40309     -1492.50509        55.31209  20554505.43809
 -18586691.66509     -1162.99109        57.37509
 25  3  7  0 54  0.0000000  0  9G01G02G03G08G10G27G28G31G32
  22948520.06208  -9982689.72408      3056.50108        41.43808  22948521.81208
  -7544350.37708      2381.68908        44.87508
  21405888.78108 -17711293.63508      2742.16308        46.68808  21405887.37508
 -13561452.27908      2136.75008        48.75008
  24471577.03108  -1477636.98108      2299.29408        41.31208  24471583.31208
   -918087.05508      1791.65808        44.18808
  21909967.43808 -15596394.54908     -1606.27708        48.68808  21909971.40609
 -11918463.95809     -1251.64409        52.12509
  22370586.09409 -13524466.87409     -2069.55309        50.25009  22370590.43809
 -10304220.60009     -1612.63909        52.62509
  22825866.40608 -12874604.33508     -3064.17508        46.56208  22825871.56208
  -9798381.61908     -2387.66908        50.00008
  22666986.78108 -12840465.00008      2571.37708        43.06208  22666990.06208
  -9771452.63308      2003.67008        46.50008
  23817939.34408  -5876107.84308      3021.96508        44.81208  23817943.37508
  -4344945.07508      2354.77808        47.12508
  20563068.87509 -24109010.90409     -1508.01809        55.31209  20563070.90609
 -18551617.81609     -1175.07909        57.56209
 25  3  7  0 54 30.0000000  0  9G01G02G03G08G10G27G28G31G32
  22931083.03108 -10074325.60408      3052.58808        42.25008  22931084.59408
  -7615754.88108      2378.64008        45.18808
  21390269.21908 -17793375.72008      2730.02008        46.68808  21390267.68808
 -13625412.29808      2127.28808        49.00008
  24458454.40608  -1546596.97408      2298.34008        41.50008  24458460.59408
   -971821.98108      1790.91408        44.81208
  21919182.40608 -15547970.14608     -1621.79908        48.68808  21919186.43809
 -11880730.71609     -1263.74009        52.06209
  22382410.37509 -13462331.34509     -2072.78609        50.56209  22382414.62509
 -10255803.38009     -1615.15809        52.50009
  22843377.46908 -12782579.84508     -3070.56408        46.25008  22843383.40608
  -9726674.38108     -2392.64708        49.87508
  22652336.62508 -12917453.59108      2561.16908        43.25008  22652339.34408
  -9831443.65608      1995.71608        46.50008
  23800691.81208  -5966737.98708      3020.17808        43.87508  23800697.40608
  -4415565.75408      2353.38608        47.18808
  20571722.93809 -24063533.30609     -1523.62309        55.25009  20571724.75009
 -18516180.74909     -1187.23909        57.31209
 25  3  7  0 55  0.0000000  0  9G01G02G03G08G10G27G28G31G32
  22913669.34408 -10165835.55008      3048.28108        42.43808  22913671.28108
  -7687061.28908      2375.28408        45.62508
  21374719.06208 -17875091.16108      2717.84208        46.56208  21374717.87508
 -13689086.64208      2117.79908        48.87508
  24445336.65608  -1615530.15508      2297.46108        40.93808  24445343.50008
  -1025536.08308      1790.22908        45.50008
  21928486.03108 -15499079.14808     -1637.38508        48.56208  21928490.21909
 -11842633.92509     -1275.88509        52.06209
  22394252.90609 -13400099.48109     -2076.01809        50.43809  22394256.68809
 -10207311.09809     -1617.67609        52.31209
  22860925.56208 -12690362.05508     -3077.11908        45.81208  22860932.25009
  -9654816.56009     -2397.75509        50.06209
  22637745.09408 -12994133.23108      2550.98108        43.18808  22637747.81208
  -9891193.95708      1987.77808        46.43808
  23783457.06208  -6057310.31908      3018.20308        44.31208  23783461.00008
  -4486141.43808      2351.84708        46.25008
  20580465.43809 -24017591.74609     -1539.03809        55.18809  20580467.65609
 -18480382.18009     -1199.25009        57.56209
 25  3  7  0 55 30.0000000  0  9G01G02G03G08G10G27G28G31G32
  22896279.50008 -10257217.46308      3043.71308        42.50008  22896281.71908
  -7758267.90708      2371.72508        45.43808
  21359239.25008 -17956437.15008      2705.13208        46.37508  21359238.06208
 -13752473.09408      2107.89508        48.81208
  24432224.28108  -1684436.77708      2296.37708        41.06208  24432231.25008
  -1079229.43308      1789.38508        45.50008
  21937877.93808 -15449724.05208     -1652.99608        48.62508  21937882.18809
 -11804175.48109     -1288.04909        51.87509
  22406113.28109 -13337771.45709     -2079.35109        50.12509  22406117.68809
 -10158743.88309     -1620.27309        52.50009
  22878510.06208 -12597954.20208     -3083.55008        45.62508  22878517.25009
  -9582810.61309     -2402.76609        50.25009
  22623212.62508 -13070500.87308      2540.19808        43.31208  22623215.34408
  -9950701.14208      1979.37508        46.50008
  23766234.00008  -6147821.68908      3015.85408        45.25008  23766237.56208
  -4556669.61408      2350.01708        46.81208
  20589295.71909 -23971188.40509     -1554.54609        55.18809  20589297.53109
 -18444223.76209     -1211.33409        57.18809
 25  3  7  0 56  0.0000000  0  9G01G02G03G08G10G27G28G31G32
  22878914.56208 -10348469.18308      3039.47008        42.12508  22878916.46908
  -7829373.09608      2368.41808        45.18808
  21343830.50008 -18037410.72608      2692.77608        46.31208  21343829.37508
 -13815569.36608      2098.26708        48.87508
  24419116.56208  -1753316.98708      2295.42008        41.37508  24419122.78108
  -1132902.22508      1788.63908        44.25008
  21947357.59408 -15399907.21708     -1668.26408        48.37508  21947362.46909
 -11765357.26709     -1299.94609        52.06209
  22417992.12508 -13275347.47908     -2082.56308        49.68808  22417996.53109
 -10110101.89409     -1622.77709        52.37509
  22896131.71908 -12505359.45908     -3089.59508        46.50008  22896137.37509
  -9510659.07309     -2407.47609        50.31209
  22608740.53108 -13146553.49308      2529.75608        43.25008  22608742.96908
 -10009962.85508      1971.23808        46.50008
  23749021.65608  -6238269.34308      3013.82108        44.56208  23749026.25008
  -4627148.12608      2348.43208        47.81208
  20598213.46909 -23924325.50609     -1569.74109        55.18809  20598215.78109
 -18407707.26309     -1223.17509        57.37509
 25  3  7  0 56 30.0000000  0  9G01G02G03G08G10G27G28G31G32
  22861574.90608 -10439588.53708      3035.09508        42.37508  22861576.87508
  -7900375.15308      2365.00908        44.93808
  21328493.03108 -18118008.81908      2680.34708        46.50008  21328492.03108
 -13878373.04908      2088.58208        48.75008
  24406014.40608  -1822171.02408      2294.84608        42.93808  24406019.84408
  -1186554.65508      1788.19208        43.68808
  21956925.18808 -15349631.11808     -1683.58608        48.75008  21956929.81209
 -11726181.18709     -1311.88509        52.00009
  22429889.40609 -13212827.80509     -2085.61809        50.50009  22429893.65609
 -10061385.33809     -1625.15709        52.00009
  22913786.93808 -12412581.00108     -3095.71808        46.75008  22913792.59408
  -9438364.36808     -2412.24808        49.56208
  22594328.40608 -13222288.08408      2519.09208        43.56208  22594330.84408
 -10068976.76808      1962.92908        46.37508
  23731822.15608  -6328650.49608      3011.50608        44.18808  23731826.90608
  -4697574.80808      2346.62808        47.56208
  20607218.00009 -23877005.25909     -1584.93909        55.18809  20607220.15609
 -18370834.38209     -1235.01709        57.00009
 25  3  7  0 57  0.0000000  0  9G01G02G03G08G10G27G28G31G32
  22844262.00008 -10530573.55808      3030.59308        43.06208  22844263.40608
  -7971272.51308      2361.50108        45.50008
  21313227.43808 -18198228.74008      2667.68308        46.56208  21313226.59408
 -13940882.03508      2078.71408        48.93808
  24392916.68808  -1890999.32708      2293.79908        42.68808  24392923.09408
  -1240187.06708      1787.37608        44.12508
  21966579.56208 -15298898.44708     -1698.67208        48.87508  21966584.15609
 -11686649.32009     -1323.64009        52.18809
  22441805.18809 -13150212.80909     -2088.83509        51.12509  22441808.46909
 -10012594.51909     -1627.66409        51.87509
  22931476.03108 -12319622.19108     -3101.61908        45.93808  22931481.81208
  -9365929.10608     -2416.84608        49.43808
  22579977.75008 -13297701.81608      2508.36208        43.75008  22579980.12508
 -10127740.63708      1954.56808        46.56208
  23714636.62508  -6418962.49508      3009.20408        45.06208  23714640.75008
  -4767947.58708      2344.83408        47.00008
  20616309.78109 -23829230.07809     -1600.16109        55.37509  20616311.81209
 -18333607.01309     -1246.87909        57.25009
 25  3  7  0 57 30.0000000  0  9G01G02G03G08G10G27G28G31G32
  22826973.50008 -10621421.84908      3026.02108        42.87508  22826975.46908
  -8042063.33308      2357.93808        45.50008
  21298034.62508 -18278067.35308      2654.97308        46.68808  21298034.00008
 -14003093.91708      2068.81008        48.81208
  24379823.43808  -1959801.88308      2292.95708        41.56208  24379830.21908
  -1293799.36808      1786.71908        43.68808
  21976319.84408 -15247711.38808     -1713.81808        48.81208  21976324.68809
 -11646763.39809     -1335.44309        51.68809
  22453738.28109 -13087502.48609     -2092.01409        50.37509  22453742.18809
  -9963729.40809     -1630.14109        51.81209
  22949199.43808 -12226485.99508     -3107.38308        46.06208  22949206.21908
  -9293355.62308     -2421.33708        49.93808
  22565688.87508 -13372791.44908      2497.52908        43.75008  22565691.12508
 -10186251.94708      1946.12708        46.37508
  23697464.90608  -6509202.31508      3006.66008        45.43808  23697468.40608
  -4838264.18508      2342.85208        46.56208
  20625486.84409 -23781001.96209     -1615.14209        55.12509  20625489.09409
 -18296026.69509     -1258.55209        56.62509
 25  3  7  0 58  0.0000000  0  9G01G02G03G08G10G27G28G31G32
  22809711.96908 -10712131.48208      3021.40908        42.81208  22809713.56208
  -8112746.10208      2354.34408        45.31208
  21282914.87508 -18357521.75908      2642.17308        46.56208  21282914.03108
 -14065006.40908      2058.83608        48.87508
  24366735.28108  -2028579.18808      2292.23908        41.75008  24366741.84408
  -1347391.98408      1786.16008        44.75008
  21986146.50008 -15196072.70808     -1728.77408        48.75008  21986150.68809
 -11606525.56409     -1347.09709        51.43809
  22465689.43809 -13024697.29009     -2095.06109        50.06209  22465693.75009
  -9914790.36009     -1632.51509        51.93809
  22966956.37508 -12133175.81308     -3113.14908        46.43808  22966962.50008
  -9220646.61708     -2425.83108        49.93808
  22551461.59408 -13447554.21608      2486.71908        43.87508  22551463.96908
 -10244508.56708      1937.70308        46.37508
  23680306.68808  -6599367.33108      3004.21908        44.87508  23680311.00008
  -4908522.47608      2340.95008        47.37508
  20634750.25009 -23732323.42409     -1630.09009        55.18809  20634752.50009
 -18258095.40909     -1270.20009        56.87509
 25  3  7  0 58 30.0000000  0  9G01G02G03G08G10G27G28G31G32
  22792477.71908 -10802700.24308      3016.63808        42.81208  22792479.25008
  -8183319.12408      2350.62708        45.56208
  21267869.15608 -18436589.10608      2629.21108        46.62508  21267868.15608
 -14126617.30408      2048.73608        49.06208
  24353652.71908  -2097331.41808      2291.50108        41.81208  24353659.56208
  -1400965.07208      1785.58608        46.00008
  21996058.62508 -15143984.94908     -1743.61808        48.62508  21996062.81209
 -11565937.79509     -1358.66309        51.50009
  22477658.75009 -12961797.40209     -2098.18809        50.12509  22477663.28109
  -9865777.53109     -1634.95209        51.93809
  22984745.18808 -12039694.86208     -3118.75008        46.31208  22984751.46908
  -9147804.52108     -2430.19508        49.62508
  22537297.59408 -13521987.16208      2475.75708        43.87508  22537299.81208
 -10302508.18608      1929.16108        46.56208
  23663163.65608  -6689454.75308      3001.75008        44.87508  23663167.90608
  -4978720.25908      2339.02608        48.25008
  20644098.90609 -23683196.70509     -1644.94409        55.31209  20644100.84409
 -18219814.89009     -1281.77409        56.87509
 25  3  7  0 59  0.0000000  0  9G01G02G03G08G10G27G28G31G32
  22775269.96908 -10893125.88808      3011.74108        42.75008  22775271.09408
  -8253780.60908      2346.81108        45.00008
  21252897.06208 -18515266.42308      2616.11108        46.37508  21252896.37508
 -14187924.27608      2038.52808        49.00008
  24340574.81208  -2166058.76108      2290.64208        43.06208  24340581.03108
  -1454518.74408      1784.91608        46.37508
  22006055.71908 -15091450.55008     -1758.62808        48.75008  22006060.12509
 -11525001.99209     -1370.35909        51.62509
  22489646.84409 -12898802.97809     -2101.41109        50.43809  22489651.09409
  -9816691.03209     -1637.46309        52.06209
  23002565.78108 -11946046.24408     -3124.33608        45.43808  23002572.40608
  -9074831.76908     -2434.54708        49.25008
  22523196.62508 -13596087.21208      2464.40908        43.56208  22523198.93808
 -10360248.41108      1920.31908        46.37508
  23646035.62508  -6779461.58008      2998.78408        45.12508  23646039.75008
  -5048855.25808      2336.71508        47.87508
  20653532.28109 -23633623.99609     -1659.86809        55.00009  20653534.21909
 -18181186.83609     -1293.40409        56.68809
 25  3  7  0 59 30.0000000  0  9G01G02G03G08G10G27G28G31G32
  22758090.25008 -10983406.21008      3006.94808        42.75008  22758091.15608
  -8324128.87608      2343.07708        45.37508
  21237999.81208 -18593550.96708      2602.94908        46.50008  21237999.12508
 -14248925.19308      2028.27208        49.12508
  24327501.06208  -2234761.35908      2289.49708        43.18808  24327506.71908
  -1508053.15608      1784.02408        45.43808
  22016137.34408 -15038472.05908     -1773.29808        48.81208  22016141.68809
 -11483720.15109     -1381.79109        51.68809
  22501651.96908 -12835714.15708     -2104.46808        50.00008  22501656.09409
  -9767530.99509     -1639.84509        51.50009
  23020417.90608 -11852233.11208     -3129.75808        45.50008  23020424.37508
  -9001730.84708     -2438.77308        49.25008
  22509159.87508 -13669851.40308      2453.17908        43.75008  22509161.84408
 -10417726.92408      1911.56808        46.43808
  23628923.31208  -6869385.43808      2996.04708        45.31208  23628927.09408
  -5118925.61108      2334.58208        47.18808
  20663050.03109 -23583607.55409     -1674.50709        55.18809  20663052.21909
 -18142213.03209     -1304.81109        56.81209
 25  3  7  1  0  0.0000000  0  9G01G02G03G08G10G27G28G31G32
  22740938.34408 -11073539.08108      3002.00008        42.50008  22740939.53108
  -8394362.22508      2339.22008        45.43808
  21223178.09408 -18671439.79208      2589.84408        46.43808  21223177.53108
 -14309617.75208      2018.06008        49.12508
  24314430.90608  -2303439.66008      2288.95008        41.56208  24314436.50008
  -1561568.61808      1783.59808        43.25008
  22026302.15608 -14985052.11108     -1787.88308        48.37508  22026307.25009
 -11442094.30609     -1393.15609        51.62509
  22513675.09408 -12772531.23008     -2107.58508        49.81208  22513679.12509
  -9718297.63809     -1642.27409        51.00009
  23038301.50008 -11758258.72508     -3135.03208        46.00008  23038307.65608
  -8928504.27108     -2442.88208        49.56208
  22495187.15608 -13743276.79608      2441.90708        43.68808  22495189.43808
 -10474941.44408      1902.78408        46.37508
  23611827.40608  -6959223.17208      2993.29308        45.00008  23611831.46908
  -5188928.86808      2332.43708        47.06208
  20672651.84409 -23533149.77109     -1689.15509        55.18809  20672654.03109
 -18102895.31209     -1316.22509        56.68809
 25  3  7  1  0 30.0000000  0  9G01G02G03G08G10G27G28G31G32
  22723815.09408 -11163522.25608      2997.03108        42.62508  22723816.75008
  -8464478.92308      2335.34908        45.68808
  21208432.03108 -18748929.70308      2576.47508        46.43808  21208431.75008
 -14369999.47008      2007.64308        49.12508
  24301366.68808  -2372093.75208      2288.33508        41.81208  24301372.68808
  -1615065.24108      1783.11808        44.06208
  22036551.93808 -14931193.30108     -1802.47808        48.43808  22036556.40609
 -11400126.50909     -1404.52809        51.75009
  22525716.50008 -12709254.39308     -2110.58308        49.62508  22525720.90609
  -9668991.08509     -1644.61009        51.68809
  23056214.50008 -11664126.28708     -3140.23908        45.87508  23056220.37508
  -8855154.53908     -2446.94008        49.06208
  22481279.87508 -13816360.47608      2430.49308        43.37508  22481282.12508
 -10531889.68608      1893.89108        46.37508
  23594748.81208  -7048971.98608      2990.26908        45.18808  23594753.00008
  -5258862.83508      2330.07908        47.87508
  20682337.15609 -23482252.90309     -1703.76009        54.81209  20682339.59409
 -18063235.46609     -1327.60509        56.75009
 25  3  7  1  1  0.0000000  0  9G01G02G03G08G10G27G28G31G32
  22706720.62508 -11253353.44708      2991.94608        42.43808  22706722.18808
  -8534477.20008      2331.38608        45.75008
  21193762.96908 -18826017.75608      2562.93908        46.62508  21193762.18808
 -14430068.06108      1997.09608        49.18808
  24288307.59408  -2440723.82808      2287.00408        42.31208  24288312.87508
  -1668543.16708      1782.08108        44.62508
  22046884.21908 -14876898.14408     -1817.00008        48.37508  22046889.09409
 -11357818.68409     -1415.84409        52.18809
  22537775.71908 -12645883.71708     -2113.79608        49.75008  22537780.12509
  -9619611.40609     -1647.11409        51.93809
  23074156.06208 -11569838.86308     -3145.31008        44.62508  23074163.09408
  -8781684.04008     -2450.89108        49.50008
  22467437.87508 -13889099.42408      2419.09408        43.31208  22467440.46908
 -10588569.29408      1885.00908        46.75008
  23577687.65608  -7138629.08408      2987.05108        45.31208  23577692.06208
  -5328725.32008      2327.57208        48.56208
  20692106.12509 -23430919.22209     -1718.24709        55.12509  20692108.06209
 -18023235.23209     -1338.89409        56.81209
 25  3  7  1  1 30.0000000  0  9G01G02G03G08G10G27G28G31G32
  22689655.50008 -11343030.67508      2986.47008        42.56208  22689657.18808
  -8604355.51108      2327.11908        45.56208
  21179170.53108 -18902701.40008      2549.42108        46.68808  21179169.90608
 -14489821.52608      1986.56208        49.31208
  24275251.87508  -2509330.28408      2286.43608        42.31208  24275257.62508
  -1722002.64508      1781.63808        45.31208
  22057298.71908 -14822169.49508     -1831.36708        48.31208  22057303.65609
 -11315173.08009     -1427.03909        52.06209
  22549852.81209 -12582419.59209     -2116.99209        50.06209  22549856.59409
  -9570158.92609     -1649.60409        51.43809
  23092127.75008 -11475399.86808     -3150.37808        44.93808  23092133.81208
  -8708095.45008     -2454.84008        48.50008
  22453661.90608 -13961490.87808      2407.26308        43.31208  22453664.68808
 -10644978.14708      1875.79008        46.93808
  23560644.53108  -7228191.84908      2984.01608        45.68808  23560648.21908
  -5398514.29208      2325.20708        48.37508
  20701956.96909 -23379151.19909     -1732.75609        55.00009  20701959.15609
 -17982896.56009     -1350.20009        56.75009
 25  3  7  1  2  0.0000000  0  9G01G02G03G08G10G27G28G31G32
  22672619.84408 -11432551.51708      2981.49408        42.50008  22672621.78108
  -8674111.95908      2323.24208        45.75008
  21164655.84408 -18978977.28608      2535.68608        47.06208  21164654.93808
 -14549257.27508      1975.85908        49.37508
  24262201.00008  -2577913.17508      2285.75008        42.62508  24262206.65608
  -1775443.75208      1781.10408        45.43808
  22067794.87508 -14767009.74908     -1845.89608        48.31208  22067800.18809
 -11272191.58509     -1438.36009        52.12509
  22561947.34408 -12518862.03808     -2120.20308        49.93808  22561951.59409
  -9520633.64709     -1652.10609        51.62509
  23110128.21908 -11380812.30708     -3155.42508        46.12508  23110133.78108
  -8634391.06508     -2458.77208        48.87508
  22439953.43808 -14033531.78008      2395.42008        43.68808  22439955.53108
 -10701113.82308      1866.56108        46.87508
  23543619.25008  -7317657.37708      2980.53708        45.50008  23543622.62508
  -5468227.51408      2322.49608        47.87508
  20711890.56209 -23326951.02009     -1747.10209        55.37509  20711892.93809
 -17942221.14509     -1361.37809        57.06209
 25  3  7  1  2 30.0000000  0  9G01G02G03G08G10G27G28G31G32
  22655614.96908 -11521913.68608      2975.95008        42.75008  22655617.18808
  -8743744.75808      2318.92208        46.12508
  21150219.00008 -19054842.50008      2521.91208        47.00008  21150218.18808
 -14608372.98808      1965.12608        49.18808
  24249155.15608  -2646472.66208      2284.81208        43.06208  24249159.84408
  -1828866.63808      1780.37308        45.31208
  22078373.28108 -14711421.57608     -1860.06808        48.37508  22078378.09409
 -11228876.23009     -1449.40409        51.43809
  22574059.81208 -12455211.03908     -2123.31508        49.87508  22574064.15609
  -9471035.53009     -1654.53109        51.56209
  23128154.96908 -11286079.32608     -3160.22508        45.62508  23128161.18808
  -8560573.37508     -2462.51308        49.00008
  22426311.21908 -14105219.15108      2383.62108        43.81208  22426313.78108
 -10756974.03608      1857.36708        46.68808
  23526613.59408  -7407022.68008      2976.99708        45.68808  23526616.18808
  -5537862.63608      2319.73808        47.18808
  20721905.50009 -23274320.93609     -1761.52609        55.06209  20721907.75009
 -17901210.73309     -1372.61809        56.50009
 25  3  7  1  3  0.0000000  0  9G01G02G03G08G10G27G28G31G32
  22638640.50008 -11611115.23908      2970.50008        42.87508  22638642.43808
  -8813252.40908      2314.67608        46.12508
  21135861.12508 -19130294.55808      2508.19308        46.87508  21135860.28108
 -14667166.77408      1954.43608        49.37508
  24236113.15608  -2715009.27408      2284.24608        42.62508  24236118.03108
  -1882271.67808      1779.93208        45.43808
  22089032.78108 -14655407.86908     -1874.22408        48.43808  22089036.96909
 -11185229.28009     -1460.43409        51.31209
  22586189.75008 -12391467.30608     -2126.30608        49.68808  22586193.71909
  -9421365.17009     -1656.86209        51.18809
  23146209.06208 -11191204.37808     -3164.84108        44.75008  23146215.62508
  -8486645.08308     -2466.11008        49.31208
  22412737.65608 -14176550.37008      2371.83808        43.56208  22412739.81208
 -10812556.73008      1848.18608        46.75008
  23509627.43808  -7496285.27508      2973.65208        45.93808  23509631.18808
  -5607417.74408      2317.13208        48.06208
  20732002.12509 -23221263.61209     -1775.65709        55.12509  20732004.15609
 -17859867.40409     -1383.62909        56.50009
 25  3  7  1  3 30.0000000  0  9G01G02G03G08G10G27G28G31G32
  22621697.09408 -11700153.73808      2965.13708        43.43808  22621697.93808
  -8882633.00408      2310.49608        45.81208
  21121582.03108 -19205330.43208      2494.10408        47.18808  21121581.31208
 -14725636.26008      1943.45808        49.56208
  24223074.12508  -2783523.00008      2283.27108        42.00008  24223079.78108
  -1935658.92008      1779.17308        45.50008
  22099772.25008 -14598971.12908     -1888.41808        48.37508  22099776.71909
 -11141252.69909     -1471.49509        51.31209
  22598337.96909 -12327630.67909     -2129.48509        50.18809  22598341.65609
  -9371622.41709     -1659.33909        51.31209
  23164289.71908 -11096190.46208     -3169.61708        45.00008  23164296.56208
  -8412608.51608     -2469.83108        49.37508
  22399232.03108 -14247522.33308      2359.45308        43.75008  22399234.46908
 -10867859.49008      1838.53508        47.00008
  23492661.40608  -7585442.03108      2969.85608        46.12508  23492665.12508
  -5676890.36708      2314.17408        48.68808
  20742179.43809 -23167781.16309     -1789.91509        55.12509  20742181.81209
 -17818192.81809     -1394.73909        56.68809
 25  3  7  1  4  0.0000000  0  9G01G02G03G08G10G27G28G31G32
  22604785.12508 -11789027.02108      2959.53408        43.06208  22604786.25008
  -8951884.85408      2306.13008        45.87508
  21107382.78108 -19279947.20708      2480.24708        47.00008  21107382.21908
 -14783779.16308      1932.66008        49.62508
  24210040.68808  -2852014.22608      2282.49008        42.18808  24210046.21908
  -1989028.59908      1778.56408        45.43808
  22110591.68808 -14542114.19108     -1902.28008        48.12508  22110596.40609
 -11096948.69409     -1482.29609        51.50009
  22610502.59408 -12263701.42908     -2132.39508        49.50008  22610507.68809
  -9321807.49609     -1661.60709        51.81209
  23182396.96908 -11001040.86208     -3173.94808        45.56208  23182402.53108
  -8338466.19208     -2473.20608        48.37508
  22385795.00008 -14318132.29108      2347.73408        43.50008  22385797.81208
 -10922880.14708      1829.40308        47.31208
  23475715.84408  -7674490.53708      2966.42608        46.06208  23475719.62508
  -5746278.60608      2311.50008        48.75008
  20752437.31209 -23113876.06109     -1803.81609        55.06209  20752439.06209
 -17776188.88109     -1405.57109        56.25009
 25  3  7  1  4 30.0000000  0  9G01G02G03G08G10G27G28G31G32
  22587904.81208 -11877732.53908      2954.15008        43.81208  22587906.37508
  -9021005.98008      2301.93508        45.93808
  21093264.21908 -19354141.75708      2466.18708        47.25008  21093263.53108
 -14841593.08308      1921.70408        49.68808
  24197012.43808  -2920482.78908      2281.92408        43.06208  24197017.59408
  -2042380.62508      1778.12208        45.37508
  22121490.59408 -14484839.42708     -1915.94008        48.25008  22121495.62509
 -11052319.11509     -1492.94009        51.43809
  22622685.90608 -12199679.35108     -2135.56908        49.75008  22622690.78109
  -9271920.25309     -1664.08009        51.81209
  23200528.15608 -10905758.45608     -3178.17608        45.43808  23200534.31208
  -8264220.37508     -2476.50108        48.43808
  22372428.28108 -14388377.02508      2335.48608        43.87508  22372430.53108
 -10977616.24308      1819.85908        47.25008
  23458791.25008  -7763427.42908      2962.76408        46.12508  23458794.37508
  -5815579.90608      2308.64708        48.00008
  20762775.03109 -23059550.36409     -1817.80009        55.37509  20762777.56209
 -17733857.22009     -1416.46809        56.75009
 25  3  7  1  5  0.0000000  0  9G01G02G03G08G10G27G28G31G32
  22571057.00008 -11966268.38908      2948.40608        43.37508  22571058.81208
  -9089994.92108      2297.45908        46.18808
  21079226.56208 -19427911.30008      2451.99008        47.12508  21079225.37508
 -14899075.81008      1910.64108        49.62508
  24183986.90608  -2988929.28308      2281.29908        42.56208  24183992.12508
  -2095715.50208      1777.63508        45.25008
  22132469.09408 -14427149.93308     -1929.67008        48.12508  22132473.46909
 -11007366.37609     -1503.63909        51.43809
  22634886.75008 -12135565.00608     -2138.47708        49.81208  22634891.00009
  -9221961.10709     -1666.34509        51.56209
  23218684.34408 -10810346.74208     -3182.35108        44.93808  23218691.18808
  -8189873.81708     -2479.75408        49.12508
  22359131.06208 -14458254.04308      2323.26408        43.75008  22359133.31208
 -11032065.79208      1810.33608        47.37508
  23441888.87508  -7852250.32908      2958.92608        46.18808  23441891.81208
  -5884792.38708      2305.65608        47.68808
  20773192.40609 -23004806.79409     -1831.60409        54.93809  20773194.43809
 -17691199.94009     -1427.22409        56.43809
 25  3  7  1  5 30.0000000  0  9G01G02G03G08G10G27G28G31G32
  22554242.53108 -12054632.19608      2942.56808        43.56208  22554244.06208
  -9158849.79208      2292.91008        46.31208
  21065269.75008 -19501253.07508      2437.71508        47.12508  21065269.18808
 -14956225.21708      1899.51808        49.62508
  24170966.37508  -3057353.81508      2280.58108        42.68808  24170971.28108
  -2149033.22508      1777.07608        45.75008
  22143525.62508 -14369048.33108     -1943.54508        48.00008  22143530.15609
 -10962092.51809     -1514.45109        51.31209
  22647104.84408 -12071358.42808     -2141.67708        49.62508  22647109.09409
  -9171930.10009     -1668.83909        50.93809
  23236864.40608 -10714808.80308     -3186.61108        44.18808  23236872.15608
  -8115428.95508     -2483.07408        49.56208
  22345904.37508 -14527760.40308      2310.85208        43.75008  22345906.75008
 -11086226.52708      1800.66408        47.18808
  23425009.00008  -7940956.01908      2954.96608        46.43808  23425012.09408
  -5953913.57108      2302.57108        47.93808
  20783689.18809 -22949647.63009     -1845.42209        54.93809  20783691.56209
 -17648218.82309     -1437.99109        56.56209
 25  3  7  1  6  0.0000000  0  9G01G02G03G08G10G27G28G31G32
  22537459.75008 -12142821.61308      2936.73608        43.25008  22537461.62508
  -9227568.74108      2288.36508        46.12508
  21051395.43808 -19574163.94508      2423.09308        47.37508  21051394.43808
 -15013038.85408      1888.12508        49.62508
  24157949.71908  -3125756.49608      2279.55108        43.06208  24157954.81208
  -2202333.90208      1776.27308        46.12508
  22154659.68808 -14310537.30008     -1957.15108        48.06208  22154664.84409
 -10916499.59509     -1525.05309        51.43809
  22659341.00008 -12007059.66508     -2144.79508        49.87508  22659344.84409
  -9121827.25009     -1671.26909        51.00009
  23255069.50008 -10619147.74708     -3190.82308        45.56208  23255076.21908
  -8040888.12108     -2486.35508        48.81208
  22332748.87508 -14596893.13608      2298.04908        43.81208  22332750.59408
 -11140096.12208      1790.68808        47.00008
  23408151.06208  -8029542.04708      2950.92808        46.18808  23408155.18808
  -6022941.47008      2299.42408        48.43808
  20794264.09409 -22894075.16109     -1859.19409        54.87509  20794266.53109
 -17604915.64009     -1448.72309        56.62509
 25  3  7  1  6 30.0000000  0  9G01G02G03G08G10G27G28G31G32
  22520711.56208 -12230834.41708      2930.71808        43.75008  22520712.90608
  -9296150.11408      2283.67608        45.81208
  21037603.75008 -19646641.13208      2408.69908        47.68808  21037602.50008
 -15069514.56508      1876.90808        49.87508
  24144937.15608  -3194137.60608      2279.13608        43.68808  24144942.03108
  -2255617.80208      1775.95008        46.31208
  22165871.31208 -14251619.68808     -1970.53508        48.12508  22165876.12509
 -10870589.89009     -1535.48209        51.31209
  22671593.68808 -11942668.95908     -2147.73708        49.62508  22671597.96909
  -9071652.76409     -1673.56109        51.12509
  23273295.43808 -10523366.86308     -3194.50408        45.18808  23273302.12508
  -7966253.89608     -2489.22408        48.12508
  22319664.81208 -14665649.53108      2285.65208        44.12508  22319666.90608
 -11193672.48008      1781.02708        47.37508
  23391317.12508  -8118005.48708      2946.90908        46.50008  23391320.87508
  -6091873.86808      2296.29308        49.00008
  20804917.53109 -22838091.86309     -1872.82209        55.18809  20804919.75009
 -17561292.34009     -1459.34209        56.62509
 25  3  7  1  7  0.0000000  0  9G01G02G03G08G10G27G28G31G32
  22503997.28108 -12318668.38808      2924.97808        43.68808  22503998.75008
  -9364592.12808      2279.20408        45.87508
  21023894.78108 -19718682.01508      2394.19408        47.50008  21023893.81208
 -15125650.28408      1865.60608        49.87508
  24131928.00008  -3262497.35408      2278.34708        42.43808  24131934.03108
  -2308885.06208      1775.33508        46.25008
  22177159.50008 -14192298.25008     -1984.00108        47.68808  22177165.03109
 -10824365.49709     -1545.97509        51.25009
  22683864.40608 -11878186.44908     -2150.78408        49.31208  22683868.65609
  -9021406.72809     -1675.93509        50.93809
  23291544.50008 -10427469.26208     -3198.33708        44.50008  23291551.62508
  -7891528.72308     -2492.21108        48.43808
  22306653.25008 -14734026.75808      2272.92008        43.93808  22306655.00008
 -11246953.38008      1771.10608        47.25008
  23374506.62508  -8206343.64908      2942.60508        46.31208  23374509.68808
  -6160708.64208      2292.93908        48.31208
  20815648.00009 -22781700.14409     -1886.42609        54.50009  20815650.81209
 -17517350.79709     -1469.94209        56.62509
 25  3  7  1  7 30.0000000  0  9G01G02G03G08G10G27G28G31G32
  22487317.71908 -12406321.10008      2918.77208        43.56208  22487318.68808
  -9432892.90208      2274.36808        45.87508
  21010269.09408 -19790283.54808      2379.39008        47.31208  21010268.25008
 -15181443.66008      1854.07008        49.81208
  24118922.93808  -3330835.86508      2277.61008        41.06208  24118928.78108
  -2362135.78408      1774.76108        45.68808
  22188524.56208 -14132575.73008     -1997.30708        47.62508  22188529.50009
 -10777828.57309     -1556.34309        51.12509
  22696152.56208 -11813612.18508     -2153.92608        49.25008  22696157.12509
  -8971089.21609     -1678.38409        50.93809
  23309814.96908 -10331458.02208     -3202.37108        44.00008  23309822.50008
  -7816715.06308     -2495.35408        49.25008
  22293713.84408 -14802021.92908      2260.24708        43.81208  22293715.87508
 -11299936.56708      1761.23108        47.25008
  23357721.03108  -8294553.28208      2938.24708        46.50008  23357723.21908
  -6229443.27708      2289.54308        47.43808
  20826457.03109 -22724902.31209     -1899.93909        54.93809  20826459.12509
 -17473092.79109     -1480.47209        56.68809
 25  3  7  1  8  0.0000000  0  9G01G02G03G08G10G27G28G31G32
  22470672.87508 -12493790.35108      2912.60308        43.56208  22470674.75008
  -9501050.71408      2269.56008        46.18808
  20996727.87508 -19861442.77308      2364.56108        47.37508  20996726.81208
 -15236892.39208      1842.51508        49.62508
  24105923.00008  -3399153.45808      2277.03108        41.87508  24105928.43808
  -2415370.16108      1774.31008        46.31208
  22199965.18808 -14072455.01008     -2010.58108        47.56208  22199970.15609
 -10730981.36509     -1566.68709        50.93809
  22708457.84408 -11748946.33708     -2156.99508        48.81208  22708462.59409
  -8920700.34209     -1680.77509        50.87509
  23328106.62508 -10235336.45308     -3205.79808        45.12508  23328114.31208
  -7741815.40608     -2498.02508        49.37508
  22280848.00008 -14869632.30308      2247.29508        43.93808  22280850.09408
 -11352619.92908      1751.13908        47.25008
  23340959.90608  -8382632.04408      2933.81108        46.50008  23340962.90608
  -6298075.95008      2286.08608        47.87508
  20837341.68809 -22667700.86509     -1913.51109        54.62509  20837344.28109
 -17428520.28309     -1491.04709        56.56209
 25  3  7  1  8 30.0000000  0  9G01G02G03G08G10G27G28G31G32
  22454063.53108 -12581073.71008      2906.34508        44.12508  22454064.59408
  -9569063.67308      2264.68508        46.31208
  20983271.59408 -19932156.89608      2349.76108        47.50008  20983270.34408
 -15291994.27908      1830.98208        49.75008
  24092927.40608  -3467450.10308      2276.11808        43.75008  24092932.09408
  -2468588.22108      1773.59908        45.87508
  22211481.65608 -14011938.79908     -2023.72808        48.00008  22211486.59409
 -10683825.99109     -1576.93109        51.37509
  22720780.40608 -11684188.94508     -2160.04608        48.62508  22720785.43809
  -8870240.14709     -1683.15309        51.00009
  23346417.90608 -10139107.58508     -3209.35108        44.62508  23346425.53108
  -7666832.12408     -2500.79308        48.37508
  22268055.93808 -14936855.00308      2234.31208        44.18808  22268057.90608
 -11405001.19608      1741.02208        47.37508
  23324223.75008  -8470576.59408      2929.27708        46.18808  23324227.78108
  -6366604.02708      2282.55408        48.81208
  20848303.50009 -22610098.11209     -1926.68509        54.93809  20848305.96909
 -17383635.06509     -1501.31309        56.75009
 25  3  7  1  9  0.0000000  0  9G01G02G03G08G10G27G28G31G32
  22437489.87508 -12668168.99708      2899.92708        44.06208  22437491.00008
  -9636930.10608      2259.68308        46.06208
  20969900.12508 -20002423.05408      2334.61708        47.18808  20969899.12508
 -15346747.11908      1819.18208        49.50008
  24079934.25008  -3535726.18208      2275.57408        43.25008  24079939.34408
  -2521790.30708      1773.17408        45.56208
  22223072.43808 -13951030.05408     -2036.80408        47.87508  22223077.09409
 -10636364.74909     -1587.12009        51.18809
  22733121.40608 -11619340.24108     -2163.14508        48.75008  22733126.53109
  -8819708.79509     -1685.56709        51.18809
  23364748.59408 -10042774.63408     -3212.93208        42.56208  23364756.68808
  -7591767.76708     -2503.58308        47.56208
  22255338.09408 -15003687.35008      2221.26508        44.12508  22255339.75008
 -11457078.30308      1730.85608        47.06208
  23307514.93808  -8558384.50008      2924.51908        46.50008  23307518.59408
  -6435025.61708      2278.84608        48.68808
  20859340.62509 -22552096.58309     -1940.06809        54.87509  20859343.21909
 -17338439.12109     -1511.74209        56.50009
 25  3  7  1  9 30.0000000  0  9G01G02G03G08G10G27G28G31G32
  22420952.65608 -12755073.79508      2893.67208        44.25008  22420953.09408
  -9704648.08108      2254.80908        46.12508
  20956614.71908 -20072238.44708      2319.69008        47.25008  20956614.00008
 -15401148.68808      1807.55108        50.00008
  24066945.00008  -3603981.75408      2274.96608        42.37508  24066951.09408
  -2574976.38508      1772.70108        46.31208
  22234737.28108 -13889731.48608     -2049.92208        47.81208  22234742.78109
 -10588599.75209     -1597.34209        52.00009
  22745479.09408 -11554400.24608     -2166.16908        48.62508  22745483.65609
  -8769106.30909     -1687.92409        51.18809
  23383101.46908  -9946340.70208     -3216.06908        44.50008  23383108.53108
  -7516624.71008     -2506.02808        48.43808
  22242695.00008 -15070126.46408      2208.11308        44.00008  22242697.09408
 -11508848.99008      1720.60708        47.37508
  23290832.62508  -8646052.83208      2920.00708        47.06208  23290835.40608
  -6503338.46308      2275.33008        48.75008
  20870453.21909 -22493698.56809     -1953.12709        54.43809  20870456.06209
 -17292934.21709     -1521.91709        56.68809
 25  3  7  1 10  0.0000000  0  9G01G02G03G08G10G27G28G31G32
  22404451.46908 -12841786.01308      2887.26108        44.06208  22404452.21908
  -9772215.99608      2249.81308        46.37508
  20943416.00008 -20141600.38008      2304.47308        47.37508  20943414.65608
 -15455196.93508      1795.69308        50.00008
  24053959.81208  -3672217.22008      2274.19408        41.62508  24053965.46908
  -2628146.80608      1772.09908        46.25008
  22246475.46908 -13828046.21008     -2062.56308        47.43808  22246480.84409
 -10540533.42209     -1607.19209        51.62509
  22757854.25008 -11489369.25408     -2169.22608        48.87508  22757859.12509
  -8718432.93809     -1690.30609        51.25009
  23401471.53108  -9849809.17008     -3219.34808        44.93808  23401478.37508
  -7441405.60208     -2508.58308        48.75008
  22230127.40608 -15136169.84308      2194.85108        44.06208  22230129.37508
 -11560311.33108      1710.27408        47.50008
  23274175.96908  -8733579.18208      2915.21708        46.31208  23274179.43808
  -6571540.69208      2271.59808        48.50008
  20881641.46909 -22434906.72009     -1966.23809        54.62509  20881643.68809
 -17247122.44409     -1532.13309        56.43809
 25  3  7  1 10 30.0000000  0  9G01G02G03G08G10G27G28G31G32
  22387987.37508 -12928303.01808      2880.62708        44.18808  22387988.78108
  -9839631.80408      2244.64508        46.62508
  20930303.28108 -20210505.99108      2289.23808        47.43808  20930302.28109
 -15508889.58909      1783.82209        50.12509
  24040978.65608  -3740432.58508      2273.57908        41.18808  24040985.56208
  -2681301.52608      1771.62008        46.93808
  22258286.18808 -13765976.78708     -2075.45208        46.93808  22258291.71909
 -10492167.76209     -1617.23509        51.12509
  22770246.68808 -11424247.21008     -2172.23908        48.31208  22770251.43809
  -8667688.56409     -1692.65409        51.12509
  23419858.06208  -9753182.92008     -3222.46608        43.37508  23419866.37508
  -7366112.69708     -2511.01208        48.93808
  22217635.43808 -15201814.47308      2181.41408        44.12508  22217637.71908
 -11611462.95008      1699.80308        47.50008
  23257547.65608  -8820960.10308      2910.39308        46.31208  23257550.93808
  -6639629.57808      2267.83908        48.43808
  20892903.40609 -22375723.26209     -1979.32609        54.50009  20892905.84409
 -17201005.50409     -1542.33209        56.31209
 25  3  7  1 11  0.0000000  0  9G01G02G03G08G10G27G28G31G32
  22371561.71908 -13014622.72308      2873.93308        44.68808  22371562.81208
  -9906893.85408      2239.42808        46.81208
  20917278.34408 -20278952.56008      2273.87908        47.43808  20917277.59409
 -15562224.55109      1771.85409        50.12509
  24028002.34408  -3808628.16108      2272.79508        42.68808  24028008.46908
  -2734440.85608      1771.00908        47.75008
  22270170.62508 -13703526.50108     -2087.98608        47.31208  22270175.65609
 -10443505.30409     -1627.00209        50.81209
  22782656.15608 -11359034.30908     -2175.34208        48.62508  22782661.00009
  -8616873.44309     -1695.07209        50.81209
  23438263.71908  -9656465.22408     -3225.54008        43.93808  23438271.03108
  -7290748.57108     -2513.40708        48.62508
  22205220.03108 -15267057.80408      2168.00808        44.31208  22205222.40608
 -11662301.86508      1689.35708        47.87508
  23240948.31208  -8908193.15008      2905.28108        47.06208  23240951.15608
  -6707603.25908      2263.85508        48.81208
  20904239.84409 -22316150.77209     -1992.19209        54.50009  20904242.56209
 -17154585.44409     -1552.35809        56.62509
 25  3  7  1 11 30.0000000  0  9G01G02G03G08G10G27G28G31G32
  22355173.84408 -13100742.50008      2867.42208        44.62508  22355174.90608
  -9974000.12308      2234.35508        46.62508
  20904341.53108 -20346936.77508      2258.66508        47.50008  20904340.34409
 -15615199.23909      1759.99809        50.12509
  24015029.43808  -3876803.81808      2272.26308        43.75008  24015034.37508
  -2787564.65608      1770.59508        46.68808
  22282126.81208 -13640697.57608     -2100.42008        47.37508  22282132.00009
 -10394547.82009     -1636.69109        51.12509
  22795083.37508 -11293730.43108     -2178.14208        48.18808  22795088.62509
  -8565987.42409     -1697.25409        51.31209
  23456684.78108  -9559659.05208     -3228.20108        43.68808  23456693.25008
  -7215315.46608     -2515.48108        48.68808
  22192881.75008 -15331896.84908      2154.70208        44.18808  22192883.96908
 -11712825.74908      1678.98908        47.75008
  23224377.03108  -8995275.20408      2900.31208        47.00008  23224380.37508
  -6775459.26408      2259.98408        49.31208
  20915649.62509 -22256191.42909     -2004.87809        54.31209  20915652.21909
 -17107863.92409     -1562.24309        56.25009
 25  3  7  1 12  0.0000000  0  9G01G02G03G08G10G27G28G31G32
  22338823.56208 -13186660.23708      2860.61008        44.50008  22338824.81208
 -10040948.95308      2229.04708        46.75008
  20891493.15608 -20414456.19808      2242.82208        47.56208  20891491.90609
 -15667811.75709      1747.65409        50.12509
  24002059.25008  -3944959.93908      2271.44808        43.62508  24002064.34408
  -2840673.28608      1769.95908        45.75008
  22294154.00008 -13577493.32008     -2113.03008        47.25008  22294159.53109
 -10345297.86009     -1646.51709        51.18809
  22807527.53108 -11228335.81808     -2181.41608        48.12508  22807532.50009
  -8515030.70309     -1699.80509        50.87509
  23475122.90608  -9462767.69208     -3231.28408        43.81208  23475130.71908
  -7139815.99408     -2517.88408        48.06208
  22180620.37508 -15396329.06808      2140.90608        44.31208  22180622.87508
 -11763032.63708      1668.23808        47.81208
  23207835.25008  -9082203.42108      2894.90008        46.87508  23207838.18808
  -6843195.39808      2255.76608        49.00008
  20927132.78109 -22195847.87509     -2017.82709        54.43809  20927135.28109
 -17060843.01709     -1572.33309        56.06209
 25  3  7  1 12 30.0000000  0  9G01G02G03G08G10G27G28G31G32
  22322513.12508 -13272373.51508      2853.81608        44.75008  22322514.15608
 -10107738.46608      2223.75308        47.00008
  20878733.18808 -20481507.95308      2227.29208        47.43808  20878732.15609
 -15720059.85909      1735.55309        50.12509
  23989093.31208  -4013096.61008      2270.83708        43.00008  23989098.53108
  -2893766.72808      1769.48408        45.68808
  22306252.25008 -13513916.55608     -2125.41308        47.12508  22306258.09409
 -10295757.66609     -1656.16609        51.25009
  22819989.50008 -11162850.51608     -2184.46308        48.56208  22819994.06209
  -8464003.30609     -1702.17909        50.87509
  23493576.71908  -9365794.21708     -3233.69108        43.68808  23493584.59408
  -7064252.52708     -2519.76008        47.50008
  22168437.46908 -15460351.74108      2127.22708        44.37508  22168440.12508
 -11812920.39608      1657.57908        47.93808
  23191322.68808  -9168975.24908      2889.74608        46.75008  23191325.40608
  -6910809.68008      2251.75008        48.62508
  20938688.31209 -22135122.50609     -2030.50309        54.18809  20938691.15609
 -17013524.61209     -1582.21009        56.25009
 25  3  7  1 13  0.0000000  0  9G01G02G03G08G10G27G28G31G32
  22306241.96908 -13357879.91808      2846.67708        44.81208  22306242.59408
 -10174366.81408      2218.19008        46.93808
  20866063.15608 -20548089.21308      2211.44808        47.31208  20866062.18809
 -15771941.35109      1723.20609        50.18809
  23976129.25008  -4081214.08608      2270.23408        40.12508  23976136.09408
  -2946845.19408      1769.01408        46.18808
  22318421.31208 -13449970.19908     -2137.76908        47.31208  22318426.40609
 -10245929.47609     -1665.79409        51.12509
  22832468.43808 -11097274.59708     -2187.32908        48.62508  22832472.62509
  -8412905.30709     -1704.41209        50.68809
  23512045.96908  -9268741.69008     -3236.57208        43.93808  23512053.34408
  -6988627.46308     -2522.00408        48.12508
  22156332.81208 -15523962.13708      2113.36908        44.25008  22156335.18808
 -11862486.91308      1646.78108        47.93808
  23174840.65608  -9255587.69008      2884.35308        46.68808  23174843.59408
  -6978299.77808      2247.54808        48.68808
  20950316.28109 -22074017.72709     -2043.19809        54.25009  20950318.81209
 -16965910.56309     -1592.10309        55.81209
 25  3  7  1 13 30.0000000  0  9G01G02G03G08G10G27G28G31G32
  22290010.34408 -13443177.20508      2839.73608        44.81208  22290011.46908
 -10240832.16308      2212.78108        47.37508
  20853483.21908 -20614197.26208      2195.70608        47.50008  20853482.03109
 -15823454.08409      1710.93909        50.31209
  23963171.71908  -4149312.50408      2269.75108        42.43808  23963177.43808
  -2999908.79808      1768.63708        46.93808
  22330659.93808 -13385657.25508     -2149.81708        47.50008  22330664.75009
 -10195815.60809     -1675.18209        50.93809
  22844963.71908 -11031608.22108     -2190.47608        48.43808  22844968.93809
  -8361736.83909     -1706.86509        50.93809
  23530528.31208  -9171613.41608     -3238.91608        43.12508  23530537.75008
  -6912943.40208     -2523.83108        49.50008
  22144307.25008 -15587157.67408      2099.64608        44.50008  22144309.40608
 -11911730.13908      1636.08808        48.06208
  23158390.28108  -9342038.04808      2878.92808        47.18808  23158392.93808
  -7045663.56108      2243.32108        49.25008
  20962016.37509 -22012536.13109     -2055.54709        54.81209  20962018.75009
 -16918002.86509     -1601.72509        56.18809
 25  3  7  1 14  0.0000000  0  9G01G02G03G08G10G27G28G31G32
  22273819.06208 -13528262.78308      2832.64608        44.81208  22273819.90608
 -10307132.56808      2207.25708        46.87508
  20840994.09408 -20679829.23908      2179.72908        47.75008  20840992.90609
 -15874595.87209      1698.49009        50.25009
  23950217.15608  -4217391.75708      2268.96708        43.62508  23950222.09408
  -3052957.50608      1768.02608        47.18808
  22342967.56208 -13320980.44908     -2161.94308        47.31208  22342972.37509
 -10145418.22509     -1684.63109        50.75009
  22857476.96908 -10965851.27108     -2193.46708        48.43808  22857482.00009
  -8310497.75809     -1709.19509        51.00009
  23549025.00008  -9074412.17008     -3241.28408        42.68808  23549034.40608
  -6837202.51008     -2525.67608        48.62508
  22132360.96908 -15649935.46908      2085.75708        44.68808  22132362.78108
 -11960647.84508      1625.26508        47.81208
  23141970.31208  -9428323.40708      2873.35008        47.06208  23141973.18808
  -7112898.76808      2238.97408        49.18808
  20973786.96909 -21950679.88109     -2068.08809        54.25009  20973789.62509
 -16869803.26309     -1611.49709        56.06209
 25  3  7  1 14 30.0000000  0  9G01G02G03G08G10G27G28G31G32
  22257668.31208 -13613134.48408      2825.54008        44.68808  22257669.71908
 -10373266.31908      2201.71908        47.06208
  20828596.06208 -20744982.33608      2163.84308        47.56208  20828594.87509
 -15925364.49209      1686.11109        50.43809
  23937265.87508  -4285452.28208      2268.66508        43.87508  23937271.53108
  -3105991.59308      1767.79108        48.37508
  22355343.53108 -13255942.90308     -2173.72608        46.68808  22355349.06209
 -10094739.74709     -1693.81209        50.75009
  22870007.28108 -10900003.96808     -2196.46708        48.25008  22870012.93809
  -8259188.30109     -1711.53309        51.00009
  23567536.59408  -8977141.37308     -3243.30108        44.12508  23567543.15608
  -6761407.35708     -2527.24708        46.31208
  22120494.59408 -15712293.06308      2071.63608        44.62508  22120496.56208
 -12009238.14608      1614.26208        47.87508
  23125582.34408  -9514440.90808      2867.95408        46.68808  23125585.62508
  -7180003.17508      2234.77008        49.31208
  20985628.62509 -21888451.66509     -2080.31709        54.62509  20985631.12509
 -16821313.79409     -1621.02609        55.87509
 25  3  7  1 15  0.0000000  0  9G01G02G03G08G10G27G28G31G32
  22241559.12508 -13697790.09408      2818.41108        45.06208  22241560.03108
 -10439231.68208      2196.16408        47.31208
  20816289.40608 -20809654.18208      2147.81708        47.68808  20816288.21909
 -15975758.13009      1673.62409        50.37509
  23924317.75008  -4353494.33108      2267.82508        43.81208  23924322.90608
  -3159011.30608      1767.13608        47.50008
  22367788.18808 -13190547.77908     -2185.63008        47.31208  22367793.56209
 -10043782.64809     -1703.08809        50.68809
  22882555.37508 -10834066.59508     -2199.29908        48.75008  22882560.00009
  -8207808.64109     -1713.74009        50.62509
  23586058.12508  -8879804.24308     -3245.73508        42.62508  23586066.56208
  -6685560.52108     -2529.14408        46.81208
  22108708.87508 -15774228.00208      2057.50208        45.06208  22108710.81208
 -12057499.09408      1603.24908        48.00008
  23109227.15608  -9600387.94508      2862.03408        47.12508  23109230.15608
  -7246974.78408      2230.15608        49.06208
  20997540.71909 -21825854.10009     -2092.60309        54.93809  20997543.34409
 -16772536.53909     -1630.59909        56.25009
 25  3  7  1 15 30.0000000  0  9G01G02G03G08G10G27G28G31G32
  22225491.15608 -13782226.96908      2810.76708        44.43808  22225491.93808
 -10505026.59608      2190.20808        47.12508
  20804074.53108 -20873841.95808      2131.42308        47.56208  20804073.62509
 -16025774.55909      1660.84909        50.43809
  23911372.40608  -4421517.81508      2267.01708        42.06208  23911377.65608
  -3212016.52208      1766.50608        46.31208
  22380300.50008 -13124797.72508     -2197.64208        47.37508  22380305.43809
  -9992548.96109     -1712.44809        50.56209
  22895119.75008 -10768038.86508     -2202.48508        48.37508  22895125.06209
  -8156358.57909     -1716.22209        50.68809
  23604593.87508  -8782403.54008     -3248.06908        42.50008  23604602.46908
  -6609664.18708     -2530.96308        48.25008
  22097003.96908 -15835737.39208      2043.18108        44.75008  22097005.90608
 -12105428.43108      1592.08908        48.06208
  23092905.25008  -9686161.17408      2856.07908        47.25008  23092907.84408
  -7313810.94708      2225.51608        49.18808
  21009522.37509 -21762889.33209     -2105.08309        54.37509  21009524.59409
 -16723473.13409     -1640.32409        55.62509
 25  3  7  1 16  0.0000000  0  9G01G02G03G08G10G27G28G31G32
  22209465.15608 -13866442.75508      2803.61308        44.75008  22209466.28108
 -10570649.23908      2184.63408        47.12508
  20791952.56208 -20937542.59408      2115.31208        47.62508  20791951.65609
 -16075411.41509      1648.29509        50.25009
  23898430.96908  -4489522.93808      2266.47008        42.31208  23898435.87508
  -3265007.44908      1766.08008        45.12508
  22392879.15608 -13058695.77808     -2209.10608        47.43808  22392884.62509
  -9941041.07909     -1721.38209        50.56209
  22907702.18808 -10701920.92908     -2205.29508        48.81208  22907707.37509
  -8104838.22109     -1718.41209        50.68809
  23623140.31208  -8684942.51908     -3249.60908        43.37508  23623149.18808
  -6533720.88308     -2532.16308        48.37508
  22085380.43808 -15896818.63808      2029.11408        44.93808  22085382.25008
 -12153024.16608      1581.12808        47.68808
  23076616.46908  -9771758.29108      2850.44708        47.25008  23076619.03108
  -7380509.87708      2221.12708        48.93808
  21021573.78109 -21699559.91109     -2116.97309        54.75009  21021576.50009
 -16674125.59209     -1649.58909        55.81209
 25  3  7  1 16 30.0000000  0  9G01G02G03G08G10G27G28G31G32
  22193482.03108 -13950434.93508      2795.99908        44.18808  22193483.12508
 -10636097.64908      2178.70008        47.50008
  20779924.46908 -21000753.41708      2098.75208        47.56208  20779923.09409
 -16124666.58309      1635.39109        50.62509
  23885494.00008  -4557509.64308      2265.78608        42.62508  23885499.31208
  -3317984.06508      1765.54808        46.31208
  22405524.37508 -12992244.78608     -2221.02508        46.81208  22405529.93809
  -9889261.22209     -1730.66909        50.93809
  22920300.56208 -10635712.74808     -2208.59408        48.18808  22920305.21909
  -8053247.56409     -1720.98209        50.12509
  23641698.28108  -8587424.09908     -3251.70408        44.00008  23641706.03108
  -6457732.79908     -2533.79508        47.43808
  22073839.06208 -15957469.04108      2014.45608        44.56208  22073840.53108
 -12200284.18208      1569.70608        48.06208
  23060361.78108  -9857176.23108      2844.21408        46.93808  23060364.43808
  -7447069.19808      2216.27108        49.56208
  21033694.21909 -21635868.15809     -2129.18209        54.87509  21033696.37509
 -16624495.71409     -1659.10309        55.75009
 25  3  7  1 17  0.0000000  0  9G01G02G03G08G10G27G28G31G32
  22177541.65608 -14034201.47108      2788.31808        44.50008  22177543.06208
 -10701370.23008      2172.71508        47.43808
  20767989.37508 -21063472.14508      2082.41208        47.87508  20767988.18809
 -16173538.31109      1622.65909        50.56209
  23872560.81208  -4625478.46708      2265.28608        44.06208  23872565.15608
  -3370946.69208      1765.15808        47.37508
  22418235.37508 -12925448.12608     -2232.32708        46.81208  22418240.96909
  -9837212.01609     -1739.47509        50.81209
  22932917.12508 -10569414.69208     -2211.53108        48.75008  22932922.71909
  -8001586.86909     -1723.27109        51.18809
  23660264.25008  -8489851.76008     -3253.05708        41.56208  23660273.62508
  -6381702.69308     -2534.84908        46.00008
  22062379.93808 -16017686.38108      1999.90508        44.81208  22062381.81208
 -12247206.73608      1558.36708        48.06208
  23044141.81208  -9942412.35408      2838.07108        47.31208  23044144.75008
  -7513486.85208      2211.48408        49.62508
  21045882.40609 -21571816.92709     -2141.04709        54.56209  21045885.06209
 -16574585.71509     -1668.34909        55.93809
 25  3  7  1 17 30.0000000  0  9G01G02G03G08G10G27G28G31G32
  22161644.81208 -14117739.56908      2780.74508        44.56208  22161646.00008
 -10766464.79908      2166.81408        47.62508
  20756148.62508 -21125695.52208      2065.76408        47.81208  20756147.31209
 -16222024.04709      1609.68609        50.62509
  23859629.59408  -4693429.06308      2264.67308        43.62508  23859634.59408
  -3423895.13408      1764.68008        47.75008
  22431011.53108 -12858308.38408     -2243.68408        46.81208  22431017.18809
  -9784895.47009     -1748.32509        50.62509
  22945550.25008 -10503026.42308     -2214.42108        48.31208  22945556.03109
  -7949855.87109     -1725.52309        51.12509
  23678842.81208  -8392228.04508     -3255.00208        42.68808  23678850.78108
  -6305632.57908     -2536.36508        46.06208
  22051003.78108 -16077467.68408      1985.34908        44.87508  22051005.68808
 -12293789.51708      1547.02508        48.00008
  23027957.03108 -10027463.77308      2831.97508        47.43808  23027959.93808
  -7579760.57508      2206.73408        49.81208
  21058139.31209 -21507408.24309     -2152.92209        55.00009  21058141.81209
 -16524397.18709     -1677.60209        56.12509
 25  3  7  1 18  0.0000000  0  9G01G02G03G08G10G27G28G31G32
  22145792.03108 -14201047.11508      2772.91708        44.81208  22145793.03108
 -10831379.72808      2160.71508        47.75008
  20744402.46908 -21187421.09008      2049.22608        47.68808  20744401.34409
 -16270121.87009      1596.80009        50.68809
  23846701.75008  -4761361.90508      2264.13108        42.93808  23846707.90608
  -3476829.74208      1764.25808        48.06208
  22443853.21908 -12790828.85508     -2254.94908        47.06208  22443858.31209
  -9732314.17409     -1757.10309        50.62509
  22958200.34408 -10436548.28108     -2217.45408        47.62508  22958206.06209
  -7898054.85909     -1727.88609        50.81209
  23697429.87508  -8294556.53808     -3256.30408        44.06208  23697438.75008
  -6229525.20408     -2537.37908        48.12508
  22039711.12508 -16136810.68608      1970.88908        44.68808  22039713.09408
 -12340030.76908      1535.75708        48.25008
  23011807.62508 -10112327.69808      2825.60808        47.25008  23011810.46908
  -7645888.20808      2201.77208        49.62508
  21070462.87509 -21442644.88609     -2164.56809        54.56209  21070465.87509
 -16473932.28809     -1686.67609        55.87509
 25  3  7  1 18 30.0000000  0  9G01G02G03G08G10G27G28G31G32
  22129983.40608 -14284121.46908      2765.25608        44.68808  22129984.53108
 -10896112.93108      2154.74508        47.43808
  20732751.53108 -21248646.11708      2032.49008        47.43808  20732750.62509
 -16317829.65909      1583.75909        50.31209
  23833778.28108  -4829276.88508      2263.58608        43.25008  23833783.56208
  -3529750.40208      1763.83408        47.56208
  22456758.00008 -12723012.35308     -2266.25708        47.06208  22456763.15609
  -9679470.27209     -1765.91509        50.06209
  22970869.06208 -10369980.04908     -2220.49308        48.56208  22970874.43809
  -7846183.63009     -1730.25409        50.93809
  23716024.40608  -8196839.92508     -3257.93008        43.31208  23716033.75008
  -6153382.72908     -2538.64608        48.31208
  22028502.56208 -16195712.59608      1955.86908        44.62508  22028504.18808
 -12385928.31108      1524.05408        47.75008
  22995694.71908 -10197001.05708      2819.17708        47.18808  22995697.50008
  -7711867.34908      2196.76108        49.37508
  21082854.34409 -21377529.08509     -2176.37509        54.56209  21082856.90609
 -16423192.74809     -1695.87609        55.62509
 25  3  7  1 19  0.0000000  0  9G01G02G03G08G10G27G28G31G32
  22114219.84408 -14366960.43408      2757.10908        44.93808  22114220.90608
 -10960662.74008      2148.39708        47.68808
  20721196.46908 -21309368.19608      2015.56208        47.56208  20721195.06209
 -16365145.55309      1570.56709        50.37509
  23820857.78108  -4897174.33308      2262.89808        43.18808  23820861.90608
  -3582657.41308      1763.29708        46.18808
  22469726.93808 -12654862.12208     -2277.27508        47.06208  22469732.37509
  -9626366.34109     -1774.50009        50.43809
  22983553.68808 -10303322.03308     -2223.62108        48.12508  22983558.09409
  -7794242.44309     -1732.69109        50.31209
  23734626.56208  -8099081.52008     -3259.32108        41.81208  23734636.46908
  -6077207.69308     -2539.73108        47.25008
  22017378.18808 -16254171.18008      1941.16208        44.62508  22017379.81208
 -12431480.41308      1512.59408        47.93808
  22979618.71908 -10281481.15008      2812.66608        47.37508  22979621.65608
  -7777695.89908      2191.68808        49.87508
  21095312.18809 -21312063.54709     -2188.12509        54.68809  21095314.62509
 -16372180.70309     -1705.03209        55.68809
 25  3  7  1 19 30.0000000  0  9G01G02G03G08G10G27G28G31G32
  22098501.18808 -14449561.41508      2749.51208        44.87508  22098502.03108
 -11025027.08308      2142.47708        47.68808
  20709738.03108 -21369584.30808      1998.80908        47.68808  20709736.78109
 -16412067.17809      1557.51309        50.50009
  23807941.00008  -4965054.15908      2262.45808        43.87508  23807945.18808
  -3635550.70808      1762.95508        46.06208
  22482758.12508 -12586381.01008     -2288.12508        46.56208  22482764.00009
  -9573004.56309     -1782.95509        50.50009
  22996255.06208 -10236574.06108     -2226.42308        47.81208  22996260.03109
  -7742231.17209     -1734.87509        50.25009
  23753238.18808  -8001284.21008     -3260.67108        42.62508  23753246.15608
  -6001002.31508     -2540.78308        45.81208
  22006338.40608 -16312183.69408      1926.32108        44.56208  22006340.43808
 -12476684.90808      1501.02908        48.06208
  22963580.09408 -10365765.46808      2806.20808        47.62508  22963582.75008
  -7843371.87708      2186.65608        49.93808
  21107836.12509 -21246250.57609     -2199.50209        54.81209  21107838.78109
 -16320897.90409     -1713.89809        56.00009
 25  3  7  1 20  0.0000000  0  9G01G02G03G08G10G27G28G31G32
  22082828.71908 -14531922.16108      2741.34308        45.06208  22082829.56208
 -11089204.25008      2136.11108        47.62508
  20698376.34408 -21429292.00408      1981.80908        47.81208  20698374.81209
 -16458592.65509      1544.26709        50.50009
  23795027.56208  -5032916.60408      2262.04808        44.68808  23795031.93808
  -3688430.48908      1762.63508        46.81208
  22495852.12508 -12517572.16808     -2298.96008        46.50008  22495858.28109
  -9519387.43809     -1791.39709        50.43809
  23008974.68808 -10169736.30408     -2229.29708        48.62508  23008979.00008
  -7690149.94208     -1737.11508        50.00008
  23771855.62508  -7903451.20808     -3261.52108        43.50008  23771862.71908
  -5924769.09708     -2541.44508        44.68808
  21995384.71908 -16369747.80208      1911.35708        44.75008  21995386.25008
 -12521540.02708      1489.36908        47.87508
  22947578.81208 -10449851.00908      2799.58708        47.56208  22947581.65608
  -7908893.00408      2181.49708        49.75008
  21120425.34409 -21180092.77009     -2210.85709        54.43809  21120428.00009
 -16269346.43009     -1722.74609        55.50009
 25  3  7  1 20 30.0000000  0  9G01G02G03G08G10G27G28G31G32
  22067202.18808 -14614040.28808      2733.13008        45.37508  22067202.81208
 -11153192.35608      2129.71208        47.75008
  20687111.59408 -21488488.70608      1964.71908        47.81208  20687110.06209
 -16504719.93409      1530.95009        50.68809
  23782116.56208  -5100761.79708      2261.24808        44.56208  23782120.87508
  -3741296.80008      1762.01108        47.31208
  22509008.12508 -12448438.75008     -2309.75308        46.81208  22509014.00009
  -9465517.39009     -1799.80809        50.68809
  23021709.96908 -10102808.82608     -2232.37308        47.93808  23021715.15609
  -7637998.78509     -1739.51109        50.31209
  23790478.96908  -7805585.64308     -3262.63908        44.18808  23790487.15608
  -5848510.49608     -2542.31608        46.68808
  21984516.43808 -16426861.06608      1896.25008        44.87508  21984517.96908
 -12566043.82208      1477.59708        48.06208
  22931615.96908 -10533735.13008      2792.80808        47.62508  22931619.03108
  -7974257.16408      2176.21408        49.81208
  21133079.56209 -21113592.66909     -2222.28809        54.37509  21133082.75009
 -16217528.22009     -1731.65309        55.81209
 25  3  7  1 21  0.0000000  0  9G01G02G03G08G10G27G28G31G32
  22051622.15608 -14695913.10908      2724.93208        45.37508  22051622.78108
 -11216989.32108      2123.32308        47.68808
  20675944.15608 -21547171.65208      1947.40008        47.75008  20675942.96909
 -16550446.89109      1517.45409        50.68809
  23769209.18808  -5168589.64008      2260.70808        44.50008  23769214.28108
  -3794149.58208      1761.59108        48.12508
  22522225.00008 -12378983.52908     -2320.53508        46.93808  22522231.28109
  -9411396.58709     -1808.20909        50.81209
  23034463.37508 -10035791.39308     -2235.59108        48.06208  23034468.68809
  -7585777.57109     -1742.01909        50.43809
  23809107.09408  -7707690.24308     -3263.84008        42.56208  23809116.93808
  -5772228.70208     -2543.25208        47.50008
  21973734.28108 -16483520.78108      1881.06208        45.06208  21973736.46908
 -12610194.20708      1465.76308        48.31208
  22915692.15608 -10617414.79708      2785.81308        47.75008  22915694.87508
  -8039462.00408      2170.76308        49.81208
  21145799.15609 -21046752.47909     -2233.69109        54.56209  21145801.87509
 -16165445.01409     -1740.53909        55.68809
 25  3  7  1 21 30.0000000  0  9G01G02G03G08G10G27G28G31G32
  22036089.15608 -14777538.29608      2716.61408        45.12508  22036090.00008
 -11280593.31608      2116.84208        47.75008
  20664875.18808 -21605338.15208      1930.20008        47.25008  20664874.28109
 -16595771.42009      1504.05209        50.68809
  23756304.40608  -5236400.28708      2259.97308        42.75008  23756310.40608
  -3846988.94308      1761.01808        48.37508
  22535502.43808 -12309209.68008     -2331.01608        46.56208  22535508.03108
  -9357027.50908     -1816.37608        50.00008
  23047233.43808  -9968684.24808     -2238.34508        48.31208  23047238.53109
  -7533486.40709     -1744.16509        50.18809
  23827740.84408  -7609768.11608     -3264.38508        41.68808  23827751.81208
  -5695926.11808     -2543.67708        47.68808
  21963039.18808 -16539724.58508      1865.84208        44.87508  21963040.87508
 -12653989.35008      1453.90308        48.31208
  22899808.00008 -10700887.08808      2778.86708        47.50008  22899810.78108
  -8104505.26508      2165.35108        49.81208
  21158582.75009 -20979574.79209     -2244.89309        54.62509  21158585.34409
 -16113098.81109     -1749.26709        55.50009
 25  3  7  1 22  0.0000000  0  9G01G02G03G08G10G27G28G31G32
  22020603.84408 -14858913.54208      2708.27408        45.00008  22020604.53108
 -11344002.54708      2110.34308        47.68808
  20653905.15608 -21662985.96008      1912.93008        47.25008  20653904.31209
 -16640691.76209      1490.59509        50.93809
  23743403.71908  -5304194.02308      2259.43108        42.62508  23743409.65608
  -3899815.10908      1760.59608        47.75008
  22548840.15608 -12239120.40608     -2341.58708        46.25008  22548846.06208
  -9302412.63408     -1824.61308        50.00008
  23060020.40608  -9901487.36808     -2241.37708        47.75008  23060025.90609
  -7481125.33309     -1746.52709        50.43809
  23846381.31208  -7511822.53208     -3265.04208        43.37508  23846389.06208
  -5619605.20708     -2544.18808        45.43808
  21952431.06208 -16595470.18708      1850.55408        44.68808  21952433.09408
 -12697427.43308      1441.99008        48.37508
  22883963.75008 -10784149.12708      2771.81908        47.75008  22883966.68809
  -8169384.68709      2159.85909        50.12509
  21171429.87509 -20912062.20509     -2255.89409        54.12509  21171432.96909
 -16060491.63709     -1757.83909        55.56209
 25  3  7  1 22 30.0000000  0  9G01G02G03G08G10G27G28G31G32
  22005167.03108 -14940036.25708      2699.85808        45.43808  22005167.93808
 -11407215.01208      2103.78608        48.06208
  20643034.65608 -21720112.22008      1895.60508        47.37508  20643033.53109
 -16685205.71909      1477.09509        50.93809
  23730507.25008  -5371970.63508      2259.04308        44.50008  23730511.87508
  -3952627.98908      1760.29308        47.43808
  22562237.15608 -12168718.63708     -2351.78208        46.31208  22562243.31208
  -9247554.25708     -1832.55808        50.00008
  23072824.87508  -9834200.70608     -2244.36308        47.68808  23072830.40609
  -7428694.31309     -1748.85409        50.12509
  23865023.71908  -7413856.30508     -3265.79108        44.18808  23865031.18808
  -5543268.17308     -2544.77208        44.75008
  21941910.40608 -16650755.02708      1835.28608        44.68808  21941912.21908
 -12740506.49308      1430.09308        48.37508
  22868159.78108 -10867198.69108      2764.82408        47.68808  22868162.59409
  -8234098.55409      2154.40809        50.06209
  21184340.40609 -20844217.02909     -2266.95309        54.12509  21184343.25009
 -16007625.32609     -1766.45709        55.50009
 25  3  7  1 23  0.0000000  0  9G01G02G03G08G10G27G28G31G32
  21989778.50008 -15020903.98508      2691.47708        45.62508  21989779.21908
 -11470228.77908      2097.25508        48.18808
  20632263.59408 -21776714.20508      1878.01808        47.62508  20632262.56209
 -16729311.15909      1463.39009        51.12509
  23717612.87508  -5439730.29408      2258.57708        44.75008  23717616.90608
  -4005427.64908      1759.93008        47.06208
  22575693.15608 -12098007.43208     -2362.01708        46.50008  22575699.87509
  -9192454.78209     -1840.53209        50.75009
  23085645.75008  -9766824.29008     -2247.40008        47.37508  23085651.40609
  -7376193.36409     -1751.22109        50.25009
  23883668.87508  -7315872.44308     -3266.45308        42.56208  23883678.28108
  -5466917.40008     -2545.28808        45.56208
  21931478.31208 -16705576.64508      1819.70908        44.93808  21931480.34408
 -12783224.61608      1417.95508        48.62508
  22852397.00008 -10950032.65408      2757.58308        47.75008  22852399.31209
  -8298644.42009      2148.76609        50.06209
  21197313.81209 -20776041.74509     -2277.88309        54.25009  21197316.65609
 -15954501.78909     -1774.97409        55.68809
 25  3  7  1 23 30.0000000  0  9G01G02G03G08G10G27G28G31G32
  21974438.65608 -15101514.39208      2682.71508        45.43808  21974439.28108
 -11533042.04708      2090.42708        47.62508
  20621593.00008 -21832789.47308      1860.52208        47.62508  20621591.59409
 -16773006.15009      1449.75809        50.68809
  23704721.21908  -5507473.13308      2257.92008        44.06208  23704725.40608
  -4058214.22608      1759.41808        46.06208
  22589207.65608 -12026989.99608     -2372.22408        46.56208  22589214.28109
  -9137116.67309     -1848.48609        50.56209
  23098484.15608  -9699358.14908     -2250.33408        47.31208  23098490.53109
  -7323622.47609     -1753.50709        50.06209
  23902317.68808  -7217874.04308     -3266.77708        42.18808  23902327.53108
  -5390555.35108     -2545.54108        46.50008
  21921134.81208 -16759932.80908      1804.10208        44.81208  21921136.46908
 -12825580.03108      1405.79308        48.06208
  22836676.03108 -11032648.11108      2750.24908        48.06208  22836678.06208
  -8363020.01708      2143.05108        49.43808
  21210349.31209 -20707538.94409     -2288.70609        54.12509  21210352.12509
 -15901123.02809     -1783.40709        55.06209
 25  3  7  1 24  0.0000000  0  9G01G02G03G08G10G27G28G31G32
  21959148.15608 -15181865.04708      2674.15008        45.31208  21959148.84408
 -11595652.89408      2083.75408        47.93808
  20611022.90608 -21888335.74508      1842.79508        47.62508  20611021.59409
 -16816288.95609      1435.94409        51.06209
  23691833.18808  -5575199.26008      2257.22908        43.18808  23691838.12508
  -4110987.75208      1758.88008        47.00008
  22602779.59408 -11955669.40008     -2382.37508        46.62508  22602785.87509
  -9081542.34809     -1856.39609        50.68809
  23111341.00008  -9631802.34908     -2253.22008        48.12508  23111345.87509
  -7270981.73409     -1755.75609        50.06209
  23920968.84408  -7119864.09908     -3267.00908        43.25008  23920978.46908
  -5314184.33208     -2545.72108        47.62508
  21910879.65608 -16813821.12008      1788.59408        44.81208  21910881.75008
 -12867570.88808      1393.70908        48.37508
  22820997.03108 -11115042.35108      2742.89308        48.18808  22820999.12508
  -8427223.25208      2137.31908        50.00008
  21223447.18809 -20638711.05409     -2299.54609        54.43809  21223449.96909
 -15847490.97309     -1791.85409        55.50009
 25  3  7  1 24 30.0000000  0  9G01G02G03G08G10G27G28G31G32
  21943907.96908 -15261953.46108      2665.35608        45.37508  21943908.53108
 -11658059.42208      2076.90108        47.87508
  20600553.84408 -21943350.38508      1825.00508        47.75008  20600552.31209
 -16859157.49809      1422.08209        50.87509
  23678948.56208  -5642908.71908      2256.72608        43.81208  23678953.43808
  -4163748.28908      1758.48808        47.31208
  22616408.78108 -11884048.77408     -2392.34608        46.43808  22616414.78109
  -9025734.23109     -1864.16609        50.12509
  23124212.40608  -9564156.85008     -2256.30608        47.12508  23124218.43808
  -7218271.10808     -1758.16108        49.93808
  23939621.43808  -7021845.64808     -3267.50208        43.56208  23939631.15608
  -5237806.69808     -2546.10608        46.93808
  21900714.84408 -16867239.23608      1772.84708        44.93808  21900716.50008
 -12909195.37608      1381.43908        48.37508
  22805360.21908 -11197212.66208      2735.36908        48.06208  22805362.59409
  -8491251.98709      2131.45609        50.12509
  21236606.03109 -20569560.59509     -2310.27309        54.12509  21236608.90609
 -15793607.55409     -1800.21309        55.00009
 25  3  7  1 25  0.0000000  0  9G01G02G03G08G10G27G28G31G32
  21928717.90608 -15341777.16508      2656.32308        45.31208  21928718.59408
 -11720259.67708      2069.86208        47.93808
  20590186.15608 -21997830.81808      1807.10008        47.43808  20590185.12509
 -16901609.76209      1408.13009        51.00009
  23666067.78108  -5710601.54708      2256.06708        44.25008  23666072.81208
  -4216495.87708      1757.97408        48.75008
  22630094.00008 -11812131.17508     -2402.24908        46.00008  22630099.25008
  -8969694.69608     -1871.88208        49.25008
  23137102.00008  -9496421.70108     -2259.24608        46.62508  23137108.56209
  -7165490.58609     -1760.45109        50.31209
  23958275.03108  -6923821.70108     -3267.57108        43.06208  23958284.09408
  -5161424.69308     -2546.15908        44.18808
  21890640.00008 -16920184.78608      1756.99208        45.06208  21890641.37508
 -12950451.61408      1369.08508        48.56208
  22789766.71908 -11279156.33008      2727.59808        47.93808  22789769.15609
  -8555104.11609      2125.40109        50.31209
  21249826.03109 -20500089.98109     -2321.02109        54.00009  21249828.46909
 -15739474.66709     -1808.58709        54.81209
 25  3  7  1 25 30.0000000  0  9G01G02G03G08G10G27G28G31G32
  21913578.50008 -15421333.69408      2647.47808        45.06208  21913579.34408
 -11782251.72908      2062.97008        47.43808
  20579921.46908 -22051774.44808      1789.22908        47.56208  20579920.12509
 -16943643.75009      1394.20409        50.75009
  23653188.84408  -5778277.68608      2255.60308        43.93808  23653193.84408
  -4269230.44308      1757.61308        47.93808
  22643835.56208 -11739919.72208     -2411.83308        46.00008  22643841.37508
  -8913426.17508     -1879.35108        49.12508
  23150009.62508  -9428596.72908     -2262.20708        47.81208  23150014.93808
  -7112640.11608     -1762.75908        49.68808
  23976928.56208  -6825795.06508     -3267.58108        41.18808  23976938.93808
  -5085040.57408     -2546.16708        44.56208
  21880655.03108 -16972655.40908      1741.23508        45.00008  21880656.37508
 -12991337.78708      1356.80708        48.00008
  22774217.18808 -11360870.39008      2720.03908        48.06208  22774219.06208
  -8618777.31708      2119.51108        49.56208
  21263106.15609 -20430301.64809     -2331.47209        53.81209  21263109.15609
 -15685094.19209     -1816.73209        54.68809
 25  3  7  1 26  0.0000000  0  9G01G02G03G08G10G27G28G31G32
  21898490.68808 -15500620.61808      2638.28608        45.31208  21898491.59408
 -11844033.72308      2055.80708        47.75008
  20569759.03108 -22105179.00608      1771.18908        47.50008  20569757.40609
 -16985257.67309      1380.14709        51.06209
  23640313.50008  -5845937.32908      2254.99808        44.37508  23640318.59408
  -4321952.14308      1757.14108        48.06208
  22657633.03108 -11667417.52408     -2421.59908        46.31208  22657638.62508
  -8856931.13208     -1886.96008        49.81208
  23162932.90608  -9360682.05508     -2265.26608        47.12508  23162938.90608
  -7059719.74408     -1765.14208        49.75008
  23995582.06208  -6727768.85008     -3267.54608        41.25008  23995593.78108
  -5008656.90808     -2546.14008        47.68808
  21870760.90608 -17024648.87308      1725.11708        45.00008  21870762.65608
 -13031852.15108      1344.24708        48.31208
  22758712.09408 -11442352.17708      2712.17008        48.62508  22758713.50008
  -8682269.55008      2113.38008        49.75008
  21276446.40609 -20360198.11609     -2342.00909        53.75009  21276449.50009
 -15630468.13909     -1824.94209        55.12509
 25  3  7  1 26 30.0000000  0  9G01G02G03G08G10G27G28G31G32
  21883455.09408 -15579635.43408      2629.29908        45.50008  21883455.81208
 -11905603.67008      2048.80508        47.93808
  20559699.18808 -22158041.78908      1753.17608        47.62508  20559698.12509
 -17026449.43309      1366.11109        51.25009
  23627441.65608  -5913580.38408      2254.46508        44.56208  23627445.15608
  -4374660.97208      1756.72608        46.56208
  22671484.87508 -11594627.71408     -2431.06708        46.93808  22671490.75009
  -8800211.96309     -1894.33809        50.25009
  23175873.15608  -9292677.63608     -2268.24208        46.50008  23175879.59408
  -7006729.41008     -1767.46108        49.56208
  24014236.62508  -6629745.99008     -3267.10008        43.93808  24014246.81208
  -4932275.83408     -2545.79208        47.43808
  21860958.06208 -17076162.81008      1709.29008        45.31208  21860959.75008
 -13071992.85508      1331.91408        48.56208
  22743251.12508 -11523598.86908      2704.36308        48.68808  22743252.65608
  -8745578.59008      2107.29608        49.93808
  21289846.65609 -20289781.83109     -2352.31709        54.06209  21289849.15609
 -15575598.37309     -1832.97409        55.06209
 25  3  7  1 27  0.0000000  0  9G01G02G03G08G10G27G28G31G32
  21868471.31208 -15658375.75608      2619.97108        45.37508  21868471.78108
 -11966959.73208      2041.53608        48.12508
  20549743.68808 -22210360.07308      1734.85408        47.75008  20549742.28109
 -17067216.91109      1351.83409        51.43809
  23614572.34408  -5981207.15308      2254.03608        43.87508  23614576.37508
  -4427357.11008      1756.39108        46.62508
  22685390.46908 -11521553.52208     -2440.48608        46.43808  22685396.68809
  -8743271.19809     -1901.67709        50.18809
  23188832.40608  -9224583.57908     -2271.32308        47.68808  23188837.56208
  -6953669.24708     -1769.86208        49.81208
  24032888.68808  -6531729.55308     -3267.04308        43.00008  24032897.81208
  -4855899.72708     -2545.74808        45.50008
  21851246.96908 -17127195.08908      1692.97908        45.31208  21851248.56208
 -13111758.24408      1319.20408        48.62508
  22727835.40608 -11604607.76808      2696.22108        48.62508  22727837.34409
  -8808702.32209      2100.95109        50.31209
  21303305.09409 -20219055.32209     -2362.73709        53.68809  21303308.09409
 -15520486.87209     -1841.09409        55.00009
 25  3  7  1 27 30.0000000  0  9G01G02G03G08G10G27G28G31G32
  21853539.78108 -15736839.04408      2610.74508        45.62508  21853540.53108
 -12028099.91008      2034.34608        48.18808
  20539891.28108 -22262131.95008      1716.55808        47.81208  20539890.37509
 -17107558.61109      1337.57709        51.37509
  23601706.15608  -6048817.39408      2253.46908        43.56208  23601711.09408
  -4480040.35208      1755.95008        47.68808
  22699348.96908 -11448197.93508     -2449.84908        45.87508  22699355.31208
  -8686111.17008     -1908.97308        49.50008
  23201806.56208  -9156399.72408     -2274.23808        47.12508  23201812.68808
  -6900539.09008     -1772.13408        49.62508
  24051537.03107  -6433722.31407     -3266.80207        39.25007  24051547.84408
  -4779530.77508     -2545.56008        44.00008
  21841628.12508 -17177743.31908      1676.91708        45.62508  21841629.71908
 -13151146.44708      1306.68808        48.68808
  22712465.46908 -11685375.97108      2688.20308        48.81208  22712467.90609
  -8871638.49509      2094.70409        50.56209
  21316822.59409 -20148020.97609     -2372.94409        53.93809  21316825.71909
 -15465135.50009     -1849.04709        55.06209
 25  3  7  1 28  0.0000000  0  9G01G02G03G08G10G27G28G31G32
  21838662.21908 -15815022.72308      2601.39908        45.68808  21838662.90608
 -12089022.24508      2027.06408        48.12508
  20530143.93808 -22313354.82008      1698.26408        47.93808  20530142.96909
 -17147472.52509      1323.32309        51.31209
  23588843.65608  -6116411.08608      2252.83908        44.18808  23588848.90608
  -4532710.70408      1755.45908        48.50008
  22713360.93808 -11374564.02608     -2459.01408        45.56208  22713367.21908
  -8628734.26408     -1916.11508        49.12508
  23214799.78108  -9088125.97408     -2277.26108        47.93808  23214804.93808
  -6847338.92708     -1774.48908        49.75008
  24070187.18808  -6335727.17908     -3266.40908        42.06208  24070196.81208
  -4703171.33308     -2545.25308        44.75008
  21832101.62508 -17227805.21308      1660.66908        45.56208  21832103.03108
 -13190155.70008      1294.02808        48.62508
  22697142.28108 -11765900.62508      2680.09308        49.00008  22697144.31209
  -8934384.89609      2088.38409        50.37509
  21330398.03109 -20076681.16409     -2383.00509        53.62509  21330401.09409
 -15409546.10909     -1856.88709        54.81209
 25  3  7  1 28 30.0000000  0  9G01G02G03G08G10G27G28G31G32
  21823837.84408 -15892924.54408      2592.06508        45.68808  21823838.65608
 -12149724.91608      2019.79108        48.50008
  20520501.93808 -22364026.28808      1679.78508        47.87508  20520500.46909
 -17186956.77009      1308.92309        51.43809
  23575984.59408  -6183988.44208      2252.23608        45.18808  23575989.84408
  -4585368.31208      1754.98908        49.31208
  22727425.18808 -11300655.14608     -2468.15908        45.43808  22727432.09408
  -8571143.10008     -1923.24108        49.50008
  23227808.00008  -9019762.50108     -2280.33408        47.25008  23227814.37508
  -6794068.83708     -1776.88408        49.81208
  24088832.18808  -6237747.42308     -3265.74508        43.00008  24088842.65608
  -4626823.78708     -2544.73608        45.93808
  21822668.03108 -17277378.71908      1644.38508        45.43808  21822669.56208
 -13228784.39508      1281.33908        48.81208
  22681865.75008 -11846179.19708      2671.82408        49.06208  22681867.62509
  -8996939.55509      2081.94109        50.56209
  21344031.25009 -20005038.54509     -2393.14209        53.56209  21344034.25009
 -15353720.76709     -1864.78609        54.81209
 25  3  7  1 29  0.0000000  0  9G01G02G03G08G10G27G28G31G32
  21809067.68808 -15970541.94708      2582.48008        45.68808  21809068.59408
 -12210205.98408      2012.32208        48.50008
  20510964.62508 -22414144.00208      1661.30908        47.87508  20510963.15609
 -17226009.51309      1294.52609        51.25009
  23563128.53108  -6251549.41108      2251.57708        45.43808  23563132.71908
  -4638013.17508      1754.47608        48.25008
  22741542.00008 -11226474.38908     -2477.08308        45.50008  22741548.96908
  -8513340.07008     -1930.19408        49.68808
  23240834.75008  -8951309.25308     -2283.25208        47.18808  23240840.18808
  -6740728.78708     -1779.15708        49.37508
  24107473.56208  -6139785.73708     -3265.12008        41.81208  24107485.15608
  -4550490.35708     -2544.24908        47.18808
  21813328.06208 -17326461.61408      1627.84908        45.56208  21813329.31208
 -13267030.78008      1268.45408        48.81208
  22666636.37508 -11926208.89808      2663.53808        48.93808  22666638.53109
  -9059300.27809      2075.48409        50.56209
  21357721.71909 -19933095.51709     -2403.02009        53.56209  21357724.65609
 -15297661.33309     -1872.48309        54.75009
 25  3  7  1 29 30.0000000  0  9G01G02G03G08G10G27G28G31G32
  21794352.00008 -16047872.31708      2572.83908        45.56208  21794353.25008
 -12270463.38408      2004.81008        48.50008
  20501533.46908 -22463705.23008      1642.82708        47.81208  20501532.03109
 -17264628.64109      1280.12509        51.06209
  23550274.50008  -6319093.89808      2251.44308        44.68808  23550278.81208
  -4690645.18108      1754.37108        47.56208
  22755709.18808 -11152024.74308     -2486.01108        45.25008  22755716.03108
  -8455327.53608     -1937.15108        49.37508
  23253878.50008  -8882765.97508     -2286.20808        47.50008  23253883.93808
  -6687318.60308     -1781.46108        49.43808
  24126110.46907  -6041844.82507     -3264.32607        40.00007  24126122.31208
  -4474173.18908     -2543.63108        46.18808
  21804081.53108 -17375051.54308      1611.53608        45.43808  21804082.93808
 -13304893.04308      1255.74208        48.68808
  22651455.31208 -12005987.00708      2655.12508        49.00008  22651457.34409
  -9121464.96709      2068.92809        50.43809
  21371468.71909 -19860854.37709     -2412.90009        53.56209  21371471.93809
 -15241369.60309     -1880.18209        54.93809
 25  3  7  1 30  0.0000000  0  9G01G02G03G08G10G27G28G31G32
  21779691.78108 -16124913.52308      2563.11008        46.00008  21779692.62508
 -12330495.45108      1997.22908        48.56208
  20492208.78108 -22512707.99208      1624.13808        48.00008  20492206.90609
 -17302812.59109      1265.56209        51.18809
  23537423.93808  -6386622.31908      2250.68108        44.12508  23537428.46908
  -4743264.66908      1753.77708        47.31208
  22769926.65608 -11077309.71708     -2494.85408        45.18808  22769934.25008
  -8397108.20608     -1944.04208        49.56208
  23266939.50008  -8814133.09208     -2289.12808        48.12508  23266945.28108
  -6633838.54808     -1783.73608        49.87508
  24144745.00008  -5943928.21108     -3263.36408        42.18808  24144754.84408
  -4397874.88508     -2542.88108        43.87508
  21794928.90608 -17423146.67408      1594.93408        45.62508  21794930.78108
 -13342369.75108      1242.80608        48.75008
  22636322.00008 -12085510.94508      2646.57008        49.18808  22636324.37509
  -9183431.57709      2062.26209        50.81209
  21385272.18809 -19788317.94109     -2422.74209        54.06209  21385275.34409
 -15184847.78109     -1887.85109        55.12509
 25  3  7  1 30 30.0000000  0  9G01G02G03G08G10G27G28G31G32
  21765087.06208 -16201662.95508      2553.57408        46.12508  21765087.68808
 -12390300.16008      1989.79808        48.62508
  20482990.40608 -22561150.18808      1605.29308        48.06208  20482988.93809
 -17340559.74509      1250.87809        51.25009
  23524577.09408  -6454134.31208      2249.97808        45.18808  23524582.12508
  -4795871.35908      1753.23008        48.31208
  22784194.84408 -11002332.31008     -2503.55708        45.31208  22784202.06208
  -8338684.43808     -1950.82408        49.18808
  23280016.40608  -8745410.33208     -2292.28008        47.62508  23280022.56208
  -6580288.50708     -1786.19208        49.43808
  24163372.68808  -5846038.46908     -3262.44408        42.12508  24163383.56208
  -4321597.45908     -2542.16408        43.81208
  21785871.59408 -17470744.72708      1578.25708        45.68808  21785873.00008
 -13379459.11508      1229.81108        48.81208
  22621238.21908 -12164777.70708      2637.90308        49.50008  22621240.25009
  -9245197.80809      2055.50909        50.87509
  21399130.93809 -19715488.50109     -2432.49509        53.50009  21399133.93809
 -15128097.64009     -1895.45109        54.50009
 25  3  7  1 31  0.0000000  0  9G01G02G03G08G10G27G28G31G32
  21750538.06208 -16278117.98108      2543.54008        46.18808  21750538.62508
 -12449875.48808      1981.97908        48.56208
  20473879.00008 -22609028.98508      1586.47508        48.00008  20473877.96909
 -17377867.89509      1236.21409        51.31209
  23511733.59408  -6521629.84208      2249.60408        45.50008  23511736.93808
  -4848465.25308      1752.93908        47.06208
  22798512.40608 -10927095.55608     -2512.05808        45.56208  22798519.18808
  -8280058.56008     -1957.44808        49.06208
  23293111.34408  -8676597.60408     -2295.33408        47.37508  23293117.00008
  -6526668.36408     -1788.57208        49.31208
  24181995.62508  -5748178.46808     -3261.57508        42.12508  24182006.43808
  -4245343.26108     -2541.48708        46.56208
  21776908.81208 -17517843.44808      1561.59208        45.62508  21776910.71908
 -13416159.40108      1216.82508        48.87508
  22606203.46908 -12243784.48208      2629.09408        49.43808  22606205.62509
  -9306761.46509      2048.64509        50.81209
  21413045.53109 -19642368.34409     -2442.15609        53.62509  21413048.31209
 -15071120.97609     -1902.97909        54.43809
 25  3  7  1 31 30.0000000  0  9G01G02G03G08G10G27G28G31G32
  21736045.65608 -16354276.26308      2533.66008        46.43808  21736046.12508
 -12509219.56108      1974.28008        48.81208
  20464875.59408 -22656342.24108      1567.68308        48.12508  20464874.34409
 -17414735.33609      1221.57109        51.50009
  23498891.96908  -6589109.07008      2249.25308        45.12508  23498896.93808
  -4901046.39708      1752.66508        48.12508
  22812878.06208 -10851602.71608     -2520.76708        45.37508  22812885.25008
  -8221233.15008     -1964.23408        49.37508
  23306222.87508  -8607694.96408     -2298.36208        47.43808  23306229.43808
  -6472978.12808     -1790.93108        49.81208
  24200610.81207  -5650351.09307     -3260.39607        39.25007  24200622.53108
  -4169114.52608     -2540.56808        46.75008
  21768041.53108 -17564440.87808      1544.92908        45.93808  21768043.28108
 -13452469.05008      1203.84108        49.00008
  22591218.56208 -12322528.95708      2620.43708        49.25008  22591220.93809
  -9368120.69909      2041.89909        51.00009
  21427014.71909 -19568960.09109     -2451.69209        54.00009  21427017.93809
 -15013919.80309     -1910.40909        54.93809
 25  3  7  1 32  0.0000000  0  9G01G02G03G08G10G27G28G31G32
  21721610.00008 -16430135.20108      2523.50108        46.06208  21721610.53108
 -12568330.39408      1966.36408        48.56208
  20455980.46908 -22703087.59308      1548.55008        47.81208  20455979.00009
 -17451160.28809      1206.66209        51.12509
  23486054.75008  -6656571.79208      2248.30308        44.75008  23486058.65608
  -4953614.72908      1751.92508        48.06208
  22827292.28108 -10775856.91608     -2529.30208        45.00008  22827299.46908
  -8162210.64408     -1970.88508        49.12508
  23319352.21908  -8538702.27708     -2301.40908        47.37508  23319357.65608
  -6419217.72008     -1793.30508        49.06208
  24219221.40608  -5552559.18608     -3259.29008        41.06208  24219232.37508
  -4092913.50608     -2539.70608        45.81208
  21759270.28108 -17610534.81608      1527.92008        45.56208  21759272.09408
 -13488386.40008      1190.58708        48.81208
  22576284.31208 -12401007.92608      2611.43808        49.00008  22576286.81209
  -9429273.06209      2034.88709        50.68809
  21441038.18809 -19495266.05909     -2461.30609        53.50009  21441041.12509
 -14956495.96609     -1917.90109        54.43809
 25  3  7  1 32 30.0000000  0  9G01G02G03G08G10G27G28G31G32
  21707231.71908 -16505692.53808      2513.59108        46.06208  21707232.18808
 -12627206.19008      1958.64308        48.56208
  20447193.71908 -22749262.90808      1529.73908        47.87508  20447192.18809
 -17487141.02409      1192.00409        51.37509
  23473220.06208  -6724018.22008      2248.07908        45.37508  23473224.87508
  -5006170.33708      1751.75008        48.75008
  22841754.46908 -10699861.45808     -2537.35608        45.56208  22841761.25008
  -8102993.58608     -1977.16108        49.12508
  23332498.09408  -8469619.67708     -2304.28708        46.93808  23332504.37508
  -6365387.28008     -1795.54808        49.31208
  24237823.53108  -5454805.98108     -3257.70008        42.75008  24237833.59408
  -4016742.47108     -2538.46808        43.25008
  21750595.15608 -17656123.36708      1511.18908        45.75008  21750596.62508
 -13523909.92208      1177.55008        49.00008
  22561401.37508 -12479218.99908      2602.49508        49.00008  22561403.59409
  -9490216.67809      2027.91809        50.87509
  21455115.62509 -19421288.87909     -2470.65209        53.68809  21455118.71909
 -14898851.47409     -1925.18309        54.50009
 25  3  7  1 33  0.0000000  0  9G01G02G03G08G10G27G28G31G32
  21692911.50008 -16580945.52908      2503.32308        46.12508  21692912.28108
 -12685844.85908      1950.64108        48.75008
  20438515.71908 -22794865.77208      1510.54908        47.93808  20438514.31209
 -17522675.72909      1177.05109        51.37509
  23460387.59408  -6791448.08008      2247.46608        44.06208  23460393.31208
  -5058713.02108      1751.27208        48.62508
  22856262.65608 -10623619.34908     -2545.58308        45.37508  22856269.56208
  -8043584.33708     -1983.57208        49.18808
  23345660.84408  -8400446.94708     -2307.27108        46.87508  23345667.56208
  -6311486.58608     -1797.87308        49.37508
  24256417.59408  -5357093.97708     -3256.32308        41.87508  24256427.50008
  -3940603.55008     -2537.39508        42.93808
  21742016.56208 -17701204.27508      1494.25308        45.81208  21742018.15608
 -13559037.87308      1164.35308        49.00008
  22546569.93808 -12557159.20408      2593.41608        49.18808  22546572.18809
  -9550949.23209      2020.84309        51.00009
  21469246.53109 -19347030.77309     -2480.00209        53.43809  21469249.90609
 -14840988.08409     -1932.46909        54.50009
 25  3  7  1 33 30.0000000  0  9G01G02G03G08G10G27G28G31G32
  21678649.78108 -16655891.78908      2493.14208        46.18808  21678650.56208
 -12744244.50208      1942.70808        48.75008
  20429947.31208 -22839894.11808      1491.54108        48.06208  20429945.62509
 -17557762.74309      1162.23909        51.37509
  23447559.59408  -6858861.43508      2246.77008        44.31208  23447564.25008
  -5111242.83108      1750.73008        48.00008
  22870817.87508 -10547133.82608     -2553.45908        45.68808  22870824.43808
  -7983985.42108     -1989.70908        49.31208
  23358842.25008  -8331184.06708     -2310.22908        47.37508  23358847.78108
  -6257515.68208     -1800.17908        49.18808
  24275002.12507  -5259426.04607     -3254.93207        38.25007  24275014.50008
  -3864499.05008     -2536.31008        45.06208
  21733534.96908 -17745775.58808      1477.41908        45.93808  21733536.59408
 -13593768.75108      1151.23608        49.06208
  22531790.43808 -12634825.90108      2584.46008        49.31208  22531792.68809
  -9611468.65309      2013.86509        51.06209
  21483430.28109 -19272494.25509     -2489.01609        53.12509  21483433.78109
 -14782907.75909     -1939.49309        54.50009
 25  3  7  1 34  0.0000000  0  9G01G02G03G08G10G27G28G31G32
  21664446.50008 -16730529.06308      2482.73408        46.25008  21664447.46908
 -12802403.37608      1934.59808        49.00008
  20421488.28108 -22884345.45108      1472.17308        48.06208  20421486.81209
 -17592400.13509      1147.14809        51.50009
  23434734.84408  -6926258.39908      2246.34508        45.75008  23434738.28108
  -5163759.92308      1750.39908        46.68808
  22885418.18808 -10470408.26608     -2561.49708        45.68808  22885425.18808
  -7924199.44308     -1995.97108        49.12508
  23372039.43808  -8261831.27208     -2313.19108        46.81208  23372045.78108
  -6203474.66708     -1802.48608        49.50008
  24293579.43808  -5161805.33908     -3253.19308        40.12508  24293591.93808
  -3788431.37408     -2534.95608        46.56208
  21725150.56208 -17789835.47908      1460.09308        45.93808  21725152.03108
 -13628101.10808      1137.73508        49.18808
  22517063.43808 -12712216.65108      2575.13208        49.31208  22517065.46909
  -9671773.04609      2006.59609        51.00009
  21497666.93809 -19197681.91909     -2498.33009        53.62509  21497669.93809
 -14724612.51009     -1946.75109        54.25009
 25  3  7  1 34 30.0000000  0  9G01G02G03G08G10G27G28G31G32
  21650302.96908 -16804854.58708      2472.25608        46.06208  21650303.59408
 -12860319.33608      1926.43308        49.12508
  20413139.46908 -22928217.80208      1452.80508        47.93808  20413138.00009
 -17626586.37109      1132.05609        51.68809
  23421912.78108  -6993638.74408      2245.69608        45.31208  23421916.21908
  -5216264.07308      1749.89308        47.43808
  22900063.81208 -10393445.61708     -2569.39008        45.43808  22900070.87508
  -7864228.73408     -2002.12208        49.25008
  23385253.15608  -8192388.19908     -2316.37908        46.06208  23385259.43808
  -6149363.33108     -1804.97108        48.62508
  24312147.59408  -5064234.52108     -3251.41808        42.06208  24312159.15608
  -3712402.52308     -2533.57308        45.37508
  21716863.59408 -17833381.77808      1443.02008        45.62508  21716865.56208
 -13662033.25708      1124.43108        49.31208
  22502389.46908 -12789328.65908      2565.70308        49.18808  22502391.28109
  -9731860.24909      1999.24909        51.06209
  21511955.31209 -19122596.03309     -2507.42709        53.43809  21511958.59409
 -14666104.09209     -1953.83909        54.50009
 25  3  7  1 35  0.0000000  0  9G01G02G03G08G10G27G28G31G32
  21636218.93808 -16878866.08308      2461.87308        46.12508  21636219.93808
 -12917990.57408      1918.34208        48.93808
  20404901.56208 -22971509.09208      1433.44508        47.93808  20404900.03109
 -17660319.82909      1116.97009        51.43809
  23409092.93808  -7061002.53308      2245.27108        44.43808  23409097.96908
  -5268755.26808      1749.56208        48.06208
  22914753.81208 -10316249.25608     -2576.94808        45.50008  22914760.81208
  -7804075.89808     -2008.01208        48.87508
  23398486.50008  -8122855.01208     -2319.23308        47.18808  23398492.00008
  -6095181.77408     -1807.19508        48.50008
  24330704.96908  -4966716.59708     -3249.70008        40.93808  24330716.15608
  -3636414.84308     -2532.23408        44.75008
  21708675.59408 -17876412.59808      1425.71008        45.81208  21708676.93808
 -13695563.74608      1110.94308        49.12508
  22487769.12508 -12866159.08508      2556.38708        49.18808  22487771.09409
  -9791728.02109      1991.99009        51.06209
  21526295.43809 -19047239.10509     -2516.28709        53.31209  21526298.56209
 -14607384.46309     -1960.74309        54.25009
 25  3  7  1 35 30.0000000  0  9G01G02G03G08G10G27G28G31G32
  21622195.18808 -16952560.82308      2451.20608        45.93808  21622196.03108
 -12975415.01808      1910.03108        48.87508
  20396774.43808 -23014216.96408      1413.83508        47.93808  20396773.12509
 -17693598.69409      1101.69009        51.31209
  23396276.81208  -7128349.54308      2244.49208        44.18808  23396282.40608
  -5321233.40008      1748.95508        48.50008
  22929487.31208 -10238822.11808     -2584.73408        44.68808  22929494.78108
  -7743743.26808     -2014.07808        48.62508
  23411734.68808  -8053231.40608     -2322.41508        46.68808  23411740.90608
  -6040929.76308     -1809.67408        48.68808
  24349252.06207  -4869253.97607     -3247.95907        39.43807  24349262.15608
  -3560470.33608     -2530.87708        42.43808
  21700585.68808 -17918925.82508      1408.45908        45.81208  21700587.00008
 -13728690.91908      1097.50108        49.06208
  22473202.71908 -12942705.19508      2546.73608        49.31208  22473204.62509
  -9851374.26109      1984.46909        51.00009
  21540686.46909 -18971613.35309     -2525.35409        53.18809  21540689.46909
 -14548455.38309     -1967.80809        53.87509
 25  3  7  1 36  0.0000000  0 10G01G02G03G04G08G10G27G28G31G32
  21608232.37508 -17025936.63208      2440.48308        46.06208  21608233.18808
 -13032590.94408      1901.67508        49.12508
  20388758.93808 -23056339.38008      1394.35308        47.81208  20388757.53109
 -17726421.35009      1086.50909        51.62509
  23383465.00008  -7195679.93508      2244.01408        45.12508  23383469.75008
  -5373698.59308      1748.58208        48.75008
  24838551.75007    945947.47507      3351.83307        32.56207  24838560.90607
    971520.51507      2611.81807        35.62507
  22944264.93808 -10161167.73108     -2592.29708        45.18808  22944272.46908
  -7683233.54408     -2019.97208        48.81208
  23425001.00008  -7983517.67108     -2325.18608        46.62508  23425006.90608
  -5986607.50408     -1811.83308        48.50008
  24367786.28107  -4771849.96407     -3245.67607        39.43807  24367798.62508
  -3484571.45008     -2529.09808        43.68808
  21692594.25008 -17960919.83108      1391.17708        45.75008  21692595.71908
 -13761413.49808      1084.03408        49.12508
  22458691.12508 -13018964.27508      2537.19708        49.31208  22458692.75009
  -9910796.84709      1977.03709        51.06209
  21555128.00009 -18895721.50909     -2534.21409        53.06209  21555131.62509
 -14489318.95509     -1974.71209        54.25009
 25  3  7  1 36 30.0000000  0 10G01G02G03G04G08G10G27G28G31G32
  21594330.90608 -17098990.83408      2429.61408        46.18808  21594331.53108
 -13089516.26908      1893.20608        49.06208
  20380854.90608 -23097874.31108      1374.65108        47.75008  20380853.71909
 -17758786.22609      1071.15609        51.56209
  23370655.71908  -7262993.48408      2243.38608        44.75008  23370660.31208
  -5426150.65108      1748.09308        48.18808
  24819430.78107    845462.24407      3347.12907        34.68807  24819440.12507
    893220.46907      2608.15207        37.43807
  22959085.34408 -10083289.07508     -2599.80008        45.50008  22959092.87508
  -7622549.07808     -2025.81808        49.18808
  23438284.03108  -7913713.48908     -2328.36708        46.50008  23438290.31208
  -5932214.79708     -1814.31208        48.18808
  24386311.28108  -4674507.22308     -3243.85308        42.18808  24386323.84408
  -3408720.33708     -2527.67708        45.93808
  21684702.34408 -18002392.48008      1373.69408        45.93808  21684703.53108
 -13793729.82908      1070.41108        49.00008
  22444234.46908 -13094934.00708      2527.48808        49.37508  22444236.21909
  -9969993.96509      1969.47109        51.12509
  21569620.34409 -18819565.79709     -2542.97409        53.25009  21569623.40609
 -14429976.91909     -1981.53809        53.93809
 25  3  7  1 37  0.0000000  0 10G01G02G03G04G08G10G27G28G31G32
  21580490.34408 -17171720.97508      2418.92608        46.06208  21580491.46908
 -13146189.06808      1884.87708        49.12508
  20373063.37508 -23138819.31208      1354.90508        47.75008  20373062.18809
 -17790691.42109      1055.77009        51.81209
  23357850.03108  -7330290.08608      2242.77808        45.56208  23357854.28108
  -5478589.51108      1747.62008        48.87508
  24800336.62507    745116.22407      3342.75907        35.87507  24800345.12507
    815028.90307      2604.74707        37.18807
  22973947.00008 -10005189.30608     -2607.01408        44.87508  22973955.03108
  -7561692.31308     -2031.44008        49.31208
  23451585.34408  -7843818.82808     -2331.36708        47.12508  23451591.56208
  -5877751.55408     -1816.65008        49.18808
  24404823.03108  -4577228.50008     -3241.68908        41.25008  24404834.84408
  -3332919.10608     -2525.99208        45.50008
  21676909.93808 -18043341.90408      1356.08908        46.00008  21676911.18808
 -13825638.44508      1056.69308        49.06208
  22429833.34408 -13170611.71208      2517.68108        49.43808  22429834.90609
 -10028963.53209      1961.82909        51.12509
  21584162.09409 -18743148.61009     -2551.65809        53.00009  21584165.09409
 -14370431.12409     -1988.30509        53.75009
 25  3  7  1 37 30.0000000  0 10G01G02G03G04G08G10G27G28G31G32
  21566712.15608 -17244124.57008      2407.88808        45.93808  21566713.40608
 -13202607.43808      1876.27608        49.00008
  20365384.21908 -23179172.35008      1335.17308        47.75008  20365383.25009
 -17822135.33809      1040.39509        51.75009
  23345047.21908  -7397569.74608      2242.32908        46.12508  23345051.12508
  -5531015.17108      1747.26908        48.25008
  24781267.71907    644910.65407      3337.52707        35.43807  24781276.59407
    736946.82307      2600.67007        38.56207
  22988850.46908  -9926871.69508     -2614.29908        44.75008  22988857.43808
  -7500665.82608     -2037.11608        47.93808
  23464902.65608  -7773833.73608     -2334.44108        46.81208  23464910.06208
  -5823217.87008     -1819.04508        49.62508
  24423321.81207  -4480016.59907     -3239.54107        39.81207  24423334.09408
  -3257169.93308     -2524.31808        45.31208
  21669217.25008 -18083766.27208      1338.59108        45.93808  21669218.43808
 -13857137.94308      1043.05808        49.00008
  22415488.37508 -13245994.27808      2507.69008        49.31208  22415490.18809
 -10087703.12809      1954.04409        51.12509
  21598753.00009 -18666472.38909     -2560.39609        52.87509  21598756.18809
 -14310683.49809     -1995.11309        53.75009
 25  3  7  1 38  0.0000000  0 10G01G02G03G04G08G10G27G28G31G32
  21552996.78108 -17316199.20908      2396.96008        46.06208  21552997.75008
 -13258769.47208      1867.76108        48.68808
  20357818.43808 -23218931.69308      1315.47908        47.81208  20357817.25009
 -17853116.63809      1025.04809        51.56209
  23332246.71908  -7464832.36208      2241.87008        45.31208  23332251.12508
  -5583427.56908      1746.91208        47.87508
  24762225.56207    544846.80607      3333.16207        34.31207  24762234.40607
    658975.19607      2597.26907        37.56207
  23003795.25008  -9848339.49908     -2621.20408        45.31208  23003801.71908
  -7439472.07608     -2042.49608        47.75008
  23478237.90608  -7703758.14508     -2337.34408        46.37508  23478244.59408
  -5768613.67408     -1821.30708        49.25008
  24441807.78107  -4382874.24307     -3236.82607        38.06207  24441819.93808
  -3181475.03908     -2522.20208        43.12508
  21661625.00008 -18123663.77208      1321.11808        46.00008  21661626.25008
 -13888226.87108      1029.44308        48.87508
  22401200.18808 -13321079.40108      2497.85608        49.75008  22401202.09409
 -10146210.94409      1946.38209        51.18809
  21613392.75009 -18589539.59509     -2568.55509        53.00009  21613396.03109
 -14250735.91909     -2001.47109        53.56209
 25  3  7  1 38 30.0000000  0 10G01G02G03G04G08G10G27G28G31G32
  21539344.78108 -17387942.34008      2385.96908        46.18808  21539345.68808
 -13314673.17908      1859.19708        48.93808
  20350365.81208 -23258095.10808      1295.45208        47.87508  20350364.56209
 -17883633.56909      1009.44309        51.68809
  23319449.71908  -7532077.80208      2241.05508        44.81208  23319454.75008
  -5635826.58108      1746.27608        48.00008
  24743211.71907    444926.18307      3328.45507        37.31207  24743220.43807
    581115.17807      2593.60107        36.81207
  23018779.65608  -9769595.80108     -2628.31308        45.12508  23018786.87508
  -7378113.56108     -2048.03608        48.12508
  23491590.31208  -7633591.97008     -2340.38108        46.81208  23491596.12508
  -5713938.88808     -1823.67308        48.25008
  24460279.62507  -4285804.32107     -3234.63607        39.12507  24460291.62508
  -3105836.48408     -2520.49608        41.87508
  21654133.21908 -18163032.54408      1303.46708        46.00008  21654134.59408
 -13918903.81008      1015.68808        48.93808
  22386969.12508 -13395864.20008      2487.74908        49.81208  22386970.87509
 -10204484.74009      1938.50609        51.31209
  21628080.71909 -18512352.52009     -2577.12909        52.62509  21628084.56209
 -14190590.21909     -2008.15209        54.06209
 25  3  7  1 39  0.0000000  0 10G01G02G03G04G08G10G27G28G31G32
  21525755.50008 -17459351.71808      2374.75108        46.06208  21525756.62508
 -13370316.83308      1850.45508        49.06208
  20343027.28108 -23296660.65508      1275.56908        47.81208  20343025.62509
 -17913684.64309       993.95009        51.81209
  23306656.81208  -7599306.21508      2240.76208        45.18808  23306662.18808
  -5688212.30008      1746.04808        48.87508
  24724224.78107    345149.84407      3323.91807        36.12507  24724233.00007
    503367.53307      2590.06607        36.93807
  23033803.53108  -9690644.08008     -2635.18608        44.56208  23033811.43808
  -7316592.95008     -2053.39108        48.62508
  23504959.84408  -7563335.32308     -2343.37608        46.50008  23504966.06208
  -5659193.61608     -1826.00808        48.62508
  24478738.09408  -4188809.85608     -3231.81408        40.75008  24478749.50008
  -3030256.70508     -2518.29708        43.37508
  21646742.40608 -18201870.99308      1285.82808        45.81208  21646744.15608
 -13949167.50908      1001.94408        49.18808
  22372795.65608 -13470346.61008      2477.76608        49.75008  22372797.25009
 -10262522.91409      1930.72709        51.56209
  21642817.31209 -18434913.83709     -2585.35909        52.87509  21642820.78109
 -14130248.46909     -2014.56509        54.31209
 25  3  7  1 39 30.0000000  0 10G01G02G03G04G08G10G27G28G31G32
  21512231.25008 -17530424.58308      2363.43508        46.31208  21512232.09408
 -13425698.26308      1841.63808        49.06208
  20335802.68808 -23334626.22908      1255.42708        47.87508  20335801.09409
 -17943268.19809       978.25509        51.81209
  23293867.56208  -7666517.16908      2240.07608        45.75008  23293872.65608
  -5740584.40808      1745.51408        49.56208
  24705265.31207    245519.40407      3318.67207        34.68807  24705274.18807
    425733.64107      2585.97807        38.62507
  23048867.28108  -9611487.25208     -2642.10908        44.93808  23048874.53108
  -7254912.51708     -2058.78708        48.43808
  23518346.31208  -7492987.93108     -2346.48408        46.37508  23518353.09408
  -5604377.61808     -1828.42908        48.93808
  24497181.18808  -4091893.29808     -3229.15308        41.50008  24497193.37508
  -2954737.67608     -2516.22308        45.75008
  21639452.90608 -18240177.07108      1268.06608        45.81208  21639454.43808
 -13979016.37008       988.10408        49.00008
  22358679.87508 -13544523.52208      2467.39008        49.68808  22358681.78109
 -10320323.03309      1922.64209        51.50009
  21657600.71909 -18357225.63109     -2593.72809        52.62509  21657604.34409
 -14069712.27509     -2021.08709        53.68809
 25  3  7  1 40  0.0000000  0 10G01G02G03G04G08G10G27G28G31G32
  21498771.06208 -17601158.79208      2352.21208        46.43808  21498771.53108
 -13480815.79608      1832.89208        49.25008
  20328692.50008 -23371990.00508      1235.44708        48.06208  20328690.87509
 -17972382.81709       962.68609        52.06209
  23281081.50008  -7733710.87608      2239.44808        46.06208  23281085.12508
  -5792943.10108      1745.02508        49.00008
  24686334.06207    146035.92007      3313.55207        35.37507  24686342.65607
    348214.27107      2581.98907        37.56207
  23063968.40608  -9532128.82608     -2648.45008        44.43808  23063975.81208
  -7193074.98208     -2063.72708        48.31208
  23531750.46908  -7422549.98308     -2349.48508        46.43808  23531756.81208
  -5549491.04408     -1830.76708        48.68808
  24515607.62507  -3995057.53907     -3226.59207        38.43807  24515621.31208
  -2879281.67608     -2514.22708        46.81208
  21632265.43808 -18277949.32408      1250.08308        46.12508  21632266.90608
 -14008449.27508       974.09108        49.43808
  22344622.96908 -13618392.71508      2457.00408        49.75008  22344624.65609
 -10377883.38209      1914.54909        51.62509
  21672431.65609 -18279290.57009     -2602.05309        52.93809  21672434.71909
 -14008983.72509     -2027.57409        53.56209
 25  3  7  1 40 30.0000000  0 10G01G02G03G04G08G10G27G28G31G32
  21485375.78108 -17671551.44408      2340.73708        46.43808  21485376.40608
 -13535667.19408      1823.95108        49.12508
  20321697.40608 -23408749.75108      1215.25608        47.93808  20321695.87509
 -18001026.78309       946.95309        52.06209
  23268297.90608  -7800886.82208      2238.86208        45.37508  23268302.28108
  -5845287.95608      1744.56808        48.93808
  24667431.28107     46701.04807      3308.71807        36.56207  24667439.12507
    270810.60807      2578.22207        35.62507
  23079108.06208  -9452571.58108     -2655.15608        44.75008  23079115.06208
  -7131082.54908     -2068.95308        47.75008
  23545172.12508  -7352021.04108     -2352.40508        46.50008  23545178.62508
  -5494533.57208     -1833.04308        48.87508
  24534020.25008  -3898305.04808     -3223.65208        40.68808  24534032.96908
  -2803890.57308     -2511.93708        45.87508
  21625179.37508 -18315185.62608      1232.35108        45.87508  21625180.84408
 -14037464.55208       960.27408        49.18808
  22330625.25008 -13691950.89008      2446.84808        49.68808  22330627.18809
 -10435201.36509      1906.63509        51.68809
  21687308.15609 -18201110.68609     -2609.93709        52.37509  21687312.15609
 -13948064.39909     -2033.71709        53.68809
 25  3  7  1 41  0.0000000  0 10G01G02G03G04G08G10G27G28G31G32
  21472045.90608 -17741600.26408      2329.26308        46.43808  21472046.59408
 -13590250.65908      1815.01008        49.25008
  20314817.46908 -23444903.88608      1195.22708        47.81208  20314816.00009
 -18029198.81309       931.34609        52.06209
  23255517.56208  -7868045.09108      2238.35408        45.50008  23255522.25008
  -5897619.04408      1744.17208        48.75008
  24648556.21907    -52484.09107      3304.28207        36.12507  24648565.43807
    193523.66107      2574.76507        36.93807
  23094285.31208  -9372818.96608     -2661.58408        45.25008  23094291.71908
  -7068937.84408     -2073.96208        47.56208
  23558609.96908  -7281401.22008     -2355.54408        45.93808  23558617.78108
  -5439505.31208     -1835.48908        49.37508
  24552415.15608  -3801638.83008     -3220.61508        40.37508  24552427.09408
  -2728566.63608     -2509.57008        42.43808
  21618195.81208 -18351884.42708      1214.39908        45.93808  21618197.50008
 -14066060.99308       946.28508        49.25008
  22316687.40608 -13765195.64408      2436.40908        49.93808  22316689.21909
 -10492275.13209      1898.50009        51.87509
  21702231.81209 -18122688.46409     -2617.91309        52.25009  21702235.50009
 -13886956.26409     -2039.93209        53.75009
 25  3  7  1 41 30.0000000  0 10G01G02G03G04G08G10G27G28G31G32
  21458781.93808 -17811302.85408      2317.63708        46.62508  21458782.56208
 -13644564.33408      1805.95108        49.56208
  20308053.28108 -23480449.97208      1174.68008        47.87508  20308051.81209
 -18056897.05309       915.33509        52.31209
  23242741.12508  -7935185.54308      2237.64608        45.06208  23242745.40608
  -5949936.23808      1743.62108        48.37508
  24629710.90607   -151518.18107      3298.70107        34.93807  24629719.34407
    116354.42607      2570.41707        38.37507
  23109497.78108  -9292874.18308     -2667.99808        44.31208  23109505.65608
  -7006643.41308     -2078.95908        48.25008
  23572067.09408  -7210690.49808     -2358.58208        46.75008  23572073.31208
  -5384406.20808     -1837.85608        49.50008
  24570794.00008  -3705061.56408     -3217.69508        40.68808  24570805.75008
  -2653311.95208     -2507.29508        42.00008
  21611315.12508 -18388044.09408      1196.20608        46.00008  21611316.37508
 -14094237.32908       932.10908        49.43808
  22302809.37508 -13838124.56708      2425.64708        49.87508  22302811.28109
 -10549102.80609      1890.11509        52.06209
  21717200.87509 -18044026.36109     -2626.14509        52.62509  21717204.43809
 -13825661.18509     -2046.34709        53.68809
 25  3  7  1 42  0.0000000  0 10G01G02G03G04G08G10G27G28G31G32
  21445584.12508 -17880656.80008      2306.01808        46.43808  21445584.68808
 -13698606.33808      1796.89708        49.31208
  20301404.75008 -23515386.59808      1154.38708        47.87508  20301403.71909
 -18084120.39609       899.52309        52.18809
  23229968.28108  -8002308.12608      2237.20008        45.31208  23229972.68808
  -6002239.49608      1743.27208        48.75008
  24610894.12507   -250400.07907      3293.87907        35.62507  24610902.84407
     39303.83607      2566.65907        39.62507
  23124746.40608  -9212740.50508     -2674.23108        43.87508  23124754.84408
  -6944201.81508     -2083.81608        48.43808
  23585539.09408  -7139888.89308     -2361.45308        45.87508  23585545.71908
  -5329236.29608     -1840.09308        48.00008
  24589154.00007  -3608576.11507     -3214.39207        39.93807  24589167.68808
  -2578128.83108     -2504.72108        43.93808
  21604537.03108 -18423663.01408      1178.20608        46.00008  21604538.37508
 -14121992.30808       918.08208        49.31208
  22288992.21909 -13910735.12809      2415.06109        50.12509  22288993.96909
 -10605682.39309      1881.86609        51.87509
  21732215.03109 -17965126.79609     -2633.95309        52.62509  21732218.53109
 -13764181.07109     -2052.43109        53.37509
 25  3  7  1 42 30.0000000  0 10G01G02G03G04G08G10G27G28G31G32
  21432453.59408 -17949659.53408      2294.05508        46.56208  21432454.09408
 -13752374.68408      1787.57508        49.56208
  20294872.93808 -23549711.66008      1133.92108        47.68808  20294871.81209
 -18110867.18309       883.57509        52.25009
  23217199.46908  -8069412.60608      2236.40408        45.87508  23217203.15608
  -6054528.69008      1742.65208        48.93808
  24592107.21907   -349128.28807      3288.47907        36.43807  24592115.46907
    -37627.08307      2562.45107        37.93807
  23140031.25008  -9132421.07008     -2680.40008        44.18808  23140039.78108
  -6881615.48808     -2088.62408        48.81208
  23599030.68808  -7068996.24608     -2364.72908        46.50008  23599036.40608
  -5273995.42608     -1842.64608        48.00008
  24607496.78107  -3512184.96407     -3211.31307        38.06207  24607509.75008
  -2503019.26208     -2502.32208        44.43808
  21597861.84408 -18458739.46508      1160.01708        45.62508  21597863.31208
 -14149324.57908       903.90908        49.18808
  22275235.53108 -13983024.56708      2404.14308        49.81208  22275237.68809
 -10662011.76109      1873.35809        51.81209
  21747274.09409 -17885992.03709     -2641.83109        52.50009  21747277.31209
 -13702517.69009     -2058.57009        53.31209
 25  3  7  1 43  0.0000000  0 10G01G02G03G04G08G10G27G28G31G32
  21419389.93808 -18018308.48508      2282.35408        46.50008  21419390.56208
 -13805867.34408      1778.45708        49.75008
  20288458.03108 -23583423.35408      1113.39408        47.68808  20288456.84409
 -18137136.03709       867.57909        52.43809
  23204432.81208  -8136498.65608      2235.90108        45.25008  23204437.56208
  -6106803.50708      1742.26008        49.50008
  24573348.37507   -447701.45007      3283.45707        33.81207  24573356.87507
   -114437.19807      2558.53807        35.75007
  23155350.65608  -9051918.93308     -2686.42608        44.50008  23155358.62508
  -6818886.75908     -2093.31908        48.06208
  23612538.34408  -6998012.34908     -2367.74408        46.25008  23612545.09408
  -5218683.45108     -1844.99508        48.68808
  24625821.59407  -3415890.71607     -3208.02507        39.87507  24625834.93808
  -2427985.23108     -2499.76008        44.68808
  21591290.78108 -18493271.67008      1141.91908        45.68808  21591292.03108
 -14176232.75508       889.80708        49.31208
  22261541.15608 -14054989.83208      2393.42008        49.81208  22261543.18809
 -10718088.53409      1865.00309        51.93809
  21762377.18809 -17806624.29509     -2649.46309        52.25009  21762381.15609
 -13640672.77709     -2064.51709        54.06209
 25  3  7  1 43 30.0000000  0 10G01G02G03G04G08G10G27G28G31G32
  21406394.40608 -18086601.47008      2270.65208        46.93808  21406394.90608
 -13859082.63408      1769.33908        49.68808
  20282159.87508 -23616520.12808      1093.02208        47.93808  20282158.56209
 -18162925.72009       851.70609        52.31209
  23191669.71908  -8203566.44708      2235.35608        45.06208  23191674.68808
  -6159064.06708      1741.83608        49.50008
  24554619.96907   -546118.51707      3277.59007        34.87507  24554628.96907
   -191125.67107      2553.96707        37.37507
  23170703.37508  -8971237.55108     -2692.21208        43.93808  23170710.96908
  -6756018.34508     -2097.82708        47.06208
  23626063.37508  -6926937.43508     -2370.61008        46.18808  23626070.06208
  -5163300.56808     -1847.22908        48.18808
  24644127.65608  -3319696.46908     -3204.68008        40.31208  24644140.21908
  -2353029.06108     -2497.15308        43.00008
  21584822.90608 -18527258.31408      1123.85008        45.75008  21584824.50008
 -14202715.83308       875.72708        49.18808
  22247908.62508 -14126629.41008      2382.63708        50.00008  22247910.15609
 -10773911.51709      1856.60009        51.75009
  21777524.40609 -17727026.20509     -2657.05109        52.68809  21777527.96909
 -13578648.35109     -2070.42909        53.81209
 25  3  7  1 44  0.0000000  0 10G01G02G03G04G08G10G27G28G31G32
  21393466.53108 -18154535.95008      2258.48908        46.87508  21393467.31208
 -13912018.57008      1759.86108        49.56208
  20275979.37508 -23649000.04808      1072.40508        48.06208  20275977.75009
 -18188234.74809       835.64009        52.25009
  23178910.96908  -8270615.72608      2234.70008        45.25008  23178915.37508
  -6211310.20608      1741.32408        49.25008
  24535921.34407   -644378.13507      3273.08107        35.81207  24535930.62507
   -267691.39707      2550.45307        39.37507
  23186090.18808  -8890380.07008     -2698.12508        43.56208  23186098.09408
  -6693012.73708     -2102.43508        47.18808
  23639606.21908  -6855771.30208     -2373.63008        46.43808  23639612.56208
  -5107846.60008     -1849.58208        47.87508
  24662412.18807  -3223604.79107     -3201.24307        38.50007  24662426.28108
  -2278152.82508     -2494.47508        42.81208
  21578459.56208 -18560697.73108      1105.48108        45.81208  21578461.18808
 -14228772.49608       861.41408        49.06208
  22234338.43809 -14197940.38409      2371.56009        50.18809  22234340.09409
 -10829478.44809      1847.96909        51.75009
  21792714.81209 -17647200.03509     -2664.63909        52.43809  21792718.43809
 -13516446.20609     -2076.34209        53.75009
 25  3  7  1 44 30.0000000  0 10G01G02G03G04G08G10G27G28G31G32
  21380607.53108 -18222109.37908      2246.51908        46.87508  21380608.43808
 -13964673.16408      1750.53408        49.68808
  20269916.31208 -23680861.06908      1051.84108        48.00008  20269914.78109
 -18213061.52109       819.61609        52.37509
  23166154.50008  -8337646.23708      2234.10208        44.56208  23166159.59408
  -6263541.73708      1740.85808        49.06208
  24517254.65607   -742478.82707      3267.33407        36.31207  24517262.46907
   -344133.36407      2545.97507        38.75007
  23201509.21908  -8809349.62108     -2703.71808        43.00008  23201518.50008
  -6629872.34708     -2106.79308        48.37508
  23653166.06208  -6784513.84108     -2376.58908        46.00008  23653172.84408
  -5052321.48608     -1851.88808        48.06208
  24680678.71907  -3127618.12907     -3197.60007        39.87507  24680692.62508
  -2203358.49008     -2491.63608        43.43808
  21572200.93808 -18593588.26808      1087.25308        45.75008  21572202.40608
 -14254401.45608       847.21008        49.18808
  22220831.53109 -14268920.07909      2360.60109        50.25009  22220833.15609
 -10884787.24709      1839.42909        51.93809
  21807948.09409 -17567148.00309     -2671.93609        52.37509  21807951.78109
 -13454068.07309     -2082.02809        53.62509
 25  3  7  1 45  0.0000000  0 10G01G02G03G04G08G10G27G28G31G32
  21367818.46908 -18289319.28108      2234.30408        47.12508  21367818.75008
 -14017044.49108      1741.01608        49.75008
  20263971.53108 -23712101.58908      1031.07908        48.06208  20263969.90609
 -18237404.78009       803.43809        52.43809
  23153403.56208  -8404657.72408      2233.31808        45.50008  23153407.90608
  -6315758.43808      1740.24808        48.93808
  24498615.78107   -840419.47907      3261.97507        35.12507  24498625.43807
   -420450.55607      2541.79907        38.25007
  23216962.00008  -8728149.34708     -2709.37508        44.00008  23216970.71908
  -6566599.64508     -2111.20108        48.62508
  23666742.90608  -6713164.89408     -2379.70208        45.68808  23666750.09408
  -4996725.07208     -1854.31308        48.37508
  24698923.84408  -3031739.31008     -3194.02308        40.37508  24698938.28108
  -2128648.06208     -2488.84908        42.43808
  21566047.03108 -18625928.35408      1068.93808        46.00008  21566048.06208
 -14279601.48908       832.93908        49.37508
  22207388.09409 -14339565.66809      2349.26309        50.25009  22207389.62509
 -10939835.69309      1830.59409        52.00009
  21823223.78109 -17486872.37009     -2679.50009        52.00009  21823227.34409
 -13391515.68909     -2087.92209        52.75009
 25  3  7  1 45 30.0000000  0 10G01G02G03G04G08G10G27G28G31G32
  21355098.31208 -18356163.35608      2222.02408        46.93808  21355098.81208
 -14069130.75408      1731.44708        49.75008
  20258144.81208 -23742719.93708      1010.24908        47.87508  20258143.21909
 -18261263.23509       787.20709        52.31209
  23140655.34408  -8471650.18508      2232.90508        45.62508  23140659.75008
  -6367960.31608      1739.92608        49.06208
  24480009.75007   -938198.94207      3256.99007        36.18807  24480017.21907
   -496642.18907      2537.91407        37.31207
  23232446.21908  -8646782.66608     -2714.89508        44.31208  23232454.31208
  -6503197.25108     -2115.50308        48.31208
  23680337.53108  -6641724.58508     -2382.80808        45.62508  23680345.12508
  -4941057.48308     -1856.73308        48.43808
  24717149.00008  -2935970.94608     -3190.16408        40.06208  24717162.53108
  -2054023.74308     -2485.84208        42.87508
  21559997.87508 -18657716.67408      1050.52508        45.93808  21559998.90608
 -14304371.57808       818.59108        49.31208
  22194008.53108 -14409874.91708      2338.05408        49.93808  22194010.21909
 -10994622.05309      1821.86009        52.00009
  21838541.93809 -17406375.65609     -2686.90709        52.00009  21838545.50009
 -13328791.03509     -2093.69409        52.68809
 25  3  7  1 46  0.0000000  0 10G01G02G03G04G08G10G27G28G31G32
  21342448.31208 -18422639.14608      2209.70208        47.06208  21342449.06208
 -14120930.04408      1721.84608        49.93808
  20252437.12508 -23772714.42308       989.41908        48.06208  20252435.59409
 -18284635.56609       770.97609        52.50009
  23127911.09408  -8538623.33908      2232.02408        45.87508  23127914.59408
  -6420147.15608      1739.23908        48.93808
  24461432.65607  -1035815.74707      3251.18407        35.93807  24461441.65607
   -572707.08807      2533.39007        38.31207
  23247960.50008  -8565252.69208     -2720.20308        43.75008  23247969.50008
  -6439667.59708     -2119.63808        48.18808
  23693950.65608  -6570192.81308     -2386.00108        46.56208  23693956.93808
  -4885318.58808     -1859.22208        47.93808
  24735352.43808  -2840315.71208     -3186.62808        40.06208  24735364.78108
  -1979487.63108     -2483.08708        43.37508
  21554053.96908 -18688951.62908      1031.92608        46.12508  21554055.21908
 -14328710.49308       804.09808        49.50008
  22180693.65609 -14479845.26509      2326.72909        50.18809  22180695.12509
 -11049144.33909      1813.03509        52.06209
  21853902.31209 -17325660.18109     -2694.14109        52.81209  21853905.46909
 -13265895.91009     -2099.33009        53.06209
 25  3  7  1 46 30.0000000  0 10G01G02G03G04G08G10G27G28G31G32
  21329869.06208 -18488744.04408      2197.42208        47.00008  21329869.62508
 -14172440.33208      1712.27708        49.75008
  20246848.46908 -23802083.24608       968.69408        48.12508  20246847.06209
 -18307520.36609       754.82609        52.43809
  23115169.78108  -8605576.90208      2231.51108        45.18808  23115174.46908
  -6472318.69908      1738.84008        49.31208
  24442888.31207  -1133268.63807      3245.64007        36.12507  24442896.75007
   -648644.23507      2529.07007        39.25007
  23263505.09408  -8483562.43608     -2725.58608        42.31208  23263514.15608
  -6376013.09108     -2123.83308        47.37508
  23707579.46908  -6498569.29908     -2388.95008        46.00008  23707586.31208
  -4829508.23008     -1861.52008        48.00008
  24753532.06207  -2744776.14607     -3182.81207        38.62507  24753546.43808
  -1905041.67008     -2480.11408        44.43808
  21548215.75008 -18719631.63608      1013.50108        46.18808  21548216.81208
 -14352616.97508       789.74108        49.50008
  22167443.65609 -14549474.39609      2315.36409        50.31209  22167445.12509
 -11103400.75309      1804.18009        51.87509
  21869302.62509 -17244728.05209     -2701.22109        52.00009  21869306.46909
 -13202831.97209     -2104.84709        53.06209
 25  3  7  1 47  0.0000000  0 11G01G02G03G04G08G10G21G27G28G31G32
  21317360.46908 -18554475.97108      2184.90708        47.00008  21317361.31208
 -14223659.97908      1702.52508        49.68808
  20241378.93808 -23830825.08208       947.53208        47.93808  20241377.59409
 -18329916.60909       738.33609        52.37509
  23102432.31208  -8672510.98508      2230.87408        45.50008  23102437.75008
  -6524475.05708      1738.34308        49.56208
  24424375.59407  -1230556.70207      3240.13407        37.43807  24424383.81207
   -724452.90907      2524.78007        39.37507
  23279080.71908  -8401715.47908     -2730.69608        43.37508  23279089.31208
  -6312236.46208     -2127.81508        47.43808
  23721227.31208  -6426854.36808     -2392.12208        46.37508  23721234.50008
  -4773626.62508     -1863.99108        48.25008
  19624421.46908   1047392.96508        -5.18308        43.75008          .00000
          .00000          .00000          .00000
  24771690.62507  -2649355.12107     -3179.01607        38.75007  24771704.78108
  -1830688.06208     -2477.15608        44.25008
  21542483.37508 -18749755.62608       994.78008        46.18808  21542484.68808
 -14376090.18508       775.15308        49.50008
  22154259.09409 -14618759.74109      2303.66509        50.18809  22154260.50009
 -11157389.27809      1795.06309        51.87509
  21884744.59409 -17163581.93409     -2708.46409        51.87509  21884748.15609
 -13139601.30309     -2110.49209        53.12509
 25  3  7  1 47 30.0000000  0 11G01G02G03G04G08G10G21G27G28G31G32
  21304923.43808 -18619832.20308      2172.31408        47.06208  21304924.18808
 -14274586.90608      1692.71308        49.75008
  20236029.18808 -23858937.92008       926.77508        48.12508  20236028.00009
 -18351822.72109       722.16209        52.68809
  23089699.53108  -8739425.04008      2230.22708        46.18808  23089703.78108
  -6576615.81808      1737.83908        49.37508
  24405894.06207  -1327678.33607      3234.68507        36.56207  24405901.46907
   -800131.92607      2520.53407        39.25007
  23294686.03108  -8319714.79008     -2735.84508        44.37508  23294694.06208
  -6248340.04208     -2131.82708        48.00008
  23734890.96908  -6355047.62908     -2395.11708        45.75008  23734898.56208
  -4717673.50108     -1866.32508        48.18808
  19624519.12508   1047906.24208       -28.77408        43.87508  19624519.46909
       406.90809       -22.42209        53.50009
  24789826.28108  -2554055.05208     -3174.58708        40.50008  24789839.90608
  -1756428.66408     -2473.70508        43.62508
  21536856.84408 -18779321.86408       976.36208        46.18808  21536858.46908
 -14399128.79708       760.80208        49.75008
  22141140.25009 -14687698.56809      2292.27809        50.37509  22141141.84409
 -11211107.78509      1786.19109        52.18809
  21900226.43809 -17082223.83109     -2715.31709        52.12509  21900229.78109
 -13076205.45109     -2115.83209        52.93809
 25  3  7  1 48  0.0000000  0 11G01G02G03G04G08G10G21G27G28G31G32
  21292558.62508 -18684810.51508      2159.58008        46.81208  21292559.37508
 -14325219.31708      1682.79008        49.68808
  20230799.43808 -23886420.36908       905.52508        47.93808  20230798.15609
 -18373237.61209       705.60409        52.62509
  23076969.53108  -8806319.13808      2229.45808        45.56208  23076974.34408
  -6628741.01808      1737.24008        49.50008
  24387443.18807  -1424632.68107      3229.19207        35.87507  24387451.34407
   -875680.53707      2516.25307        38.93807
  23310319.06208  -8237563.73808     -2740.88408        44.37508  23310327.84408
  -6184326.42908     -2135.75408        48.31208
  23748573.53108  -6283149.21308     -2398.19308        45.56208  23748580.50008
  -4661648.91308     -1868.72208        48.37508
  19624752.93808   1049133.94708       -52.93008        43.81208  19624753.21909
      1363.53409       -41.24409        53.31209
  24807938.21907  -2458878.56807     -3170.66207        39.50007  24807952.03108
  -1682265.56308     -2470.64608        42.62508
  21531336.93808 -18808329.16108       957.57808        45.81208  21531338.40608
 -14421731.84908       746.16508        49.62508
  22128088.09409 -14756288.52809      2280.40309        50.25009  22128089.71909
 -11264554.44009      1776.93709        52.25009
  21915748.46909 -17000656.24109     -2722.45109        52.43809  21915751.96909
 -13012646.35209     -2121.39109        53.06209
 25  3  7  1 48 30.0000000  0 11G01G02G03G04G08G10G21G27G28G31G32
  21280266.28108 -18749408.21208      2146.85308        47.06208  21280266.68808
 -14375555.17108      1672.87208        49.68808
  20225689.93808 -23913270.67708       884.49208        47.93808  20225688.59409
 -18394159.93509       689.21509        52.50009
  23064244.87508  -8873192.72608      2228.93808        46.37508  23064247.87508
  -6680850.26408      1736.83508        48.75008
  24369025.15607  -1521418.07207      3223.25407        35.87507  24369033.68807
   -951097.53407      2511.62707        38.12507
  23325978.81208  -8155265.12408     -2745.79608        42.62508  23325988.81208
  -6120197.90808     -2139.58108        48.93808
  23762272.50008  -6211158.77208     -2401.22108        45.75008  23762280.62508
  -4605552.66508     -1871.08108        48.31208
  19625122.81208   1051077.15608       -76.73108        43.93808  19625123.03109
      2877.69109       -59.79009        53.37509
  24826026.12507  -2363828.20407     -3166.12307        38.93807  24826040.50008
  -1608200.70608     -2467.10908        42.37508
  21525923.65608 -18836775.85608       938.98708        45.87508  21525925.34408
 -14443898.08808       731.67808        49.62508
  22115102.50009 -14824526.94609      2268.78909        50.18809  22115104.09409
 -11317727.18309      1767.88809        52.18809
  21931309.53109 -16918881.18009     -2729.28709        52.31209  21931313.43809
 -12948925.58509     -2126.71709        53.00009
 25  3  7  1 49  0.0000000  0 11G01G02G03G04G08G10G21G27G28G31G32
  21268046.50008 -18813623.11408      2134.16308        46.87508  21268047.12508
 -14425592.73208      1662.98408        49.93808
  20220701.12508 -23939487.45808       863.32508        48.00008  20220699.71909
 -18414588.60009       672.72109        52.56209
  23051522.90608  -8940045.78308      2228.04908        46.31208  23051526.18808
  -6732943.52808      1736.14208        49.12508
  24350640.75007  -1618033.60807      3217.74707        37.50007  24350648.06207
  -1026382.24007      2507.33507        38.12507
  23341667.81208  -8072822.48308     -2750.21208        42.87508  23341676.96908
  -6055957.12508     -2143.02308        47.62508
  23775989.71908  -6139076.50408     -2404.23108        45.75008  23775996.06208
  -4549384.83908     -1873.42708        47.56208
  19625628.93808   1053736.29108      -100.37608        43.93808  19625629.09409
      4949.72509       -78.21509        53.37509
  24844089.00007  -2268906.63007     -3161.79207        36.31207  24844103.43808
  -1534236.22508     -2463.73408        41.31208
  21520617.25008 -18864660.82808       920.15108        45.75008  21520618.87508
 -14465626.62808       717.00108        49.68808
  22102184.71909 -14892411.54209      2256.90909        50.37509  22102186.25009
 -11370624.20909      1758.63009        52.37509
  21946910.09409 -16836901.12109     -2735.94509        52.43809  21946914.06209
 -12885045.09409     -2131.90509        53.00009
 25  3  7  1 49 30.0000000  0 11G01G02G03G04G08G10G21G27G28G31G32
  21255900.12508 -18877452.78708      2121.24508        46.93808  21255900.53108
 -14475330.11908      1652.91808        50.00008
  20215833.21908 -23965069.05008       842.17308        47.75008  20215831.87509
 -18434522.30209       656.23909        52.62509
  23038804.43808  -9006878.11408      2227.42908        45.62508  23038809.15608
  -6785020.61508      1735.65908        49.87508
  24332288.06207  -1714478.07207      3211.88507        37.00007  24332295.40607
  -1101533.57107      2502.76707        39.43807
  23357383.62508  -7990238.97908     -2755.12008        43.31208  23357391.25008
  -5991606.57008     -2146.84608        46.31208
  23789723.31208  -6066902.30608     -2407.41508        45.06208  23789731.00008
  -4493145.36108     -1875.90708        47.87508
  19626271.31208   1057111.68008      -124.56108        43.87508  19626271.40609
      7579.86509       -97.06009        53.25009
  24862127.78107  -2174116.42907     -3157.61507        36.43807  24862143.00008
  -1460374.17108     -2460.47908        41.75008
  21515418.06208 -18891982.79008       901.34008        45.75008  21515419.62508
 -14486916.43908       702.34308        49.81208
  22089334.43809 -14959939.74909      2244.99309        50.18809  22089335.84409
 -11423243.53709      1749.34509        52.31209
  21962549.12509 -16754718.37109     -2742.78609        52.81209  21962552.53109
 -12821006.65209     -2137.23609        53.06209
 25  3  7  1 50  0.0000000  0 11G01G02G03G04G08G10G21G27G28G31G32
  21243827.62508 -18940894.85708      2108.19608        46.93808  21243828.25009
 -14524765.46709      1642.75009        50.06209
  20211086.40608 -23990014.16708       820.79108        48.12508  20211085.06209
 -18453960.06709       639.57709        52.56209
  23026091.09408  -9073689.47508      2226.72608        46.25008  23026095.62509
  -6837081.37109      1735.11109        50.06209
  24313967.43807  -1810750.27207      3206.34307        36.56207  24313975.25007
  -1176550.66707      2498.44907        39.93807
  23373124.78108  -7907517.86708     -2759.66308        43.00008  23373132.93808
  -5927148.74508     -2150.38708        45.93808
  23803476.93808  -5994636.07708     -2410.41708        45.93808  23803482.81208
  -4436834.19208     -1878.24708        47.75008
  19627049.93808   1061203.79408      -148.32008        43.87508  19627050.21909
     10768.49509      -115.57409        53.31209
  24880140.43807  -2079460.36007     -3152.88807        36.56207  24880155.03108
  -1386616.56408     -2456.79608        40.56208
  21510326.31208 -18918740.41208       882.48008        46.06208  21510327.62508
 -14507766.51008       687.64708        49.62508
  22076552.37509 -15027109.53709      2232.96409        50.43809  22076553.96909
 -11475583.57209      1739.97209        52.37509
  21978226.34409 -16672335.16709     -2749.46809        52.68809  21978229.25009
 -12756812.01909     -2142.44209        52.75009
 25  3  7  1 50 30.0000000  0 11G01G02G03G04G08G10G21G27G28G31G32
  21231829.15608 -19003946.92108      2095.08508        47.12508  21231829.21908
 -14573896.92808      1632.53408        49.68808
  20206460.90608 -24014321.22108       799.57508        48.25008  20206459.59409
 -18472900.62909       623.04609        52.43809
  23013381.34408  -9140479.63708      2225.91608        46.43808  23013385.46908
  -6889125.62508      1734.48008        49.87508
  24295679.53107  -1906849.01207      3200.25407        35.87507  24295687.96907
  -1251432.63607      2493.70407        39.37507
  23388891.46908  -7824662.27308     -2764.11408        43.00008  23388901.03108
  -5862586.15808     -2153.85508        47.43808
  23817244.25008  -5922277.82308     -2413.43308        44.81208  23817252.96908
  -4380451.30508     -1880.59708        47.93808
  19627964.96908   1066013.15508      -172.37108        44.18808  19627965.31209
     14516.02009      -134.31509        53.25009
  24898126.65607  -1984940.71607     -3148.47407        36.68807  24898140.96908
  -1312965.25008     -2453.35608        41.37508
  21505342.12508 -18944932.45208       863.47208        46.12508  21505343.50008
 -14528175.86708       672.83508        49.43808
  22063839.06209 -15093918.14609      2220.85009        50.37509  22063840.53109
 -11527642.16609      1730.53209        52.31209
  21993940.87509 -16589753.82509     -2756.17909        52.25009  21993944.21909
 -12692462.99309     -2147.67209        52.81209
 25  3  7  1 51  0.0000000  0 10G01G02G03G04G08G10G21G28G31G32
  21219905.12508 -19066606.37908      2082.17308        47.06208  21219905.75009
 -14622722.46009      1622.47209        50.06209
  20201957.21908 -24037988.52308       778.41808        48.12508  20201955.75009
 -18491342.69909       606.55909        52.62509
  23000675.21908  -9207248.06108      2225.28808        46.43808  23000680.09409
  -6941152.93209      1733.99109        50.43809
  24277426.40607  -2002772.94707      3195.00007        37.43807  24277434.28107
  -1326178.38307      2489.61007        38.00007
  23404683.90608  -7741675.17808     -2768.55008        43.31208  23404693.81208
  -5797921.14408     -2157.31208        48.56208
  23831032.59408  -5849827.14608     -2416.47708        45.43808  23831040.25008
  -4323996.44508     -1882.96908        48.50008
  19629016.93808   1071540.42408      -196.02308        44.00008  19629017.28109
     18822.95509      -152.74509        53.25009
  21500465.90608 -18970557.44008       844.82708        46.18808  21500467.00008
 -14548143.37508       658.30708        49.68808
  22051194.90609 -15160362.75709      2208.82109        50.43809  22051196.37509
 -11579417.13409      1721.15909        52.56209
  22009692.84409 -16506976.36109     -2762.47609        52.18809  22009696.46909
 -12627961.17209     -2152.57809        53.06209
 25  3  7  1 51 30.0000000  0 10G01G02G03G04G08G10G21G28G31G32
  21208056.50008 -19128871.05908      2069.01108        47.00008  21208057.06209
 -14671240.36209      1612.21709        50.12509
  20197575.40608 -24061014.88508       756.88508        48.18808  20197574.15609
 -18509285.32109       589.78009        52.62509
  22987974.03108  -9273994.69108      2224.62408        46.56208  22987978.50009
  -6993163.23609      1733.47309        50.31209
  24259205.50007  -2098521.03707      3189.07707        36.56207  24259213.75007
  -1400787.17807      2484.99507        38.25007
  23420499.93808  -7658560.04208     -2772.56808        42.25008  23420510.62508
  -5733156.34608     -2160.44308        48.68808
  23844837.31208  -5777284.32108     -2419.51408        45.68808  23844845.40608
  -4267469.74208     -1885.33608        48.75008
  19630205.21908   1077785.82008      -220.07608        43.87508  19630205.71909
     23689.47309      -171.48809        53.18809
  21495697.78108 -18995614.40608       825.91608        46.18808  21495699.12508
 -14567668.23808       643.57108        49.68808
  22038620.50009 -15226441.60609      2196.53609        50.43809  22038622.03109
 -11630907.07509      1711.58609        52.56209
  22025481.87509 -16424005.25009     -2768.85309        52.18809  22025485.56209
 -12563308.44009     -2157.54709        52.75009
 25  3  7  1 52  0.0000000  0 10G01G02G03G04G08G10G21G28G31G32
  21196283.18808 -19190738.47408      2055.56408        47.06208  21196284.09409
 -14719448.72109      1601.73809        50.12509
  20193315.71908 -24083398.86608       735.35908        48.00008  20193314.46909
 -18526727.39909       573.00709        52.62509
  22975276.78108  -9340719.20008      2223.75708        46.43808  22975280.75008
  -7045156.32908      1732.79808        49.81208
  24241019.15607  -2194092.04207      3182.90507        36.56207  24241027.00007
  -1475257.96807      2480.18607        39.12507
  23436341.18808  -7575319.87608     -2776.68508        43.62508  23436349.50008
  -5668294.14808     -2163.65008        47.12508
  23858658.87508  -5704649.09908     -2422.69008        45.31208  23858667.15608
  -4210871.06008     -1887.81108        48.12508
  19631530.68808   1084749.80108      -244.22108        43.87508  19631530.87509
     29115.91309      -190.30209        53.06209
  21491037.87508 -19020102.00108       806.75008        46.25008  21491039.00008
 -14586749.45908       628.63708        49.75008
  22026116.43809 -15292152.05209      2184.11109        50.56209  22026117.68809
 -11682109.96809      1701.90509        52.62509
  22041307.25009 -16340842.60809     -2775.35609        51.93809  22041310.87509
 -12498506.48609     -2162.61509        52.31209
 25  3  7  1 52 30.0000000  0 10G01G02G03G04G08G10G21G28G31G32
  21184586.87508 -19252206.36708      2042.34108        47.25008  21184587.06209
 -14767345.74909      1591.43509        50.31209
  20189178.68808 -24105139.16208       714.05808        48.06208  20189177.43809
 -18543667.88609       556.40909        52.62509
  22962583.00008  -9407421.39708      2222.90808        46.31208  22962587.65608
  -7097132.02608      1732.13608        49.93808
  24222866.81207  -2289484.88607      3176.89707        37.37507  24222874.90607
  -1549589.90807      2475.50407        40.00007
  23452204.68808  -7491958.06308     -2780.57908        44.25008  23452213.12508
  -5603337.07208     -2166.68508        46.62508
  23872498.78108  -5631921.54808     -2425.58108        45.06208  23872507.15608
  -4154200.41608     -1890.06308        48.18808
  19632992.71908   1092432.68308      -267.93908        43.93808  19632992.93809
     35102.56209      -208.78409        53.25009
  21486486.71908 -19044019.17808       787.78808        46.37508  21486487.78108
 -14605386.19308       613.86108        49.93808
  22013682.59409 -15357491.75409      2171.89009        50.68809  22013683.62509
 -11733023.93909      1692.38209        52.56209
  22057168.31209 -16257490.80909     -2781.44809        51.81209  22057172.37509
 -12433557.09309     -2167.36209        52.25009
 25  3  7  1 53  0.0000000  0 10G01G02G03G04G08G10G21G28G31G32
  21172966.12508 -19313272.33808      2028.85508        47.12508  21172966.78109
 -14814929.60909      1580.92609        50.31209
  20185164.18808 -24126234.49208       692.53408        47.93808  20185163.12509
 -18560105.82409       539.63709        52.62509
  22949894.87508  -9474101.00508      2222.33208        46.56208  22949899.00009
  -7149090.10509      1731.68709        50.25009
  24204747.68807  -2384698.40807      3171.06907        37.00007  24204756.28108
  -1623782.11308      2470.96308        40.56208
  23468090.81208  -7408477.68508     -2784.62608        43.43808  23468097.84408
  -5538287.62308     -2169.83908        45.31208
  23886355.84408  -5559101.54708     -2428.66508        44.25008  23886363.53108
  -4097457.75808     -1892.46608        47.25008
  19634591.37508   1100834.35708      -291.84808        44.06208  19634591.87509
     41649.28609      -227.41409        53.31209
  21482043.96908 -19067364.79208       768.78208        46.12508  21482045.21908
 -14623577.54808       599.05108        49.81208
  22001319.65609 -15422458.43209      2159.40409        50.62509  22001321.06209
 -11783647.26709      1682.65309        52.56209
  22073065.34409 -16173952.03309     -2787.62009        51.31209  22073069.53109
 -12368462.03309     -2172.17109        52.50009
 25  3  7  1 53 30.0000000  0 10G01G02G03G04G08G10G21G28G31G32
  21161422.75008 -19373933.87708      2015.30508        47.12508  21161423.37509
 -14862198.30909      1570.36809        50.50009
  20181272.84408 -24146683.08008       670.83508        47.56208  20181271.87509
 -18576039.79309       522.72909        52.62509
  22937210.71908  -9540757.52508      2221.54808        46.87508  22937214.78109
  -7201030.21609      1731.07609        50.43809
  24186663.46907  -2479731.25407      3164.65807        36.43807  24186671.03107
  -1697833.56007      2465.96807        39.81207
  23483997.43808  -7324881.74708     -2788.54208        41.62508  23484007.56208
  -5473148.18608     -2172.89008        47.68808
  23900231.06208  -5486188.91808     -2432.11208        44.62508  23900238.46908
  -4040642.90008     -1895.15208        47.12508
  19636327.12508   1109955.33808      -315.96208        43.93808  19636327.46909
     48756.51809      -246.20409        53.25009
  21477710.46908 -19090137.51608       749.48208        45.87508  21477711.71908
 -14641322.50408       584.01208        49.93808
  21989028.37509 -15487049.32009      2146.78009        50.37509  21989029.68809
 -11833977.75609      1672.81509        52.81209
  22088997.65609 -16090228.36509     -2793.83109        51.62509  22089001.78109
 -12303222.91009     -2177.01109        53.18809
 25  3  7  1 54  0.0000000  0 10G01G02G03G04G08G10G21G28G31G32
  21149956.56208 -19434188.70508      2001.73608        47.25008  21149956.90609
 -14909150.10409      1559.79409        50.37509
  20177505.00008 -24166483.90608       649.19408        47.62508  20177503.87509
 -18591469.02309       505.86609        52.62509
  22924530.50008  -9607390.79408      2220.75208        46.62508  22924534.87509
  -7252952.21609      1730.45609        50.62509
  24168613.75007  -2574582.44907      3158.69907        37.43807  24168621.34407
  -1771743.42207      2461.32407        39.37507
  23499927.53108  -7241173.60908     -2791.99508        42.43808  23499936.96908
  -5407921.33108     -2175.58008        48.12508
  23914123.53108  -5413183.66408     -2435.22008        45.12508  23914132.96908
  -3983755.88808     -1897.57408        48.81208
  19638199.65608   1119795.67808      -340.01708        44.00008  19638200.00009
     56424.28509      -264.94809        53.00009
  21473485.96908 -19112336.39108       730.41008        45.93808  21473487.43808
 -14658620.29708       569.15108        49.93808
  21976808.81209 -15551262.33509      2134.14109        50.50009  21976810.34409
 -11884013.79809      1662.96709        52.68809
  22104964.34409 -16006322.08209     -2799.88509        51.50009  22104968.37509
 -12237841.49609     -2181.72909        53.00009
 25  3  7  1 54 30.0000000  0 10G01G02G03G04G08G10G21G28G31G32
  21138568.40608 -19494034.49208      1987.94208        47.25008  21138568.81209
 -14955783.16209      1549.04609        50.56209
  20173860.62508 -24185635.78608       627.49508        47.75008  20173859.43809
 -18606392.56609       488.95709        52.75009
  22911855.00008  -9674000.46608      2219.81008        46.56208  22911859.53109
  -7304855.80109      1729.72209        50.87509
  24150598.40607  -2669250.76207      3152.42707        36.68807  24150606.15607
  -1845510.85307      2456.43707        38.56207
  23515878.43808  -7157356.36608     -2795.74008        44.43808  23515886.68808
  -5342609.43708     -2178.49908        47.50008
  23928034.03108  -5340085.75608     -2438.30108        45.18808  23928041.50008
  -3926796.65808     -1899.97508        48.00008
  19640209.21908   1130355.54608      -364.06508        44.06208  19640209.50009
     64652.72809      -283.68709        53.12509
  21469370.93808 -19133960.34808       711.27008        46.00008  21469372.75009
 -14675470.09109       554.23609        50.25009
  21964662.21909 -15615095.04209      2121.32809        50.50009  21964663.25009
 -11933753.49309      1652.98309        52.75009
  22120965.56209 -15922235.43009     -2805.94009        51.12509  22120969.93809
 -12172319.51109     -2186.44709        53.18809
 25  3  7  1 55  0.0000000  0 10G01G02G03G04G08G10G21G28G31G32
  21127258.00008 -19553468.94608      1974.35308        47.06208  21127258.56209
 -15002095.70609      1538.45709        50.25009
  20170339.78108 -24204137.64608       605.94708        47.87508  20170338.68809
 -18620809.61109       472.16709        52.62509
  22899184.31208  -9740586.26908      2219.23608        46.68808  22899188.50009
  -7356740.80009      1729.27509        50.62509
  24132617.56207  -2763735.19407      3146.21807        35.25007  24132626.31207
  -1919134.92007      2451.59907        38.62507
  23531848.03108  -7073433.30808     -2799.01908        43.37508  23531856.12508
  -5277215.04808     -2181.05308        45.31208
  23941961.31208  -5266895.11408     -2441.16908        44.25008  23941970.46908
  -3869765.19808     -1902.21008        48.43808
  19642355.59408   1141635.26008      -387.89108        43.93808  19642356.03109
     73442.08709      -302.25209        53.18809
  21465365.90608 -19155008.38708       691.99508        46.18808  21465367.28108
 -14691871.14108       539.21708        49.93808
  21952587.78109 -15678545.42109      2108.63809        50.75009  21952588.96909
 -11983195.28109      1643.09409        52.62509
  22137000.75009 -15837970.60409     -2811.71609        50.81209  22137005.09409
 -12106658.71209     -2190.94809        52.81209
 25  3  7  1 55 30.0000000  0 10G01G02G03G04G08G10G21G28G31G32
  21116026.78108 -19612489.79008      1960.41508        47.18808  21116027.34409
 -15048085.95909      1527.59609        50.50009
  20166943.06208 -24221988.22208       584.11908        48.00008  20166941.75009
 -18634719.16109       455.15709        52.81209
  22886517.68808  -9807147.93508      2218.26208        46.68808  22886521.87508
  -7408606.97908      1728.51608        50.00008
  24114674.56207  -2858034.61207      3140.13907        37.31207  24114681.46907
  -1992614.85207      2446.86207        39.06207
  23547836.62508  -6989407.53408     -2802.53708        41.31208  23547846.34408
  -5211740.64108     -2183.79508        46.06208
  23955906.96908  -5193611.73408     -2444.41908        44.18808  23955915.68808
  -3812661.46208     -1904.74208        48.00008
  19644639.00008   1153634.54608      -412.03608        44.06208  19644639.43809
     82792.14209      -321.06709        53.06209
  21461470.37508 -19175479.51708       672.72008        46.25008  21461471.90609
 -14707822.63609       524.19709        50.18809
  21940587.03109 -15741610.95609      2095.69309        50.81209  21940587.96909
 -12032337.18109      1633.00809        52.68809
  22153069.46909 -15753529.87309     -2817.55409        50.68809  22153074.09409
 -12040860.84409     -2195.49609        53.18809
 25  3  7  1 56  0.0000000  0 10G01G02G03G04G08G10G21G28G31G32
  21104874.75008 -19671094.41708      1946.66508        47.18808  21104875.31209
 -15093751.89109      1516.88209        50.50009
  20163670.53108 -24239186.17008       562.50708        48.12508  20163669.21909
 -18648120.17309       438.31709        52.87509
  22873856.15608  -9873684.86908      2217.58808        46.68808  22873860.50009
  -7460453.88909      1727.99109        50.25009
  24096765.34407  -2952147.62307      3133.96507        37.62507  24096772.87507
  -2065949.53907      2442.05107        39.75007
  23563846.43808  -6905281.98208     -2805.71308        43.00008  23563855.65608
  -5146188.53808     -2186.27008        46.68808
  23969870.50008  -5120235.29108     -2447.25808        44.68808  23969877.81208
  -3755485.20308     -1906.95408        46.87508
  19647059.50008   1166353.95408      -435.94708        44.06208  19647059.84409
     92703.33509      -339.69909        53.06209
  21457684.93808 -19195372.48008       653.65708        46.25008  21457686.25009
 -14723323.61809       509.34309        50.25009
  21928659.25009 -15804288.74709      2082.89609        50.75009  21928660.65609
 -12081176.95009      1623.03509        52.75009
  22169171.34409 -15668915.11809     -2823.25209        51.31209  22169175.34409
 -11974927.40409     -2199.93709        52.75009
 25  3  7  1 56 30.0000000  0 10G01G02G03G04G08G10G21G28G31G32
  21093802.25008 -19729280.87708      1932.58508        47.37508  21093802.87509
 -15139091.98009      1505.91109        50.43809
  20160522.15608 -24255730.50908       540.49108        48.12508  20160520.90609
 -18661011.89209       421.16209        52.75009
  22861199.59408  -9940197.09308      2216.81908        47.00008  22861203.21909
  -7512281.54509      1727.39109        50.25009
  24078891.62507  -3046073.53007      3127.64607        37.81207  24078899.46908
  -2139138.38908      2437.12708        40.18808
  23579873.40608  -6821060.25608     -2808.96508        43.43808  23579882.68808
  -5080561.45708     -2188.80408        46.62508
  23983851.12508  -5046766.07408     -2450.43008        45.06208  23983859.62508
  -3698236.63808     -1909.42608        47.06208
  19649616.93808   1179793.22008      -459.85108        44.18808  19649617.28109
    103175.46209      -358.32609        52.93809
  21454009.37508 -19214686.65808       634.22908        46.31208  21454010.90608
 -14738373.61608       494.20408        50.00008
  21916806.03109 -15866577.23509      2069.83409        50.87509  21916807.50009
 -12129713.36109      1612.85809        52.68809
  22185305.84409 -15584128.93809     -2829.03109        51.75009  22185309.37509
 -11908860.35809     -2204.43909        51.93809
