     3.04           OBSERVATION DATA    M (MIXED)           RINEX VERSION / TYPE
BLANK OR G = GPS, R = GLONASS, C = BDS, E = GAL, J = QZSS, M = MIXEDCOMMENT             
HGO                 HITARGET            20250510 112538 UTC PGM / RUN BY / DATE 
1111                                                        MARKER NAME         
                                                            MARKER NUMBER       
whoever             HITARGET                                OBSERVER / AGENCY   
10020466            iRTK2                                   REC # / TYPE / VERS 
1                   HITIRTK2-2                              ANT # / TYPE        
 -2623864.1664  3976988.9231  4226060.4714                  APPROX POSITION XYZ 
------------------------------------------------------------COMMENT             
*** Antenna height is from mark to ANTENNA Phase Center.    COMMENT             
------------------------------------------------------------COMMENT             
        1.4072        0.0000        0.0000                  ANTENNA: DELTA H/E/N
G    9 C1C C2W C2X L1C L2W L2X S1C S2W S2X                  SYS / # / OBS TYPES 
R   12 C1C C1P C2P C2C L1C L1P L2P L2C S1C S1P S2P S2C      SYS / # / OBS TYPES 
E   12 C1X C5X C7X C8X L1X L5X L7X L8X S1X S5X S7X S8X      SYS / # / OBS TYPES 
C    6 C2I C7I L2I L7I S2I S7I                              SYS / # / OBS TYPES 
     5.000                                                  INTERVAL            
  2025     4    10     6    34   10.0000000     GPS         TIME OF FIRST OBS   
  2025     4    10     6    55   35.0000000     GPS         TIME OF LAST OBS    
     0                                                      RCV CLOCK OFFS APPL 
    18                                                      LEAP SECONDS        
                                                            END OF HEADER       
> 2025 04 10 06 34 10.0000000  0 30
G22  22099359.195    22099366.254                   116132914.590    90493210.437                          44.900          32.700                  
G03  22398671.594                    22398682.430   117705808.694                    91718856.456          41.800                          44.300  
G04  23697388.320                    23697400.203   124530619.680                    97036894.877          39.100                          40.500  
G19  20019704.734    20019708.695                   105204255.302    81977357.554                          47.300          41.200                  
G06  21257300.820                    21257311.070   111707868.157                    87045117.341          46.900                          47.500  
G09  24004601.711                    24004618.105   126145033.441                    98294906.639          37.300                          41.400  
G17  20808932.703                    20808939.375   109351678.646                    85209128.015          47.200                          47.500  
G14  22978794.242                    22978805.742   120754380.593                    94094343.880          41.200                          41.100  
G11  23625283.438                    23625293.445   124151696.049                    96741618.589          39.900                          40.900  
R01  21141156.641    21141155.594                                   113011592.681   113011586.683                                          43.600          42.500                                  
R02  21219069.273    21219068.539    21219078.340    21219077.773   113229021.004   113229012.993    88067007.829    88067013.840          46.700          46.400          45.600          46.300  
R16  21650957.078    21650956.387    21650965.035    21650965.160   115655578.988   115655516.990    89954288.581    89954295.585          45.800          44.000          44.900          45.900  
R24  21761760.922    21761760.223    21761770.281    21761769.980   116369909.663   116369900.659    90509923.788    90509929.792          44.100          42.700          45.000          45.300  
R15  21564590.781    21564591.484    21564601.102    21564600.840   115234636.605   115234618.617    89626928.121    89626933.124          44.700          43.100          44.100          44.500  
R17  19856498.156    19856496.750    19856505.215    19856504.965   106256134.678   106256112.668    82643650.957    82643655.967          48.400          47.300          49.100          50.200  
R18  21845367.484    21845366.059    21845374.891    21845374.449   116612050.034   116612038.060    90698250.822    90698254.819          42.800          42.300          44.900          45.000  
E13  26340137.016    26340147.926    26340145.207    26340148.203   138418346.692   103364330.062   106060790.760   104712557.518          40.500          41.300          43.200          48.000  
E15  23583110.000    23583117.434    23583115.605    23583117.918   123930077.594    92545165.867    94959387.122    93752284.600          48.900          48.600          50.000          55.400  
E21  26800210.789    26800219.375    26800218.203    26800220.289   140836057.327   105169759.952   107913319.619   106541536.392          39.600          41.900          44.000          49.000  
E27  24379194.094    24379201.367    24379199.820    24379201.945   128113528.789    95669177.253    98164895.302    96917029.886          49.500          47.800          48.600          54.400  
E30  26114747.945    26114758.801    26114756.082    26114758.965   137233925.107   102479862.616   105153251.038   103816545.438          43.200          45.100          46.500          51.300  
E05  25659389.594    25659401.469    25659400.719    25659402.402   134841008.154   100692952.808   103319726.016   102006319.018          39.400          40.000          42.900          47.100  
C04  38608134.047    38608133.777   201042684.032   155458953.015          37.100          40.800  
C03  37585162.555    37585162.918   195715803.307   151339872.655          38.300          42.300  
C02  39065860.594    39065860.469   203426211.726   157302032.135          35.500          38.500  
C01  38140519.305    38140520.945   198607685.467   153576070.667          38.600          42.600  
C30  22093331.188                   115045770.918                          47.800                  
C29  22565160.469                   117502709.963                          47.500                  
C20  24540753.555                   127790145.745                          41.300                  
C13  39075920.133    39075929.148   203478570.014   157342572.174          38.700          40.900  
> 2025 04 10 06 34 15.0000000  0 30
G22  22101211.172    22101218.109                   116142646.597    90500793.817                          45.100          33.100                  
G03  22400971.828                    22400982.598   117717896.200                    91728275.290          41.900                          43.300  
G04  23694978.180                    23694990.234   124517953.684                    97027025.316          38.100                          40.800  
G19  20018302.250    20018306.746                   105196887.723    81971616.601                          46.800          41.400                  
G06  21255514.703                    21255524.156   111698478.590                    87037800.781          47.800                          47.800  
G09  24001222.789                    24001239.637   126127281.503                    98281074.065          37.500                          40.200  
G17  20809292.508                    20809299.406   109353569.960                    85210601.769          47.200                          47.300  
G14  22981664.703                    22981676.113   120769465.287                    94106098.144          42.000                          42.000  
G11  23622279.086                    23622288.863   124135905.570                    96729314.347          40.400                          41.100  
R01  21141443.750    21141442.586                                   113013127.391   113013121.370                                          43.100          42.000                                  
R02  21215802.195    21215801.344    21215810.801    21215810.770   113211587.304   113211579.315    88053448.298    88053454.309          46.400          46.100          45.500          46.700  
R16  21649885.703    21649884.660    21649894.137    21649894.789   115649860.321   115649798.313    89949840.717    89949847.729          45.200          44.300          46.000          46.800  
R24  21763440.969    21763438.625    21763447.996    21763448.184   116378887.336   116378878.346    90516906.420    90516912.423          43.500          42.500          44.600          44.800  
R15  21566948.172    21566947.816    21566957.023    21566957.156   115247229.650   115247211.664    89636722.684    89636727.688          45.300          43.900          44.400          44.000  
R17  19855709.008    19855707.484    19855715.699    19855715.813   106251912.459   106251890.451    82640367.004    82640372.008          48.200          46.700          48.600          50.000  
R18  21842606.414    21842606.746    21842615.242    21842614.563   116597314.922   116597302.913    90686790.198    90686794.193          42.100          40.900          44.800          45.500  
E13  26337757.063    26337767.945    26337765.695    26337768.336   138405840.903   103354991.345   106051208.427   104703096.996          39.600          41.500          43.100          48.000  
E15  23582468.766    23582476.219    23582474.531    23582476.777   123926708.423    92542649.922    94956805.545    93749735.841          48.600          48.100          48.900          55.600  
E21  26797781.023    26797789.750    26797787.500    26797790.211   140823286.898   105160223.584   107903534.479   106531875.642          39.000          41.200          43.100          47.900  
E27  24379269.969    24379277.594    24379275.855    24379278.051   128113927.252    95669474.796    98165200.604    96917331.309          48.300          47.000          48.200          54.400  
E30  26116950.352    26116960.559    26116958.590    26116960.883   137245497.021   102488503.971   105162117.822   103825299.505          43.800          43.600          45.500          51.000  
E05  25657736.492    25657748.848    25657747.535    25657749.668   134832322.190   100686466.559   103313070.554   101999748.166          39.400          40.500          42.600          47.400  
C04  38607561.563    38607561.590   201039705.145   155456649.563          36.800          40.700  
C03  37584613.336    37584614.320   195712947.563   151337664.410          37.900          41.700  
C02  39065298.352    39065297.852   203423281.880   157299766.566          35.900          38.800  
C01  38139977.641    38139979.773   198604867.336   153573891.516          39.000          42.500  
C30  22093722.367                   115047807.499                          47.800                  
C29  22563090.648                   117491934.166                          47.500                  
C20  24537208.125                   127771686.652                          41.300                  
C13  39074199.875    39074209.066   203469613.601   157335646.535          38.600          40.500  
> 2025 04 10 06 34 20.0000000  0 30
G22  22103064.664    22103072.090                   116152387.215    90508383.890                          45.500          32.200                  
G03  22403273.773                    22403283.957   117729992.066                    91737700.608          42.900                          43.500  
G04  23692569.320                    23692581.715   124505296.043                    97017162.253          38.500                          40.200  
G19  20016902.227    20016906.215                   105189529.971    81965883.285                          46.600          40.600                  
G06  21253728.859                    21253738.910   111689095.249                    87030489.084          47.800                          47.600  
G09  23997844.492                    23997861.527   126109531.235                    98267242.778          37.100                          41.800  
G17  20809653.500                    20809660.738   109355469.617                    85212082.013          46.700                          48.300  
G14  22984536.242                    22984547.535   120784553.281                    94117855.002          41.500                          42.000  
G11  23619274.297                    23619284.383   124120117.908                    96717012.271          41.000                          41.700  
R01  21141734.961    21141733.680                                   113014683.073   113014677.075                                          43.200          41.900                                  
R02  21212537.844    21212536.406    21212545.738    21212545.930   113194167.431   113194159.421    88039899.525    88039905.543          47.300          46.600          45.900          46.100  
R16  21648819.547    21648818.738    21648828.293    21648828.348   115644162.266   115644100.230    89945408.914    89945415.910          43.800          42.600          45.500          46.800  
R24  21765118.820    21765118.824    21765128.098    21765128.148   116387867.846   116387858.847    90523891.262    90523897.266          42.900          42.000          44.000          45.400  
R15  21569307.523    21569306.348    21569315.988    21569315.805   115259835.281   115259817.264    89646527.062    89646532.065          46.300          44.700          43.600          44.300  
R17  19854920.984    19854919.461    19854927.453    19854927.492   106247696.073   106247674.073    82637087.610    82637092.621          48.700          46.900          48.500          49.900  
R18  21839846.055    21839845.332    21839854.559    21839853.922   116582581.660   116582569.664    90675330.988    90675334.984          43.100          41.900          44.200          44.500  
E13  26335377.820    26335388.418    26335386.262    26335388.918   138393336.965   103345654.000   106041627.507   104693637.856          40.500          42.100          44.000          48.800  
E15  23581828.203    23581835.758    23581834.164    23581836.305   123923342.836    92540136.664    94954226.727    93747189.806          48.200          48.600          49.500          55.700  
E21  26795352.039    26795360.422    26795359.016    26795361.328   140810523.361   105150692.393   107893754.646   106522220.128          42.500          42.100          44.000          49.100  
E27  24379347.617    24379355.180    24379353.492    24379355.699   128114336.097    95669780.105    98165513.876    96917640.596          47.600          47.400          48.500          54.400  
E30  26119152.586    26119163.664    26119161.461    26119163.859   137257072.499   102497147.966   105170987.338   103834056.263          43.700          44.300          47.000          51.800  
E05  25656085.070    25656097.992    25656095.504    25656098.172   134823644.535   100679986.535   103306421.473   101993183.612          38.300          41.900          43.800          48.200  
C04  38606989.719    38606989.488   201036724.791   155454344.951          36.600          40.400  
C03  37584064.688    37584065.590   195710090.300   151335454.999          38.300          42.000  
C02  39064734.891    39064735.141   203420350.470   157297499.845          35.600          39.100  
C01  38139436.688    38139438.164   198602047.756   153571711.231          38.200          42.000  
C30  22094114.570                   115049848.811                          49.000                  
C29  22561022.102                   117481161.142                          47.900                  
C20  24533664.227                   127753231.341                          42.000                  
C13  39072480.258    39072489.402   203460658.471   157328721.867          39.800          40.600  
> 2025 04 10 06 34 25.0000000  0 31
G22  22104920.141    22104927.250                   116162137.613    90515981.596                          45.900          33.600                  
G03  22405577.422                    22405587.953   117742097.397                    91747133.331          42.000                          45.500  
G04  23690162.750                    23690174.418   124492647.877                    97007306.554          38.600                          40.800  
G19  20015504.117    20015508.293                   105182183.263    81960158.584                          46.700          41.100                  
G06  21251944.031                    21251954.445   111679719.256                    87023183.117          47.000                          48.300  
G09  23994466.656                    23994484.816   126091783.721                    98253413.656          37.200                          42.400  
G17  20810016.563                    20810024.031   109357378.715                    85213569.617          46.200                          47.600  
G14  22987408.320                    22987420.078   120799645.757                    94129615.312          41.100                          43.600  
G11  23616271.344                    23616281.129   124104334.217                    96704713.301          39.000                          42.400  
R01  21142030.070    21142029.141                                   113016261.004   113016255.019                                          44.200          42.800                                  
R02  21209275.219    21209274.367    21209284.512    21209284.703   113176762.773   113176754.784    88026362.591    88026368.602          45.900          45.400          46.500          47.000  
R16  21647757.258    21647755.277    21647765.457    21647765.281   115638486.241   115638424.260    89940994.244    89941001.240          45.300          43.700          46.100          47.900  
R24  21766798.594    21766798.363    21766808.406    21766808.074   116396852.192   116396843.190    90530879.055    90530885.059          43.100          42.100          43.900          45.100  
R15  21571668.188    21571668.188    21571678.012    21571677.813   115272454.501   115272436.506    89656341.997    89656347.000          45.600          44.200          44.200          44.800  
R17  19854134.695    19854133.172    19854140.961    19854140.816   106243486.739   106243464.744    82633813.672    82633818.676          48.800          47.700          47.600          49.700  
R18  21837086.664    21837085.824    21837095.168    21837095.090   116567851.568   116567839.560    90663874.280    90663878.277          43.200          42.400          44.200          45.800  
E13  26332998.797    26333009.352    26333007.898    26333010.215   138380836.111   103336318.975   106032048.955   104684181.071          38.100          41.600          43.700          48.800  
E15  23581189.094    23581196.457    23581194.484    23581196.828   123919981.927    92537626.881    94951651.472    93744647.283          48.300          48.500          49.800          55.700  
E21  26792924.852    26792932.758    26792931.445    26792933.961   140797767.826   105141167.186   107883980.943   106512570.673          41.300          42.200          44.000          49.000  
E27  24379427.758    24379435.348    24379433.520    24379435.770   128114756.441    95670093.984    98165835.954    96917958.577          47.800          47.000          49.100          54.200  
E30  26121356.156    26121367.180    26121365.629    26121367.551   137268652.646   102505795.469   105179860.417   103842816.551          43.600          44.700          46.700          51.700  
E05  25654436.438    25654448.395    25654446.520    25654448.734   134814976.394   100673513.570   103299779.646   101986626.216          39.300          40.600          42.700          47.200  
C04  38606417.328    38606416.922   201033744.236   155452040.208          37.000          40.400  
C03  37583516.953    37583517.281   195707232.807   151333245.405          38.100          42.000  
C02  39064171.242    39064171.605   203417418.619   157295232.764          35.500          37.900  
C01  38138894.992    38138896.496   198599227.851   153569530.716          38.400          42.400  
C27  25550192.461                   133046565.073                          29.900                  
C30  22094507.531                   115051895.976                          48.400                  
C29  22558954.281                   117470392.028                          48.000                  
C20  24530121.391                   127734780.875                          42.100                  
C13  39070761.422    39070769.945   203451705.708   157321799.045          39.800          40.000  
> 2025 04 10 06 34 30.0000000  0 31
G22  22106777.641    22106784.676                   116171897.356    90523586.576                          46.100          33.000                  
G03  22407882.016                    22407893.320   117754211.828                    91756573.121          42.000                          44.700  
G04  23687756.719                    23687769.738   124480008.826                    96997457.981          37.100                          41.600  
G19  20014107.953    20014112.105                   105174847.156    81954442.129                          47.000          41.200                  
G06  21250161.211                    21250171.691   111670350.192                    87015882.561          47.000                          47.600  
G09  23991090.695                    23991108.004   126074038.679                    98239586.444          37.400                          42.400  
G17  20810382.250                    20810389.438   109359296.872                    85215064.285          46.300                          47.300  
G14  22990280.664                    22990292.664   120814742.318                    94141378.831          40.600                          42.800  
G11  23613268.555                    23613277.836   124088554.083                    96692417.101          40.300                          42.400  
R01  21142328.797    21142328.570                                   113017860.673   113017854.667                                          44.100          42.500                                  
R02  21206017.539    21206015.516    21206025.395    21206025.664   113159372.829   113159364.835    88012837.101    88012843.111          46.700          45.200          45.900          46.400  
R16  21646698.641    21646697.129    21646706.848    21646706.688   115632831.858   115632769.873    89936596.383    89936603.379          45.100          43.700          45.900          47.400  
R24  21768480.586    21768479.418    21768489.359    21768489.043   116405840.094   116405831.089    90537869.634    90537875.639          44.000          42.300          44.000          45.200  
R15  21574031.766    21574031.883    21574042.391    21574041.793   115285086.931   115285068.935    89666167.228    89666172.231          45.600          44.000          44.900          46.100  
R17  19853348.961    19853347.320    19853355.461    19853355.309   106239284.033   106239262.017    82630544.904    82630549.907          49.500          47.600          48.200          49.400  
R18  21834328.008    21834326.465    21834335.992    21834335.496   116553124.079   116553112.060    90652419.555    90652423.559          43.600          41.500          45.000          44.900  
E13  26330620.797    26330631.324    26330629.168    26330631.828   138368337.919   103326985.908   106022472.417   104674726.270          38.700          42.600          43.400          48.900  
E15  23580550.227    23580557.387    23580555.652    23580557.914   123916625.334    92535120.335    94949079.535    93742108.044          48.600          48.300          50.100          55.700  
E21  26790498.742    26790507.449    26790505.199    26790508.273   140785019.929   105131647.596   107874213.037   106502926.925          41.500          42.600          44.900          49.700  
E27  24379509.945    24379517.379    24379515.316    24379517.836   128115187.924    95670416.195    98166166.570    96918284.990          47.900          46.800          48.600          54.200  
E30  26123560.977    26123571.438    26123569.938    26123571.777   137280237.046   102514446.130   105188736.739   103851580.042          42.700          44.600          45.900          51.500  
E05  25652789.094    25652800.934    25652798.492    25652800.680   134806317.322   100667047.420   103293144.812   101980075.723          40.000          40.400          43.500          47.400  
C04  38605845.047    38605844.168   201030762.999   155449734.911          37.100          40.400  
C03  37582967.273    37582968.051   195704374.561   151331035.225          38.300          42.300  
C02  39063608.297    39063608.871   203414485.912   157292965.020          36.000          38.600  
C01  38138353.078    38138354.637   198596407.257   153567349.652          38.700          42.000  
C27  25552084.516                   133056414.541                          30.700                  
C30  22094901.750                   115053948.590                          48.300                  
C29  22556886.406                   117459626.427                          47.200                  
C20  24526579.000                   127716334.903                          42.300                  
C13  39069042.102    39069050.883   203442755.010   157314877.810          39.700          40.400  
> 2025 04 10 06 34 35.0000000  0 31
G22  22108636.188    22108643.695                   116181666.355    90531198.775                          45.600          32.400                  
G03  22410188.633                    22410199.918   117766335.175                    91766019.854          41.400                          44.300  
G04  23685353.359                    23685365.473   124467378.779                    96987616.438          37.700                          40.900  
G19  20012714.289    20012718.207                   105167521.613    81948733.914                          46.700          40.900                  
G06  21248379.695                    21248389.574   111660988.021                    87008587.359          47.300                          47.400  
G09  23987712.664                    23987731.316   126056295.918                    98225761.039          34.700                          41.500  
G17  20810749.008                    20810755.977   109361224.021                    85216565.949          46.500                          47.900  
G14  22993154.227                    22993166.355   120829842.781                    94153145.392          41.800                          43.000  
G11  23610265.609                    23610276.070   124072777.478                    96680123.650          39.700                          43.300  
R01  21142633.422    21142631.789                                   113019481.809   113019475.810                                          43.600          42.200                                  
R02  21202760.891    21202759.805    21202769.727    21202769.648   113141997.549   113141989.554    87999323.018    87999329.028          46.900          45.600          45.600          45.800  
R16  21645643.422    21645642.379    21645652.156    21645652.078   115627198.805   115627136.819    89932215.119    89932222.108          44.600          43.200          44.900          45.000  
R24  21770162.734    21770161.449    21770170.637    21770170.586   116414831.386   116414822.403    90544862.860    90544868.864          44.600          42.600          44.900          44.900  
R15  21576399.172    21576398.699    21576409.395    21576409.066   115297732.600   115297714.605    89676002.719    89676007.730          45.700          44.000          44.800          45.800  
R17  19852564.695    19852563.996    19852571.582    19852571.359   106235087.876   106235065.860    82627281.223    82627286.220          48.800          47.400          48.600          49.400  
R18  21831567.898    21831568.703    21831577.969    21831577.660   116538399.079   116538387.054    90640966.814    90640970.824          40.900          40.300          44.400          45.100  
E13  26328243.227    26328253.121    26328251.434    26328253.906   138355842.262   103317654.736   106012897.825   104665273.391          39.100          42.800          44.500          49.200  
E15  23579912.016    23579919.746    23579918.059    23579920.176   123913272.957    92532616.949    94946510.841    93739572.000          48.900          48.800          50.100          55.500  
E21  26788074.406    26788082.820    26788081.273    26788083.797   140772279.496   105122133.683   107864450.920   106493288.907          42.300          41.600          44.600          48.900  
E27  24379594.242    24379601.520    24379599.598    24379602.078   128115630.435    95670746.640    98166505.633    96918619.739          49.200          46.900          49.200          54.200  
E30  26125766.188    26125776.836    26125775.195    26125777.168   137291825.637   102523099.930   105197616.304   103860346.725          43.500          44.400          47.700          51.900  
E05  25651142.906    25651154.746    25651152.918    25651154.672   134797667.293   100660587.993   103286516.885   101973532.046          39.900          42.400          44.200          48.900  
C04  38605271.539    38605271.688   201027780.986   155447429.051          37.200          40.000  
C03  37582418.383    37582419.117   195701515.508   151328824.438          38.000          42.300  
C02  39063044.953    39063045.500   203411552.372   157290696.606          35.800          39.400  
C01  38137811.422    38137812.766   198593585.861   153565167.985          38.600          41.300  
C27  25553976.570                   133066265.828                          31.500                  
C30  22095296.953                   115056006.545                          48.200                  
C29  22554820.008                   117448864.213                          47.700                  
C20  24523037.992                   127697893.351                          43.100                  
C13  39067323.961    39067332.852   203433806.146   157307958.005          38.700          40.500  
> 2025 04 10 06 34 40.0000000  0 31
G22  22110497.766    22110504.773                   116191445.298    90538818.699                          45.200          32.800                  
G03  22412498.148                    22412509.395   117778468.129                    91775474.113          39.900                          43.200  
G04  23682951.406                    23682964.250   124454758.408                    96977782.403          38.700                          42.300  
G19  20011322.609    20011326.438                   105160207.271    81943034.426                          47.200          40.900                  
G06  21246599.680                    21246609.973   111651633.364                    87001298.014          47.300                          47.800  
G09  23984336.891                    23984354.805   126038556.250                    98211937.982          36.200                          41.000  
G17  20811117.359                    20811124.215   109363160.791                    85218075.123          47.200                          48.000  
G14  22996028.789                    22996040.879   120844947.870                    94164915.522          40.900                          42.500  
G11  23607264.477                    23607275.184   124057004.962                    96667833.407          41.000                          43.300  
R01  21142939.297    21142938.602                                   113021125.422   113021119.431                                          43.000          41.300                                  
R02  21199507.359    21199506.977    21199516.629    21199516.828   113124637.698   113124629.703    87985820.938    87985826.940          46.500          45.800          46.900          48.100  
R16  21644593.750    21644592.707    21644601.738    21644602.340   115621588.160   115621526.159    89927851.257    89927858.255          46.200          44.900          46.400          47.200  
R24  21771845.180    21771843.422    21771853.355    21771853.195   116423826.944   116423817.941    90551859.370    90551865.374          45.300          43.200          46.300          46.600  
R15  21578767.406    21578767.875    21578778.414    21578777.730   115310391.903   115310373.930    89685848.804    89685853.809          46.200          44.100          45.500          45.300  
R17  19851782.117    19851781.184    19851789.180    19851788.844   106230898.897   106230876.896    82624023.126    82624028.123          48.400          47.500          48.300          49.300  
R18  21828811.828    21828811.223    21828820.039    21828819.789   116523677.303   116523665.305    90629516.528    90629520.532          41.800          41.600          44.800          45.000  
E13  26325866.117    26325876.551    26325874.109    26325876.910   138343349.895   103308326.015   106003325.748   104655822.992          41.200          41.400          44.200          48.600  
E15  23579275.008    23579282.668    23579281.121    23579283.188   123909925.453    92530117.196    94943945.881    93737039.645          48.000          47.600          49.600          55.100  
E21  26785651.789    26785660.191    26785658.832    26785660.965   140759547.313   105112625.866   107854695.094   106483657.089          41.900          42.400          44.600          49.600  
E27  24379680.633    24379688.043    24379685.980    24379688.484   128116084.657    95671085.813    98166853.661    96918963.344          48.800          48.000          49.000          55.000  
E30  26127972.156    26127982.902    26127981.309    26127983.320   137303419.019   102531757.293   105206499.512   103869117.013          43.200          44.700          47.700          51.800  
E05  25649498.500    25649511.145    25649508.895    25649510.742   134789026.870   100654135.731   103279896.298   101966995.620          42.100          42.500          44.800          49.600  
C04  38604699.391    38604699.242   201024798.882   155445123.080          37.600          40.400  
C03  37581869.352    37581870.129   195698656.330   151326613.535          37.700          42.600  
C02  39062481.898    39062482.203   203408618.451   157288427.939          35.900          39.400  
C01  38137269.711    38137271.363   198590764.310   153562986.191          38.200          42.200  
C27  25555869.555                   133076119.169                          34.500                  
C30  22095693.125                   115058070.542                          48.300                  
C29  22552754.070                   117438106.104                          47.900                  
C20  24519497.180                   127679456.867                          43.800                  
C13  39065606.000    39065614.797   203424859.932   157301040.241          39.700          40.400  
> 2025 04 10 06 34 45.0000000  0 31
G22  22112360.234    22112367.641                   116201234.441    90546446.589                          45.700          33.600                  
G03  22414808.313                    22414819.684   117790610.999                    91784936.076          40.100                          43.200  
G04  23680551.813                    23680564.301   124442147.962                    96967956.107          37.000                          40.900  
G19  20009932.555    20009936.477                   105152904.426    81937343.887                          47.100          41.500                  
G06  21244820.828                    21244830.895   111642286.525                    86994014.795          46.700                          48.700  
G09  23980962.625                    23980979.270   126020819.813                    98198117.488          35.700                          40.800  
G17  20811487.586                    20811494.813   109365107.446                    85219591.979          46.800                          47.300  
G14  22998904.648                    22998916.348   120860057.831                    94176689.479          41.300                          43.000  
G11  23604264.242                    23604273.824   124041236.946                    96655546.655          40.200                          43.400  
R01  21143251.313    21143250.266                                   113022791.536   113022785.485                                          43.400          41.700                                  
R02  21196257.266    21196257.355    21196267.211    21196266.672   113107293.620   113107285.609    87972331.099    87972337.102          47.500          46.200          46.100          46.800  
R16  21643548.008    21643547.316    21643555.691    21643555.914   115615999.762   115615937.754    89923504.771    89923511.782          44.600          44.100          44.200          43.800  
R24  21773526.906    21773525.973    21773536.180    21773535.566   116432826.900   116432817.918    90558859.335    90558865.333          45.600          44.300          45.600          45.800  
R15  21581140.484    21581139.777    21581150.746    21581149.844   115323065.183   115323047.187    89695705.818    89695710.814          45.500          44.600          44.100          45.300  
R17  19851000.609    19850999.203    19851007.703    19851007.652   106226717.441   106226695.447    82620770.883    82620775.880          48.500          47.800          48.900          49.600  
R18  21826054.469    21826053.629    21826063.102    21826062.996   116508959.025   116508947.031    90618069.013    90618073.009          41.600          40.200          42.600          43.200  
E13  26323489.063    26323499.711    26323497.738    26323500.199   138330861.023   103298999.954   105993756.399   104646375.283          40.700          42.600          43.900          49.100  
E15  23578639.219    23578646.605    23578644.871    23578647.004   123906583.108    92527621.286    94941384.861    93734511.178          48.000          49.000          49.400          55.800  
E21  26783230.422    26783239.660    26783237.457    26783239.707   140746823.608   105103124.412   107844945.771   106474031.700          40.700          39.600          42.100          46.900  
E27  24379769.422    24379776.539    24379774.805    24379777.203   128116550.838    95671433.952    98167210.869    96919316.019          48.300          47.300          48.500          54.000  
E30  26130179.352    26130189.891    26130188.625    26130190.465   137315017.521   102540418.484   105215386.648   103877891.171          43.500          44.000          46.300          51.500  
E05  25647856.008    25647868.273    25647865.977    25647867.977   134780396.445   100647690.990   103273283.417   101960466.812          42.200          40.000          42.800          47.400  
C04  38604126.313    38604126.410   201021816.986   155442817.309          37.000          40.800  
C03  37581320.195    37581320.863   195695797.310   151324402.754          38.300          42.300  
C02  39061918.648    39061918.668   203405684.685   157286159.353          36.000          36.600  
C01  38136727.141    38136729.449   198587942.917   153560804.490          38.200          42.100  
C27  25557764.266                   133085974.729                          36.400                  
C30  22096091.133                   115060140.824                          48.500                  
C29  22550688.773                   117427352.367                          48.200                  
C20  24515957.703                   127661025.744                          43.800                  
C13  39063887.734    39063897.141   203415916.483   157294124.632          40.300          40.200  
> 2025 04 10 06 34 50.0000000  0 31
G22  22114224.805    22114232.363                   116211032.848    90554081.702                          44.200          31.800                  
G03  22417121.102                    22417132.359   117802762.914                    91794405.123          40.800                          44.600  
G04  23678154.398                    23678166.434   124429546.794                    96958137.021          39.400                          42.100  
G19  20008545.086    20008548.762                   105145612.270    81931661.688                          47.200          42.000                  
G06  21243044.289                    21243053.910   111632946.682                    86986736.976          47.900                          48.500  
G09  23977588.531                    23977605.012   126003085.868                    98184298.980          37.000                          40.700  
G17  20811859.688                    20811866.980   109367063.206                    85221115.949          46.500                          47.300  
G14  23001780.563                    23001792.340   120875171.728                    94188466.481          41.600                          42.200  
G11  23601264.844                    23601274.004   124025472.452                    96643262.664          41.700                          43.200  
R01  21143567.102    21143566.289                                   113024479.310   113024473.318                                          43.000          41.700                                  
R02  21193010.406    21193008.383    21193018.742    21193018.195   113089964.437   113089956.441    87958852.867    87958858.878          47.200          45.300          46.500          46.800  
R16  21642504.906    21642504.332    21642513.570    21642514.305   115610433.137   115610371.129    89919175.146    89919182.150          43.700          42.900          45.100          45.300  
R24  21775211.039    21775209.988    21775219.906    21775219.570   116441830.475   116441821.474    90565862.074    90565868.076          44.200          42.500          45.900          45.900  
R15  21583512.281    21583512.750    21583523.797    21583523.156   115335751.785   115335733.797    89705573.115    89705578.112          45.700          44.700          44.900          45.900  
R17  19850219.992    19850219.176    19850227.055    19850226.652   106222542.497   106222520.504    82617523.715    82617528.711          48.400          47.000          48.200          48.800  
R18  21823298.266    21823296.254    21823305.293    21823304.918   116494243.503   116494231.494    90606623.609    90606627.613          41.400          40.100          43.200          43.500  
E13  26321112.813    26321123.426    26321121.551    26321124.012   138318374.826   103289675.857   105984189.040   104636929.556          42.100          42.400          44.300          49.200  
E15  23578003.844    23578011.422    23578009.734    23578011.871   123903245.074    92525128.591    94938827.135    93731985.968          48.400          48.400          49.200          55.500  
E21  26780810.648    26780819.797    26780817.734    26780819.895   140734107.553   105093628.625   107835202.257   106464412.047          41.500          41.400          44.000          48.600  
E27  24379860.359    24379867.629    24379865.613    24379868.047   128117028.146    95671790.351    98167576.577    96919677.069          48.000          47.700          48.900          54.800  
E30  26132387.813    26132397.941    26132396.676    26132398.309   137326620.281   102549082.864   105224277.054   103886668.566          45.000          44.500          45.700          51.200  
E05  25646215.516    25646227.520    25646225.035    25646227.473   134771775.199   100641253.066   103266677.554   101953944.920          41.900          41.900          43.600          48.500  
C04  38603553.602    38603553.680   201018834.450   155440511.001          36.800          40.700  
C03  37580771.078    37580771.563   195692937.542   151322191.387          37.900          40.900  
C02  39061354.297    39061354.785   203402750.041   157283890.112          34.800          39.000  
C01  38136185.609    38136187.313   198585120.808   153558622.276          38.600          42.200  
C27  25559656.969                   133095831.699                          37.500                  
C30  22096489.195                   115062216.578                          47.900                  
C29  22548624.352                   117416602.136                          48.800                  
C20  24512419.078                   127642599.163                          44.800                  
C13  39062171.406    39062180.531   203406975.172   157287210.690          39.000          38.400  
> 2025 04 10 06 34 55.0000000  0 31
G22  22116091.094    22116098.848                   116220840.661    90561724.148                          46.000          33.600                  
G03  22419435.539                    22419446.176   117814923.859                    91803881.157          40.900                          45.600  
G04  23675757.703                    23675770.242   124416954.704                    96948325.076          37.900                          41.700  
G19  20007159.063    20007163.609                   105138330.813    81925987.830                          46.500          42.200                  
G06  21241267.836                    21241277.988   111623613.797                    86979464.625          48.100                          48.900  
G09  23974212.406                    23974231.305   125985354.569                    98170482.486          33.200                          39.900  
G17  20812234.094                    20812240.777   109369028.057                    85222646.991          46.900                          47.000  
G14  23004656.984                    23004668.941   120890289.791                    94200246.762          41.100                          44.700  
G11  23598265.648                    23598274.664   124009711.646                    96630981.544          39.900                          43.200  
R01  21143887.188    21143886.023                                   113026188.854   113026182.885                                          43.600          41.700                                  
R02  21189765.641    21189763.383    21189773.867    21189773.773   113072650.095   113072642.106    87945386.170    87945392.188          47.900          45.700          46.800          47.400  
R16  21641467.977    21641467.051    21641476.602    21641476.801   115604888.111   115604826.133    89914862.359    89914869.365          44.800          43.300          44.700          46.300  
R24  21776895.547    21776894.379    21776904.547    21776904.434   116450837.489   116450828.522    90572867.534    90572873.538          43.200          42.000          45.200          45.900  
R15  21585889.977    21585889.977    21585900.582    21585900.055   115348451.343   115348433.354    89715450.544    89715455.540          45.600          43.900          44.900          45.400  
R17  19849441.539    19849440.723    19849448.730    19849448.484   106218374.318   106218352.310    82614281.791    82614286.788          48.800          47.700          48.700          49.200  
R18  21820541.750    21820540.559    21820549.793    21820549.398   116479530.651   116479518.642    90595180.259    90595184.248          43.600          41.400          43.100          44.000  
E13  26318737.242    26318748.297    26318745.949    26318748.520   138305891.327   103280353.775   105974623.790   104627485.894          40.100          42.100          43.800          48.600  
E15  23577369.352    23577377.082    23577375.395    23577377.539   123899911.387    92522639.148    94936272.757    93729464.061          48.500          48.400          49.800          55.700  
E21  26778392.820    26778401.352    26778399.523    26778401.406   140721399.203   105084138.675   107825464.729   106454798.311          41.600          41.600          43.600          48.200  
E27  24379952.977    24379960.410    24379958.723    24379961.000   128117516.633    95672155.139    98167950.869    96920046.608          48.500          46.900          48.800          54.200  
E30  26134596.203    26134606.160    26134605.270    26134606.980   137338227.312   102557750.463   105233170.758   103895449.217          44.000          44.500          46.800          51.400  
E05  25644576.398    25644588.484    25644586.797    25644588.793   134763163.146   100634822.028   103260078.743   101947429.989          41.800          40.500          43.600          48.100  
C04  38602981.078    38602981.176   201015851.277   155438204.222          37.600          40.500  
C03  37580221.438    37580222.199   195690077.149   151319979.574          37.700          43.200  
C02  39060791.313    39060791.262   203399814.593   157281620.246          35.800          39.300  
C01  38135643.883    38135645.652   198582298.049   153556439.526          38.600          41.600  
C27  25561551.031                   133105690.108                          36.700                  
C30  22096889.141                   115064297.833                          47.500                  
C29  22546560.891                   117405855.483                          48.100                  
C20  24508881.242                   127624177.194                          43.200                  
C13  39060453.695    39060463.293   203398035.838   157280298.195          39.900          40.200  
> 2025 04 10 06 35  0.0000000  0 31
G22  22117959.391    22117966.660                   116230657.572    90569373.675                          45.900          33.700                  
G03  22421751.445                    22421762.156   117827093.578                    91813364.045          40.800                          45.200  
G04  23673364.117                    23673375.328   124404371.703                    96938520.171          37.900                          41.400  
G19  20005775.727    20005780.035                   105131059.876    81920322.158                          46.700          41.800                  
G06  21239493.250                    21239502.910   111614287.721                    86972197.558          47.900                          48.200  
G09  23970839.500                    23970857.555   125967625.558                    98156667.767          32.300                          39.000  
G17  20812609.734                    20812616.480   109371001.824                    85224184.999          46.900                          47.000  
G14  23007534.813                    23007547.160   120905411.576                    94212029.924          40.900                          44.000  
G11  23595266.328                    23595276.094   123993954.218                    96618703.039          39.600                          42.300  
R01  21144211.180    21144210.133                                   113027919.899   113027913.938                                          43.500          42.000                                  
R02  21186523.227    21186521.789    21186532.402    21186532.422   113055350.556   113055342.552    87931930.983    87931936.986          47.000          45.800          46.200          47.100  
R16  21640433.875    21640432.949    21640442.621    21640441.727   115599364.513   115599302.497    89910566.204    89910573.207          45.100          43.600          44.700          46.400  
R24  21778579.570    21778578.754    21778589.266    21778588.875   116459847.898   116459838.898    90579875.645    90579881.648          44.000          42.000          45.100          45.800  
R15  21588269.594    21588269.359    21588279.148    21588278.773   115361163.858   115361145.878    89725338.047    89725343.044          45.800          43.700          44.400          45.100  
R17  19848663.609    19848663.145    19848670.621    19848669.965   106214212.593   106214190.583    82611044.897    82611049.895          48.500          47.700          48.500          48.900  
R18  21817785.859    21817783.848    21817793.492    21817792.676   116464820.283   116464808.252    90583738.893    90583742.882          43.600          41.600          43.500          43.800  
E13  26316362.375    26316373.195    26316370.613    26316373.375   138293410.342   103271033.586   105965060.456   104618044.131          39.000          42.100          43.800          48.600  
E15  23576735.813    23576743.184    23576741.730    23576743.844   123896581.816    92520152.791    94933721.532    93726945.271          48.400          48.600          49.600          55.600  
E21  26775976.188    26775984.617    26775982.461    26775984.703   140708698.327   105074654.237   107815732.884   106445190.162          41.500          41.300          43.100          47.700  
E27  24380047.953    24380055.406    24380053.719    24380055.941   128118016.088    95672528.107    98168333.565    96920424.445          48.500          47.400          48.700          54.100  
E30  26136805.898    26136816.277    26136814.449    26136816.570   137349838.360   102566421.036   105242067.521   103904232.888          43.400          44.600          46.700          51.500  
E05  25642940.047    25642950.922    25642949.891    25642951.715   134754560.049   100628397.628   103253486.759   101940921.803          41.900          42.000          44.800          49.000  
C04  38602408.125    38602408.008   201012867.318   155435896.846          37.400          40.000  
C03  37579672.492    37579673.156   195687215.891   151317767.063          38.100          42.300  
C02  39060227.070    39060227.211   203396878.167   157279349.604          35.800          38.900  
C01  38135101.461    38135103.320   198579474.438   153554256.143          38.900          42.300  
C27  25563442.688                   133115549.844                          32.500                  
C30  22097290.016                   115066384.396                          48.300                  
C29  22544497.586                   117395112.194                          48.500                  
C20  24505344.891                   127605759.600                          44.300                  
C13  39058737.852    39058746.719   203389098.385   157273387.227          39.100          39.900  
> 2025 04 10 06 35  5.0000000  0 31
G22  22119829.297    22119836.680                   116240484.274    90577030.838                          44.700          32.600                  
G03  22424069.141                    22424079.281   117839272.818                    91822854.366          42.800                          45.600  
G04  23670971.477                    23670982.836   124391798.427                    96928722.829          35.800                          40.700  
G19  20004394.523    20004398.551                   105123800.079    81914665.176                          47.900          41.500                  
G06  21237720.078                    21237729.645   111604969.135                    86964936.324          46.600                          48.300  
G09  23967467.664                    23967483.988   125949899.576                    98142855.394          38.300                          42.200  
G17  20812986.781                    20812993.777   109372985.188                    85225730.479          46.300                          47.300  
G14  23010413.742                    23010425.098   120920537.801                    94223816.561          41.100                          44.100  
G11  23592267.953                    23592278.410   123978200.913                    96606427.761          40.400                          43.300  
R01  21144538.602    21144538.023                                   113029673.187   113029667.195                                          43.200          41.600                                  
R02  21183283.859    21183283.359    21183293.941    21183293.816   113038066.493   113038058.482    87918487.853    87918493.855          45.800          44.500          47.700          48.000  
R16  21639403.133    21639402.793    21639412.586    21639411.828   115593863.011   115593801.002    89906287.255    89906294.260          45.300          44.400          46.900          48.300  
R24  21780265.078    21780264.145    21780274.969    21780274.578   116468862.493   116468853.482    90586886.951    90586892.963          44.500          42.600          44.700          45.200  
R15  21590651.078    21590650.371    21590660.242    21590660.051   115373890.063   115373872.081    89735236.176    89735241.179          45.500          44.200          45.100          44.300  
R17  19847886.945    19847886.715    19847894.227    19847894.023   106210057.950   106210035.934    82607813.508    82607818.512          48.400          47.500          48.100          48.300  
R18  21815030.867    21815029.207    21815038.262    21815037.879   116450113.148   116450101.132    90572300.023    90572304.026          44.600          42.700          46.200          47.000  
E13  26313988.016    26313998.922    26313996.531    26313999.066   138280932.486   103261715.703   105955499.502   104608604.713          41.900          43.300          45.100          50.100  
E15  23576103.242    23576110.801    23576109.066    23576111.289   123893257.025    92517669.994    94931173.972    93724430.091          48.400          48.200          49.100          55.500  
E21  26773560.195    26773569.109    26773567.563    26773569.563   140696005.625   105065175.925   107806007.307   106435588.221          41.000          41.500          43.200          48.400  
E27  24380145.227    24380152.938    24380151.387    24380153.445   128118527.147    95672909.741    98168725.169    96920811.062          48.300          47.000          49.000          54.700  
E30  26139016.797    26139026.367    26139024.539    26139026.953   137361454.188   102575095.166   105250967.932   103913020.155          44.900          43.700          46.200          50.900  
E05  25641303.766    25641315.047    25641314.719    25641316.383   134745966.618   100621980.504   103246902.228   101934420.971          39.600          39.600          42.800          47.100  
C04  38601834.547    38601835.113   201009883.194   155433589.318          37.700          41.900  
C03  37579122.805    37579123.453   195684354.377   151315554.370          37.600          42.100  
C02  39059662.836    39059663.840   203393941.377   157277078.708          35.200          38.200  
C01  38134558.961    38134560.629   198576650.613   153552072.594          39.000          41.600  
C27  25565335.961                   133125411.542                          30.300                  
C30  22097691.648                   115068476.933                          48.800                  
C29  22542435.195                   117384372.943                          47.900                  
C20  24501808.727                   127587347.075                          44.300                  
C13  39057021.992    39057031.004   203380163.416   157266478.145          40.000          39.200  
> 2025 04 10 06 35 10.0000000  0 32
G22  22121700.195    22121708.512                   116250320.532    90584695.434                          44.500          31.700                  
G03  22426389.047                    22426399.730   117851461.343                    91832351.908          41.100                          43.600  
G04  23668579.625                    23668592.477   124379234.593                    96918932.822          39.200                          42.500  
G19  20003014.938    20003019.230                   105116551.314    81909016.782                          47.500          42.000                  
G06  21235947.922                    21235958.180   111595657.827                    86957680.768          46.800                          48.400  
G12  24342952.148                    24342960.723   127923071.137                    99680360.341          35.300                          35.500  
G09  23964094.531                    23964111.172   125932176.513                    98129045.361          38.600                          40.300  
G17  20813366.156                    20813373.340   109374977.964                    85227283.292          46.300                          47.000  
G14  23013293.219                    23013305.539   120935668.380                    94235606.555          40.800                          43.500  
G11  23589271.008                    23589281.207   123962451.476                    96594155.467          40.500                          43.100  
R01  21144870.961    21144869.680                                   113031448.614   113031442.617                                          42.700          42.000                                  
R02  21180048.117    21180046.563    21180056.668    21180056.969   113020797.674   113020789.692    87905056.568    87905062.570          46.900          45.100          47.000          47.200  
R16  21638377.648    21638377.191    21638386.711    21638386.766   115588383.476   115588321.417    89902025.386    89902032.376          45.300          44.200          46.100          47.000  
R24  21781952.016    21781950.730    21781961.637    21781961.223   116477880.986   116477872.002    90593901.320    90593907.318          42.700          41.100          44.600          45.400  
R15  21593035.516    21593034.340    21593044.824    21593044.645   115386629.613   115386611.611    89745144.717    89745149.713          44.900          42.600          44.400          44.300  
R17  19847112.289    19847111.004    19847119.145    19847118.996   106205910.209   106205888.223    82604587.499    82604592.503          49.300          47.400          48.700          49.200  
R18  21812275.547    21812274.824    21812283.855    21812283.852   116435408.919   116435396.932    90560863.396    90560867.406          43.400          42.300          45.300          45.400  
E13  26311614.422    26311625.195    26311622.852    26311625.242   138268457.688   103252400.109   105945940.896   104599167.612          41.800          42.800          45.100          49.800  
E15  23575471.344    23575478.813    23575477.359    23575479.469   123889936.890    92515190.681    94928629.977    93721918.437          48.300          48.600          50.000          55.800  
E21  26771145.906    26771155.324    26771153.309    26771155.508   140683320.966   105055703.615   107796287.903   106425992.365          41.900          41.600          43.900          48.600  
E27  24380244.773    24380252.570    24380250.789    24380252.824   128119049.673    95673299.920    98169125.526    96921206.332          48.100          47.900          49.700          54.900  
E30  26141227.781    26141237.668    26141235.887    26141238.164   137373074.524   102583772.666   105259871.799   103921810.842          44.400          44.300          46.100          50.800  
E05  25639669.656    25639682.004    25639681.066    25639682.848   134737382.588   100615570.381   103240324.880   101927927.235          38.700          39.800          41.600          46.200  
C04  38601261.305    38601261.750   201006898.766   155431281.565          36.900          40.400  
C03  37578573.492    37578573.992   195681492.534   151313341.405          38.600          42.500  
C02  39059099.250    39059099.547   203391004.157   157274807.479          34.400          37.500  
C01  38134016.703    38134018.531   198573826.409   153549888.735          38.400          42.200  
C27  25567231.086                   133135275.068                          34.300                  
C30  22098094.688                   115070575.229                          49.300                  
C29  22540373.258                   117373637.586                          47.300                  
C20  24498273.680                   127568939.471                          44.400                  
C13  39055306.398    39055315.512   203371230.830   157259570.938          40.500          38.900  
> 2025 04 10 06 35 15.0000000  0 32
G22  22123573.930    22123581.930                   116260166.302    90592367.447                          44.700          32.300                  
G03  22428709.281                    22428720.090   117863659.133                    91841856.646          41.400                          44.300  
G04  23666191.383                    23666203.027   124366680.211                    96909150.251          39.300                          41.000  
G19  20001637.938    20001642.059                   105109313.511    81903376.948                          47.300          41.600                  
G06  21234177.758                    21234187.395   111586353.710                    86950430.801          46.800                          48.500  
G12  24339648.383                    24339658.945   127905725.407                    99666844.216          36.600                          38.900  
G09  23960722.430                    23960739.504   125914456.199                    98115237.401          38.600                          41.000  
G17  20813747.266                    20813754.082   109376980.066                    85228843.361          46.600                          46.800  
G14  23016173.141                    23016184.961   120950803.130                    94247399.840          41.600                          43.800  
G11  23586275.375                    23586285.469   123946705.928                    96581886.271          41.000                          42.800  
R01  21145208.148    21145206.984                                   113033245.779   113033239.788                                          43.600          41.600                                  
R02  21176816.023    21176814.000    21176824.133    21176823.969   113003544.137   113003536.134    87891637.167    87891643.170          47.600          45.800          47.100          47.600  
R16  21637356.523    21637355.012    21637364.555    21637364.293   115582925.797   115582863.781    89897780.523    89897787.519          45.500          43.900          46.200          47.300  
R24  21783640.625    21783638.984    21783648.680    21783648.441   116486903.253   116486894.284    90600918.621    90600924.617          43.300          42.200          43.900          44.300  
R15  21595421.805    21595420.512    21595431.242    21595431.000   115399382.392   115399364.404    89755063.542    89755068.546          44.600          43.400          45.000          44.600  
R17  19846338.344    19846336.820    19846344.750    19846344.980   106201769.358   106201747.365    82601366.831    82601371.836          49.400          47.800          48.500          49.300  
R18  21809521.328    21809520.605    21809529.727    21809529.371   116420707.674   116420695.675    90549429.110    90549433.121          43.400          42.300          45.900          46.600  
E13  26309240.844    26309251.602    26309249.727    26309251.766   138255985.804   103243086.728   105936384.534   104589732.734          41.800          43.100          44.100          49.300  
E15  23574840.219    23574847.676    23574846.457    23574848.426   123886621.300    92512714.738    94926089.442    93719410.198          47.500          48.000          49.600          55.500  
E21  26768733.727    26768742.844    26768741.203    26768743.309   140670644.191   105046237.215   107786574.564   106416402.499          41.900          43.600          44.700          49.500  
E27  24380346.742    24380354.094    24380352.406    24380354.348   128119583.568    95673698.604    98169534.612    96921610.215          47.600          48.100          49.500          55.100  
E30  26143440.047    26143449.977    26143448.008    26143450.418   137384699.330   102592453.518   105268779.107   103930604.920          44.700          44.000          45.600          50.500  
E05  25638039.211    25638050.625    25638048.984    25638051.336   134728808.028   100609167.298   103233754.769   101921440.639          39.300          40.400          42.300          46.700  
C04  38600688.477    38600688.027   201003913.880   155428973.475          37.800          40.500  
C03  37578023.594    37578024.531   195678630.226   151311128.102          38.400          42.200  
C02  39058535.367    39058535.047   203388066.360   157272535.801          34.800          38.300  
C01  38133474.766    38133476.297   198571001.748   153547704.537          38.100          42.500  
C27  25569124.359                   133145140.185                          29.400                  
C30  22098498.656                   115072679.252                          48.500                  
C29  22538312.430                   117362906.009                          47.800                  
C20  24494739.031                   127550536.691                          43.800                  
C13  39053590.922    39053600.559   203362300.495   157252665.438          40.100          39.300  
> 2025 04 10 06 35 20.0000000  0 32
G22  22125449.281    22125456.691                   116270022.066    90600047.237                          44.400          32.300                  
G03  22431032.789                    22431043.703   117875866.524                    91851368.912          40.800                          44.900  
G04  23663803.648                    23663815.656   124354135.909                    96899375.525          36.200                          40.500  
G19  20000262.750    20000266.484                   105102087.122    81897745.983                          47.500          41.800                  
G06  21232408.172                    21232418.594   111577057.266                    86943186.836          46.700                          47.600  
G12  24336352.547                    24336359.992   127888389.914                    99653336.041          37.300                          36.200  
G09  23957350.398                    23957367.281   125896739.220                    98101432.068          39.100                          42.100  
G17  20814129.969                    20814136.793   109378991.960                    85230411.066          46.500                          46.800  
G14  23019053.773                    23019065.820   120965942.488                    94259196.693          40.800                          44.500  
G11  23583280.148                    23583289.848   123930964.683                    96569620.370          41.800                          43.400  
R01  21145547.602    21145547.258                                   113035065.486   113035059.487                                          43.100          41.900                                  
R02  21173584.945    21173583.508    21173593.590    21173593.273   112986306.267   112986298.271    87878229.970    87878235.974          47.500          46.400          47.200          47.200  
R16  21636338.492    21636336.863    21636346.496    21636345.914   115577490.317   115577428.332    89893552.950    89893559.955          45.300          44.000          45.700          47.100  
R24  21785327.461    21785326.996    21785336.199    21785336.207   116495929.760   116495920.793    90607939.225    90607945.229          46.000          44.000          45.100          45.100  
R15  21597810.391    21597809.918    21597820.355    21597820.234   115412148.978   115412130.968    89764993.082    89764998.079          44.700          42.300          45.200          45.100  
R17  19845566.008    19845564.723    19845572.637    19845572.453   106197635.879   106197613.893    82598151.911    82598156.915          49.600          47.400          48.400          49.000  
R18  21806767.969    21806767.363    21806776.453    21806775.910   116406009.838   116405997.820    90537997.461    90538001.457          44.500          43.300          45.900          46.800  
E13  26306868.453    26306879.148    26306876.992    26306879.242   138243517.287   103233775.827   105926830.764   104580300.402          42.000          43.900          44.700          50.000  
E15  23574210.266    23574217.910    23574216.270    23574218.469   123883310.685    92510242.529    94923552.738    93716905.742          48.500          48.200          49.600          55.400  
E21  26766322.813    26766332.117    26766330.477    26766332.559   140657975.903   105036777.126   107776867.679   106406819.004          41.900          43.600          44.700          49.700  
E27  24380450.375    24380457.992    24380456.258    24380458.262   128120129.258    95674106.092    98169952.729    96922023.013          47.600          48.600          49.300          55.200  
E30  26145652.633    26145663.109    26145661.371    26145663.598   137396329.014   102601138.001   105277690.152   103939402.688          44.700          43.500          45.600          50.700  
E05  25636409.930    25636421.480    25636418.387    25636421.336   134720243.320   100602771.598   103227192.224   101914961.521          41.800          41.100          42.400          47.000  
C04  38600115.313    38600115.254   201000929.056   155426665.428          37.000          40.500  
C03  37577473.750    37577474.621   195675767.941   151308914.812          38.400          42.100  
C02  39057970.984    39057971.168   203385128.424   157270264.020          35.100          37.700  
C01  38132931.625    38132933.250   198568177.132   153545520.357          38.500          42.800  
C27  25571019.133                   133155008.023                          29.100                  
C30  22098904.266                   115074789.471                          48.600                  
C29  22536252.352                   117352178.688                          47.300                  
C20  24491206.008                   127532139.228                          43.000                  
C13  39051877.109    39051886.047   203353372.924   157245762.078          40.100          39.300  
> 2025 04 10 06 35 25.0000000  0 32
G22  22127327.484    22127334.617                   116279887.072    90607734.248                          45.300          32.400                  
G03  22433356.742                    22433367.820   117888082.770                    91860888.061          40.800                          44.500  
G04  23661418.445                    23661430.617   124341600.689                    96889607.833          36.600                          41.100  
G19  19998889.789    19998893.094                   105094871.344    81892123.303                          47.800          42.300                  
G06  21230640.305                    21230651.105   111567767.722                    86935948.238          46.600                          48.800  
G12  24333053.828                    24333064.117   127871064.082                    99639835.398          35.000                          36.800  
G09  23953980.039                    23953996.797   125879024.735                    98087628.693          39.400                          43.200  
G17  20814514.891                    20814521.344   109381012.920                    85231985.828          46.800                          47.800  
G14  23021935.453                    23021947.688   120981085.788                    94270996.624          40.400                          44.100  
G11  23580285.484                    23580294.629   123915226.992                    96557357.258          41.800                          43.500  
R01  21145894.414    21145891.961                                   113036906.779   113036900.766                                          44.100          42.400                                  
R02  21170357.070    21170355.516    21170365.973    21170365.531   112969083.231   112969075.235    87864834.291    87864840.294          46.600          45.900          47.400          48.100  
R16  21635325.086    21635323.691    21635332.984    21635333.063   115572076.482   115572014.489    89889342.179    89889349.184          45.200          44.600          46.100          46.700  
R24  21787015.750    21787015.051    21787024.738    21787024.867   116504959.771   116504950.781    90614962.563    90614968.566          45.000          43.400          45.200          44.700  
R15  21600201.992    21600201.637    21600212.117    21600211.398   115424928.458   115424910.478    89774932.649    89774937.646          45.400          44.000          45.100          45.800  
R17  19844794.594    19844793.070    19844801.281    19844801.313   106193509.043   106193487.048    82594942.151    82594947.162          49.600          47.300          48.300          49.300  
R18  21804014.828    21804013.871    21804023.395    21804022.391   116391314.557   116391302.531    90526567.816    90526571.818          43.800          41.700          46.800          47.000  
E13  26304495.992    26304506.938    26304504.219    26304506.965   138231051.402   103224466.896   105917278.984   104570870.048          42.100          43.700          44.900          50.000  
E15  23573581.289    23573588.688    23573587.094    23573589.227   123880004.303    92507773.486    94921019.297    93714404.496          48.200          48.300          49.500          55.600  
E21  26763913.625    26763922.414    26763921.148    26763923.398   140645315.178   105027322.699   107767166.621   106397241.270          42.200          42.700          43.800          48.900  
E27  24380556.164    24380563.750    24380562.063    24380564.125   128120686.056    95674521.875    98170379.357    96922444.223          47.500          48.000          48.900          54.800  
E30  26147865.961    26147876.875    26147874.953    26147877.301   137407962.867   102609825.605   105286604.387   103948203.605          44.500          44.200          46.600          51.000  
E05  25634780.273    25634793.336    25634790.383    25634793.332   134711687.771   100596382.761   103220636.706   101908489.346          41.100          40.400          41.600          46.800  
C04  38599542.234    38599541.836   200997943.531   155424356.835          37.000          41.800  
C03  37576924.258    37576924.676   195672904.891   151306700.908          38.500          42.100  
C02  39057406.875    39057406.766   203382189.651   157267991.545          35.100          37.900  
C01  38132389.180    38132390.910   198565351.748   153543335.596          38.500          42.600  
C27  25572916.070                   133164876.222                          31.500                  
C30  22099310.375                   115076905.093                          48.600                  
C29  22534192.828                   117341454.867                          47.300                  
C20  24487674.516                   127513746.357                          43.700                  
C13  39050163.000    39050172.098   203344447.326   157238860.267          39.500          39.000  
> 2025 04 10 06 35 30.0000000  0 32
G22  22129206.258    22129213.426                   116289761.465    90615428.567                          44.900          33.600                  
G03  22435683.570                    22435694.445   117900308.125                    91870414.298          39.600                          44.100  
G04  23659034.477                    23659046.902   124329074.880                    96879847.490          36.100                          41.700  
G19  19997518.680    19997522.199                   105087666.450    81886509.086                          47.500          41.800                  
G06  21228874.172                    21228884.234   111558485.278                    86928715.168          46.100                          48.000  
G12  24329758.594                    24329767.461   127853748.000                    99626342.319          37.100                          36.400  
G09  23950610.141                    23950625.980   125861313.001                    98073827.420          39.700                          43.000  
G17  20814901.133                    20814908.191   109383043.089                    85233567.772          46.800                          47.300  
G14  23024818.188                    23024830.141   120996233.076                    94282799.656          41.300                          43.900  
G11  23577291.039                    23577300.680   123899493.029                    96545097.037          40.800                          43.600  
R01  21146241.367    21146239.734                                   113038769.879   113038763.903                                          42.800          41.400                                  
R02  21167132.063    21167131.328    21167141.492    21167141.234   112951875.373   112951867.369    87851450.407    87851456.411          46.400          45.800          47.700          47.300  
R16  21634315.727    21634315.035    21634323.891    21634324.145   115566684.512   115566622.520    89885148.429    89885155.427          45.200          44.300          45.400          46.100  
R24  21788705.258    21788703.855    21788713.984    21788713.996   116513993.486   116513984.511    90621988.772    90621994.776          43.700          42.300          44.300          44.900  
R15  21602596.172    21602595.816    21602606.238    21602605.953   115437721.118   115437703.138    89784882.483    89784887.487          44.600          43.500          44.100          45.300  
R17  19844024.820    19844024.121    19844032.027    19844032.109   106189388.949   106189366.955    82591737.636    82591742.641          49.300          47.800          48.100          49.600  
R18  21801261.781    21801261.527    21801271.305    21801270.570   116376622.063   116376610.082    90515140.330    90515144.326          42.900          41.800          46.200          46.900  
E13  26302124.172    26302135.297    26302132.625    26302135.348   138218588.345   103215160.077   105907729.379   104561441.835          41.500          43.700          44.000          49.400  
E15  23572952.875    23572960.258    23572958.852    23572960.961   123876702.372    92505307.757    94918489.239    93711906.604          47.800          48.300          50.200          55.500  
E21  26761506.023    26761514.527    26761513.543    26761515.441   140632662.349   105017874.180   107757471.604   106387669.501          41.900          40.600          42.900          47.900  
E27  24380664.438    24380672.219    24380670.203    24380672.438   128121254.074    95674946.044    98170814.591    96922873.922          48.000          48.300          49.800          55.100  
E30  26150080.695    26150091.199    26150089.324    26150091.695   137419601.000   102618516.410   105295521.901   103957007.763          43.900          44.000          45.600          50.600  
E05  25633154.875    25633166.641    25633164.246    25633166.832   134703141.489   100590000.820   103214088.279   101902024.154          40.600          38.700          40.800          45.600  
C04  38598968.617    38598968.484   200994957.508   155422047.853          37.300          40.800  
C03  37576373.813    37576374.512   195670041.250   151304486.563          38.400          42.600  
C02  39056841.914    39056842.031   203379250.246   157265718.638          35.400          37.400  
C01  38131846.117    38131848.371   198562525.791   153541150.388          38.300          41.600  
C27  25574811.875                   133174746.502                          32.600                  
C30  22099717.945                   115079026.303                          49.300                  
C29  22532134.414                   117330734.765                          47.600                  
C20  24484142.961                   127495358.234                          43.500                  
C13  39048449.492    39048457.961   203335523.898   157231960.117          39.700          39.700  
> 2025 04 10 06 35 35.0000000  0 32
G22  22131087.844    22131094.520                   116299645.464    90623130.376                          46.000          34.100                  
G03  22438011.602                    22438022.625   117912542.690                    91879947.717          40.400                          42.900  
G04  23656653.570                    23656665.148   124316558.667                    96870094.644          37.600                          42.000  
G19  19996149.508    19996153.582                   105080472.670    81880903.547                          47.200          41.600                  
G06  21227108.711                    21227119.035   111549210.187                    86921487.826          45.900                          48.100  
G12  24326465.742                    24326474.754   127836441.907                    99612857.129          39.900                          38.300  
G09  23947239.672                    23947256.336   125843604.313                    98060028.530          40.200                          42.600  
G17  20815289.469                    20815295.813   109385082.765                    85235157.129          47.500                          47.200  
G14  23027700.750                    23027713.453   121011384.614                    94294605.978          40.400                          44.500  
G11  23574298.359                    23574307.383   123883763.042                    96532839.920          42.000                          43.600  
R01  21146594.289    21146592.188                                   113040655.033   113040649.033                                          42.000          40.300                                  
R02  21163909.883    21163908.211    21163918.918    21163918.680   112934683.116   112934675.113    87838078.660    87838084.663          47.000          44.900          48.000          47.500  
R16  21633310.578    21633310.355    21633318.367    21633318.973   115561314.486   115561252.478    89880971.735    89880978.739          44.900          44.500          46.200          46.700  
R24  21790396.422    21790395.371    21790404.789    21790404.313   116523031.106   116523022.115    90629017.999    90629023.996          43.900          43.400          45.400          45.400  
R15  21604992.063    21604992.531    21605002.594    21605001.941   115450527.175   115450509.175    89794842.740    89794847.752          45.300          44.100          44.000          44.500  
R17  19843256.266    19843254.859    19843262.922    19843262.723   106185275.815   106185253.829    82588538.539    82588543.543          49.000          47.500          49.000          49.600  
R18  21798510.445    21798511.367    21798520.426    21798519.301   116361932.662   116361920.688    90503715.282    90503719.293          42.900          42.000          46.500          47.300  
E13  26299753.055    26299764.000    26299761.281    26299764.172   138206128.241   103205855.488   105898182.048   104552015.875          40.900          42.800          44.600          49.600  
E15  23572325.469    23572332.871    23572331.418    23572333.477   123873405.061    92502845.477    94915962.719    93709412.205          47.300          47.800          50.000          55.400  
E21  26759100.023    26759108.406    26759106.953    26759109.133   140620017.584   105008431.661   107747782.765   106378103.822          41.800          42.900          45.000          50.100  
E27  24380774.570    24380782.234    24380780.313    24380782.617   128121833.604    95675378.800    98171258.650    96923312.332          48.600          48.000          49.200          55.100  
E30  26152296.453    26152307.258    26152304.961    26152307.527   137431243.675   102627210.593   105304442.898   103965815.356          43.500          43.600          45.400          50.700  
E05  25631530.727    25631542.086    25631539.648    25631542.410   134694604.834   100583626.086   103207547.237   101895566.270          39.300          37.000          40.400          44.200  
C04  38598395.297    38598395.059   200991971.202   155419738.639          37.000          41.300  
C03  37575823.805    37575825.000   195667177.335   151302272.003          38.400          42.500  
C02  39056277.445    39056277.840   203376310.372   157263445.314          34.300          38.000  
C01  38131303.836    38131305.785   198559699.529   153538964.957          38.600          42.200  
C27  25576707.367                   133184618.575                          31.800                  
C30  22100126.453                   115081153.379                          49.100                  
C29  22530076.570                   117320018.565                          46.700                  
C20  24480612.547                   127476975.139                          42.600                  
C13  39046736.148    39046744.797   203326602.785   157225061.770          40.200          38.900  
> 2025 04 10 06 35 40.0000000  0 32
G22  22132969.945    22132977.391                   116309538.662    90630839.351                          45.200          33.700                  
G03  22440341.305                    22440351.895   117924786.229                    91889488.102          41.100                          43.700  
G04  23654273.656                    23654285.480   124304051.782                    96860349.027          37.900                          41.900  
G19  19994782.617    19994786.480                   105073289.607    81875306.355                          47.100          41.400                  
G06  21225346.055                    21225356.125   111539942.056                    86914265.918          46.200                          48.100  
G12  24323173.859                    24323184.293   127819145.543                    99599379.413          39.500                          39.200  
G09  23943870.664                    23943886.867   125825898.212                    98046231.665          40.500                          42.900  
G17  20815679.086                    20815685.766   109387131.553                    85236753.594          47.300                          46.600  
G14  23030584.445                    23030597.766   121026540.055                    94306415.360          39.700                          43.900  
G11  23571305.789                    23571315.000   123868036.668                    96520585.622          42.800                          43.900  
R01  21146949.844    21146948.797                                   113042561.838   113042555.818                                          42.400          40.700                                  
R02  21160690.750    21160689.430    21160700.316    21160700.148   112917505.827   112917497.824    87824718.565    87824724.576          46.300          44.700          47.800          47.500  
R16  21632308.445    21632307.988    21632316.984    21632317.141   115555966.006   115555904.014    89876811.813    89876818.824          45.000          43.600          45.400          46.500  
R24  21792086.313    21792086.316    21792095.750    21792095.043   116532072.352   116532063.340    90636050.085    90636056.082          44.800          42.600          44.200          45.100  
R15  21607391.594    21607391.121    21607401.051    21607400.352   115463346.063   115463328.067    89804812.982    89804817.987          45.800          43.900          43.500          44.000  
R17  19842488.086    19842487.855    19842496.137    19842495.594   106181169.410   106181147.423    82585344.672    82585349.677          49.100          48.100          48.600          49.400  
R18  21795758.938    21795758.684    21795768.309    21795767.492   116347245.954   116347233.951    90492292.286    90492296.283          42.900          42.300          46.400          46.900  
E13  26297382.664    26297393.047    26297390.891    26297393.535   138193670.874   103196552.928   105888636.812   104542591.973          43.000          43.200          44.400          49.500  
E15  23571698.844    23571706.242    23571704.648    23571706.840   123870112.058    92500386.411    94913439.511    93706921.070          47.400          47.500          49.600          55.500  
E21  26756695.430    26756704.043    26756702.355    26756704.625   140607380.529   104998994.906   107738099.833   106368543.976          42.400          43.500          44.900          50.100  
E27  24380887.078    24380894.375    24380892.453    24380894.820   128122424.232    95675819.845    98171711.191    96923759.123          48.000          48.100          49.400          55.100  
E30  26154512.703    26154523.574    26154521.324    26154523.906   137442890.573   102635907.925   105313367.128   103974626.138          43.100          44.700          45.700          50.600  
E05  25629907.430    25629919.418    25629917.496    25629919.773   134686077.304   100577258.151   103201013.183   101889115.273          38.600          37.100          40.200          44.300  
C04  38597821.906    38597821.473   200988984.257   155417428.944          36.600          41.700  
C03  37575273.641    37575274.566   195664312.699   151300056.885          38.400          42.600  
C02  39055712.531    39055712.785   203373369.604   157261171.349          34.500          37.200  
C01  38130760.633    38130762.617   198556872.534   153536778.922          38.600          42.100  
C27  25578602.320                   133194492.124                          30.700                  
C30  22100535.922                   115083285.929                          48.600                  
C29  22528019.070                   117309305.928                          47.600                  
C20  24477083.078                   127458596.661                          43.400                  
C13  39045023.078    39045031.984   203317683.819   157218165.076          40.500          39.400  
> 2025 04 10 06 35 45.0000000  0 32
G22  22134854.125    22134861.641                   116319441.257    90638555.628                          45.300          33.900                  
G03  22442673.445                    22442683.656   117937038.769                    91899035.539          41.500                          43.300  
G04  23651894.336                    23651907.262   124291554.355                    96850610.806          36.600                          42.200  
G19  19993417.375    19993421.602                   105066117.459    81869717.664                          47.200          42.000                  
G06  21223583.414                    21223593.719   111530681.031                    86907049.544          45.400                          47.800  
G12  24319885.703                    24319893.961   127801859.095                    99585909.449          40.000                          37.800  
G09  23940501.508                    23940517.934   125808194.934                    98032436.999          40.400                          42.800  
G17  20816070.852                    20816078.059   109389189.595                    85238357.257          47.000                          47.200  
G14  23033468.961                    23033482.336   121041699.525                    94318227.915          40.800                          43.900  
G11  23568313.258                    23568323.238   123852314.046                    96508334.242          43.000                          43.800  
R01  21147310.117    21147309.305                                   113044490.445   113044484.490                                          42.000          40.400                                  
R02  21157475.156    21157473.602    21157484.352    21157484.355   112900343.575   112900335.578    87811370.177    87811376.181          45.300          44.100          47.700          47.600  
R16  21631312.648    21631311.137    21631319.840    21631319.965   115550639.349   115550577.347    89872668.869    89872675.895          44.600          43.500          45.300          46.400  
R24  21793778.266    21793776.980    21793786.945    21793786.770   116541117.220   116541108.224    90643084.958    90643090.947          44.600          42.600          44.700          45.000  
R15  21609792.844    21609792.488    21609802.672    21609802.398   115476178.190   115476160.194    89814793.490    89814798.494          45.800          44.000          44.200          44.700  
R17  19841722.648    19841722.066    19841730.145    19841729.930   106177069.806   106177047.798    82582156.094    82582161.099          49.600          47.400          49.300          49.500  
R18  21793008.680    21793007.723    21793017.770    21793017.145   116332562.058   116332550.062    90480871.515    90480875.525          43.000          41.900          47.000          47.600  
E13  26295012.531    26295023.367    26295020.883    26295023.547   138181216.348   103187252.465   105879093.733   104533170.213          42.400          42.900          44.800          49.600  
E15  23571073.070    23571080.547    23571078.766    23571081.074   123866823.501    92497930.675    94910919.704    93704433.290          48.400          48.400          49.600          55.500  
E21  26754292.203    26754301.020    26754298.957    26754301.297   140594751.429   104989564.082   107728422.987   106358990.140          42.800          43.200          44.500          50.000  
E27  24381001.547    24381009.172    24381007.297    24381009.719   128123026.133    95676269.319    98172172.395    96924214.464          47.600          48.100          49.200          55.000  
E30  26156729.922    26156740.773    26156738.379    26156741.105   137454541.766   102644608.472   105322294.641   103983440.162          42.700          44.200          46.100          51.000  
E05  25628286.508    25628298.902    25628295.902    25628298.676   134677559.177   100570897.227   103194486.316   101882671.381          39.400          37.500          40.300          44.400  
C04  38597248.352    38597247.738   200985996.830   155415118.886          37.100          40.900  
C03  37574723.266    37574724.582   195661447.525   151297841.356          38.100          42.300  
C02  39055147.125    39055148.066   203370428.201   157258896.877          34.300          37.500  
C01  38130218.328    38130219.676   198554045.061   153534592.563          39.000          42.100  
C27  25580499.086                   133204367.268                          30.800                  
C30  22100946.328                   115085424.109                          48.700                  
C29  22525962.656                   117298597.022                          47.800                  
C20  24473554.617                   127440223.054                          42.700                  
C13  39043311.172    39043320.004   203308766.963   157211270.023          40.600          39.600  
> 2025 04 10 06 35 50.0000000  0 32
G22  22136740.680    22136748.332                   116329353.214    90646279.235                          45.600          34.000                  
G03  22445006.383                    22445016.434   117949300.386                    91908590.021          41.300                          42.700  
G04  23649519.070                    23649530.621   124279066.384                    96840879.948          37.900                          41.800  
G19  19992055.164    19992059.164                   105058956.270    81864137.526                          47.400          41.200                  
G06  21221822.492                    21221832.289   111521427.161                    86899838.744          47.000                          47.600  
G12  24316596.586                    24316606.352   127784582.454                    99572447.140          40.000                          38.700  
G09  23937133.406                    23937149.273   125790494.517                    98018644.566          40.400                          42.200  
G17  20816464.289                    20816471.117   109391256.912                    85239968.153          46.800                          47.100  
G14  23036355.680                    23036367.617   121056863.022                    94330043.596          41.400                          42.600  
G11  23565321.969                    23565331.551   123836595.224                    96496085.838          41.600                          43.700  
R01  21147676.492    21147674.977                                   113046440.866   113046434.867                                          43.200          42.300                                  
R02  21154261.445    21154260.477    21154271.004    21154270.734   112883196.907   112883188.904    87798033.908    87798039.927          45.800          44.600          46.600          47.300  
R16  21630318.859    21630317.934    21630327.539    21630327.285   115545334.417   115545272.438    89868542.831    89868549.842          45.100          43.400          46.100          47.600  
R24  21795469.828    21795469.363    21795479.137    21795478.973   116550165.907   116550156.940    90650122.772    90650128.762          44.200          42.500          45.700          46.600  
R15  21612196.781    21612196.074    21612206.656    21612206.480   115489023.259   115489005.264    89824784.058    89824789.061          44.900          43.600          45.300          45.200  
R17  19840957.445    19840956.395    19840964.363    19840964.496   106172976.953   106172954.960    82578972.764    82578977.773          49.300          47.200          49.000          49.500  
R18  21790258.609    21790257.418    21790267.313    21790266.918   116317881.007   116317869.019    90469452.924    90469456.927          43.700          42.500          46.300          46.700  
E13  26292642.891    26292653.621    26292651.840    26292654.215   138168764.626   103177954.143   105869552.838   104523750.595          41.600          42.800          44.500          49.600  
E15  23570447.953    23570455.664    23570454.117    23570456.152   123863539.392    92495478.258    94908403.318    93701948.898          48.400          47.100          49.000          55.500  
E21  26751890.313    26751899.113    26751897.281    26751899.406   140582130.208   104980139.161   107718752.188   106349442.282          42.900          43.400          44.000          49.900  
E27  24381117.859    24381125.738    24381123.770    24381126.266   128123639.339    95676727.221    98172642.240    96924678.339          47.400          46.900          48.600          54.900  
E30  26158947.797    26158959.227    26158956.555    26158959.070   137466197.280   102653312.255   105331225.477   103992257.476          42.800          44.100          44.900          50.700  
E05  25626666.836    25626680.324    25626676.715    25626679.641   134669050.508   100564543.325   103187966.674   101876234.610          40.700          40.700          42.300          46.800  
C04  38596673.781    38596673.668   200983008.895   155412808.415          36.600          40.500  
C03  37574172.977    37574174.113   195658581.862   151295625.450          38.100          42.000  
C02  39054583.055    39054583.238   203367486.188   157256621.929          35.400          37.200  
C01  38129674.969    38129676.648   198551217.024   153532405.750          38.700          42.000  
C27  25582394.641                   133214243.986                          28.900                  
C30  22101358.188                   115087567.947                          49.000                  
C29  22523907.023                   117287891.878                          47.900                  
C20  24470027.258                   127421854.316                          43.700                  
C13  39041599.094    39041607.391   203299852.362   157204376.705          40.800          39.200  
> 2025 04 10 06 35 55.0000000  0 32
G22  22138628.945    22138636.094                   116339274.470    90654010.075                          45.400          33.500                  
G03  22447341.930                    22447352.277   117961570.928                    91918151.464          42.400                          44.500  
G04  23647144.250                    23647156.211   124266587.875                    96831156.486          38.400                          42.400  
G19  19990694.086    19990698.191                   105051805.921    81858565.814                          47.000          41.600                  
G06  21220062.758                    21220072.840   111512180.390                    86892633.463          46.300                          48.200  
G12  24313312.148                    24313321.301   127767315.763                    99558992.556          39.500                          38.400  
G09  23933765.391                    23933780.613   125772796.864                    98004854.254          40.300                          41.900  
G17  20816859.102                    20816866.074   109393333.447                    85241586.226          46.800                          47.500  
G14  23039241.867                    23039254.258   121072030.511                    94341862.393          41.700                          42.000  
G11  23562331.086                    23562341.195   123820880.141                    96483840.316          41.300                          42.400  
R01  21148044.656    21148043.727                                   113048413.110   113048407.110                                          43.200          41.500                                  
R02  21151050.961    21151049.641    21151060.102    21151060.051   112866065.321   112866057.325    87784709.362    87784715.380          46.000          45.400          48.200          47.700  
R16  21629330.055    21629328.895    21629338.805    21629338.289   115540051.421   115539989.421    89864433.796    89864440.806          44.600          43.700          45.600          47.000  
R24  21797163.266    21797162.566    21797171.883    21797172.160   116559218.219   116559209.238    90657163.501    90657169.499          42.800          41.000          44.900          45.000  
R15  21614603.219    21614602.277    21614612.930    21614612.563   115501881.328   115501863.334    89834784.786    89834789.790          44.100          42.400          45.500          46.200  
R17  19840195.000    19840192.656    19840201.438    19840201.234   106168890.947   106168868.962    82575794.751    82575799.755          49.400          47.800          49.200          49.700  
R18  21787508.664    21787508.645    21787517.984    21787517.199   116303202.831   116303190.813    90458036.561    90458040.571          43.300          42.600          45.900          46.500  
E13  26290274.609    26290284.551    26290282.488    26290284.934   138156315.753   103168657.918   105860014.094   104514333.117          41.800          41.800          44.000          49.500  
E15  23569823.844    23569831.598    23569830.098    23569832.133   123860259.698    92493029.134    94905890.298    93699467.821          48.300          47.000          49.100          55.600  
E21  26749490.148    26749498.852    26749496.789    26749499.133   140569516.860   104970720.109   107709087.420   106339900.370          42.500          42.700          43.800          50.000  
E27  24381236.992    24381244.383    24381242.555    24381244.898   128124263.804    95677193.538    98173120.721    96925150.737          47.500          47.000          47.900          54.800  
E30  26161166.555    26161178.156    26161175.156    26161177.914   137477857.112   102662019.221   105340159.593   104001078.018          42.800          43.700          44.900          51.100  
E05  25625049.531    25625063.270    25625059.094    25625062.125   134660551.138   100558196.436   103181454.197   101869804.926          39.900          39.100          41.000          45.900  
C04  38596099.719    38596099.484   200980020.520   155410497.620          36.800          40.300  
C03  37573623.148    37573623.715   195655715.602   151293409.053          37.900          40.800  
C02  39054017.367    39054017.805   203364543.422   157254346.391          34.200          37.100  
C01  38129131.992    38129133.219   198548388.441   153530218.500          38.500          41.800  
C27  25584291.500                   133224122.898                          27.600                  
C30  22101770.820                   115089717.396                          48.800                  
C29  22521851.719                   117277190.431                          47.500                  
C20  24466500.266                   127403490.377                          43.400                  
C13  39039887.766    39039896.305   203290939.900   157197485.042          40.800          39.000  
> 2025 04 10 06 36  0.0000000  0 32
G22  22140519.063    22140525.406                   116349204.654    90661747.870                          45.600          34.500                  
G03  22449678.195                    22449689.535   117973850.101                    91927719.632          41.000                          45.200  
G04  23644771.234                    23644783.453   124254118.455                    96821440.076          36.600                          43.200  
G19  19989335.750    19989339.883                   105044666.078    81853002.307                          47.900          42.000                  
G06  21218304.430                    21218314.492   111502940.304                    86885433.399          46.300                          47.900  
G12  24310027.625                    24310036.898   127750058.417                    99545545.330          39.700                          39.300  
G09  23930397.430                    23930414.484   125755101.726                    97991065.955          40.000                          42.500  
G17  20817255.953                    20817262.941   109395418.817                    85243211.182          46.600                          47.500  
G14  23042128.984                    23042141.195   121087201.555                    94353683.928          41.100                          42.300  
G11  23559341.609                    23559350.656   123805168.396                    96471597.415          42.400                          41.700  
R01  21148417.914    21148416.516                                   113050406.700   113050400.694                                          44.500          42.300                                  
R02  21147843.258    21147843.113    21147852.578    21147853.070   112848948.732   112848940.735    87771396.488    87771402.492          46.300          44.900          46.800          47.800  
R16  21628344.586    21628344.012    21628353.922    21628353.602   115534789.648   115534727.622    89860341.299    89860348.296          45.100          43.400          46.400          47.700  
R24  21798855.766    21798855.301    21798865.234    21798864.930   116568273.817   116568264.820    90664206.699    90664212.703          43.400          42.100          45.400          45.400  
R15  21617011.227    21617010.754    21617022.348    21617021.629   115514752.078   115514734.100    89844795.342    89844800.339          43.400          42.400          45.000          46.300  
R17  19839432.242    19839430.836    19839439.414    19839439.430   106164811.341   106164789.368    82572621.724    82572626.727          49.000          47.000          49.000          49.000  
R18  21784758.984    21784759.555    21784768.195    21784767.754   116288527.031   116288515.038    90446622.066    90446626.077          42.900          42.400          46.500          47.200  
E13  26287905.766    26287916.059    26287914.465    26287916.559   138143869.269   103159363.477   105850477.187   104504917.438          42.400          42.200          44.100          49.200  
E15  23569200.609    23569208.023    23569206.664    23569208.613   123856983.996    92490582.988    94903380.342    93696989.770          48.400          48.400          49.400          55.500  
E21  26747091.516    26747100.059    26747097.855    26747100.336   140556911.017   104961306.668   107699428.419   106330364.149          42.500          43.700          44.500          49.700  
E27  24381357.875    24381365.426    24381363.598    24381365.914   128124899.087    95677667.924    98173607.476    96925631.310          48.300          47.300          48.600          54.800  
E30  26163385.742    26163397.789    26163395.160    26163397.527   137489520.809   102670729.097   105349096.687   104009901.500          42.100          43.700          45.300          51.000  
E05  25623434.070    25623446.313    25623444.484    25623446.566   134652060.666   100551856.180   103174948.537   101863381.967          40.800          40.400          42.600          47.100  
C04  38595525.672    38595525.824   200977031.131   155408186.037          36.500          40.400  
C03  37573072.617    37573073.055   195652848.420   151291191.985          37.800          42.400  
C02  39053452.438    39053452.309   203361599.602   157252070.036          35.200          37.400  
C01  38128588.563    38128590.262   198545558.880   153528030.515          38.400          42.600  
C27  25586188.617                   133234002.419                          26.800                  
C30  22102184.523                   115091872.036                          48.800                  
C29  22519797.656                   117266492.292                          47.500                  
C20  24462974.922                   127385130.894                          43.900                  
C13  39038176.648    39038184.871   203282029.204   157190594.741          41.100          39.200  
> 2025 04 10 06 36  5.0000000  0 32
G22  22142410.039    22142417.121                   116359144.945    90669493.537                          44.700          32.500                  
G03  22452016.703                    22452027.656   117986139.039                    91937295.438          41.400                          43.800  
G04  23642400.039                    23642412.465   124241659.265                    96811731.684          36.500                          41.400  
G19  19987979.023    19987983.281                   105037537.926    81847447.896                          47.000          41.300                  
G06  21216547.250                    21216557.336   111493708.098                    86878239.482          47.500                          48.200  
G12  24306745.422                    24306754.922   127732811.838                    99532106.426          39.600                          39.300  
G09  23927030.953                    23927047.027   125737410.178                    97977280.409          40.200                          42.800  
G17  20817654.500                    20817662.172   109397514.269                    85244843.982          46.400                          47.200  
G14  23045017.234                    23045028.902   121102377.306                    94365509.132          42.200                          42.000  
G11  23556353.047                    23556362.391   123789461.245                    96459358.112          41.100                          41.600  
R01  21148794.383    21148793.453                                   113052422.878   113052416.909                                          43.400          42.600                                  
R02  21144638.758    21144637.789    21144646.926    21144647.402   112831848.058   112831840.055    87758095.970    87758101.965          47.000          46.000          46.300          47.300  
R16  21627363.945    21627362.785    21627372.320    21627372.629   115529550.407   115529488.399    89856266.342    89856273.331          44.700          43.600          46.200          47.200  
R24  21800550.563    21800549.395    21800559.621    21800559.383   116577333.929   116577324.937    90671253.433    90671259.437          44.000          42.500          45.500          46.300  
R15  21619421.094    21619421.445    21619433.242    21619432.652   115527636.590   115527618.603    89854816.583    89854821.594          43.900          42.500          44.900          46.100  
R17  19838671.039    19838669.516    19838677.930    19838677.988   106160739.327   106160717.341    82569454.604    82569459.601          49.600          48.100          48.700          49.200  
R18  21782010.398    21782010.262    21782019.605    21782018.805   116273854.883   116273842.895    90435210.406    90435214.417          43.000          41.700          46.400          47.100  
E13  26285537.898    26285548.313    26285546.578    26285548.832   138131426.379   103150071.735   105840943.066   104495504.512          41.300          43.000          44.600          49.800  
E15  23568578.117    23568585.672    23568584.031    23568586.207   123853713.507    92488140.738    94900874.380    93694515.667          48.800          47.900          48.700          55.300  
E21  26744694.758    26744702.504    26744701.426    26744703.215   140544313.896   104951899.746   107689776.080   106320834.522          42.400          42.500          43.700          49.500  
E27  24381481.500    24381488.508    24381486.914    24381489.129   128125546.413    95678151.311    98174103.487    96926121.005          48.100          47.600          48.600          54.900  
E30  26165606.188    26165617.863    26165615.613    26165617.918   137501189.589   102679442.763   105358037.665   104018728.821          42.300          44.000          44.900          51.000  
E05  25621820.820    25621831.848    25621830.770    25621832.828   134643580.446   100545523.558   103168450.735   101856966.749          40.500          40.400          42.400          47.200  
C04  38594951.969    38594951.977   200974042.117   155405874.745          37.300          40.400  
C03  37572521.469    37572522.230   195649981.401   151288975.034          38.200          41.600  
C02  39052887.141    39052887.484   203358655.940   157249793.782          34.500          37.900  
C01  38128045.406    38128046.570   198542729.609   153525842.745          38.600          42.200  
C27  25588088.477                   133243884.260                          29.100                  
C30  22102599.727                   115094033.127                          48.700                  
C29  22517743.609                   117255798.674                          47.300                  
C20  24459450.430                   127366777.013                          44.300                  
C13  39036465.961    39036474.414   203273121.495   157183706.735          40.600          39.800  
> 2025 04 10 06 36 10.0000000  0 32
G22  22144303.508    22144310.625                   116369095.597    90677247.291                          45.900          32.700                  
G03  22454358.023                    22454367.734   117998437.979                    91946879.000          39.800                          44.000  
G04  23640031.781                    23640043.414   124229210.700                    96802031.509          38.000                          41.600  
G19  19986624.766    19986628.797                   105030421.737    81841902.812                          47.200          41.100                  
G06  21214792.180                    21214802.246   111484484.021                    86871051.897          46.800                          47.900  
G12  24303467.242                    24303475.551   127715576.247                    99518676.103          40.900                          39.900  
G09  23923664.258                    23923681.617   125719722.543                    97963497.904          39.900                          43.800  
G17  20818055.430                    20818062.270   109399620.083                    85246484.868          47.000                          47.100  
G14  23047905.750                    23047917.711   121117558.112                    94377338.277          41.600                          42.100  
G11  23553365.211                    23553374.262   123773758.840                    96447122.479          42.500                          41.100  
R01  21149177.023    21149175.625                                   113054461.827   113054455.829                                          43.100          41.700                                  
R02  21141437.500    21141436.648    21141446.535    21141446.738   112814763.932   112814755.921    87744808.325    87744814.321          47.100          45.300          47.600          46.700  
R16  21626388.180    21626386.199    21626395.043    21626395.469   115524334.193   115524272.178    89852209.283    89852216.294          44.200          43.600          46.100          46.800  
R24  21802245.297    21802245.066    21802254.559    21802254.652   116586398.899   116586389.917    90678303.970    90678309.974          44.400          42.700          46.300          47.000  
R15  21621835.781    21621836.133    21621847.090    21621846.176   115540535.243   115540517.249    89864848.837    89864853.847          43.800          42.600          45.200          45.300  
R17  19837911.797    19837909.922    19837918.293    19837918.258   106156675.091   106156653.104    82566293.533    82566298.531          49.400          47.800          48.900          49.100  
R18  21779263.242    21779262.285    21779271.230    21779270.586   116259186.533   116259174.551    90423801.715    90423805.726          44.900          42.500          45.600          46.600  
E13  26283170.898    26283181.535    26283179.660    26283181.816   138118987.325   103140782.842   105831411.854   104486094.455          41.300          42.400          43.600          49.000  
E15  23567956.648    23567964.555    23567962.961    23567965.133   123850448.462    92485702.554    94898372.599    93692045.682          47.500          47.500          49.200          55.700  
E21  26742299.273    26742307.777    26742305.148    26742307.723   140531725.679   104942499.433   107680130.550   106311311.600          40.700          44.000          44.600          50.300  
E27  24381606.750    24381614.234    24381612.313    24381614.668   128126206.037    95678643.883    98174608.909    96926620.003          48.000          47.400          48.800          54.900  
E30  26167828.445    26167839.527    26167837.230    26167839.418   137512863.614   102688160.354   105366982.684   104027560.128          42.500          44.200          45.600          51.000  
E05  25620208.344    25620220.078    25620219.188    25620221.266   134635110.570   100539198.612   103161960.816   101850559.318          42.500          43.000          44.600          49.800  
C04  38594378.023    38594377.734   200971053.573   155403563.806          37.100          40.000  
C03  37571971.625    37571972.125   195647114.884   151286758.452          38.500          42.500  
C02  39052321.289    39052322.637   203355712.603   157247517.837          35.800          38.400  
C01  38127501.781    38127502.973   198539900.741   153523655.289          38.700          42.400  
C27  25589988.141                   133253768.141                          31.600                  
C30  22103015.914                   115096200.846                          49.100                  
C29  22515690.992                   117245109.810                          47.500                  
C20  24455926.680                   127348429.036                          44.900                  
C13  39034756.047    39034764.469   203264217.029   157176821.264          41.000          39.500  
> 2025 04 10 06 36 15.0000000  0 32
G22  22146198.352    22146205.602                   116379054.841    90685007.730                          44.600          33.100                  
G03  22456699.797                    22456709.906   118010745.129                    91956468.978          41.300                          44.000  
G04  23637663.625                    23637675.852   124216770.893                    96792338.150          37.700                          40.700  
G19  19985272.602    19985277.004                   105023315.839    81836365.752                          47.800          41.200                  
G06  21213038.539                    21213048.371   111475266.397                    86863869.349          47.000                          48.600  
G12  24300187.523                    24300197.102   127698349.850                    99505252.934          39.600                          38.600  
G09  23920299.523                    23920316.242   125702037.086                    97949717.139          40.500                          43.000  
G17  20818457.656                    20818464.457   109401734.422                    85248132.407          47.300                          46.700  
G14  23050793.930                    23050807.578   121132742.108                    94389169.915          41.200                          43.700  
G11  23550377.344                    23550386.984   123758059.560                    96434889.307          42.000                          42.600  
R01  21149561.898    21149560.500                                   113056521.854   113056515.870                                          43.900          42.100                                  
R02  21138238.742    21138236.836    21138247.004    21138247.141   112797694.394   112797686.404    87731532.043    87731538.046          46.700          44.600          47.300          47.300  
R16  21625415.125    21625414.434    21625422.719    21625423.039   115519139.016   115519077.009    89848168.604    89848175.609          44.800          43.800          46.300          46.800  
R24  21803942.414    21803939.953    21803950.516    21803950.496   116595466.701   116595457.709    90685356.680    90685362.683          44.600          43.200          45.500          46.600  
R15  21624251.734    21624251.969    21624263.367    21624262.922   115553445.976   115553427.979    89874890.501    89874895.504          44.100          42.400          45.300          45.500  
R17  19837153.070    19837151.664    19837160.109    19837159.816   106152617.114   106152595.112    82563137.315    82563142.318          49.700          47.700          48.800          48.800  
R18  21776515.344    21776514.855    21776524.332    21776523.996   116244520.396   116244508.386    90412394.692    90412398.696          44.900          43.400          46.500          47.200  
E13  26280804.336    26280814.891    26280812.453    26280815.102   138106550.394   103131495.531   105821882.264   104476686.004          41.700          42.700          44.200          49.700  
E15  23567336.023    23567343.773    23567342.320    23567344.422   123847187.137    92483267.151    94895873.657    93689578.509          47.800          47.600          49.500          55.800  
E21  26739905.031    26739913.438    26739911.609    26739913.762   140519144.675   104933104.551   107670490.586   106301794.178          41.500          42.300          42.800          48.900  
E27  24381734.422    24381741.801    24381739.973    24381742.191   128126876.222    95679144.338    98175122.415    96927126.983          48.300          47.300          48.300          54.900  
E30  26170050.508    26170061.777    26170059.477    26170061.617   137524541.224   102696880.635   105375930.449   104036394.149          42.300          43.600          45.500          50.900  
E05  25618598.320    25618609.914    25618608.832    25618611.176   134626649.417   100532880.256   103155477.618   101844158.545          43.500          42.500          43.900          49.600  
C04  38593803.633    38593804.020   200968063.852   155401251.974          36.300          40.600  
C03  37571420.250    37571421.371   195644247.158   151284540.955          38.200          42.100  
C02  39051757.102                   203352768.437                          34.000                  
C01  38126958.516    38126959.961   198537070.703   153521466.924          38.100          41.900  
C27  25591886.180                   133263653.582                          30.300                  
C30  22103433.047                   115098373.502                          49.000                  
C29  22513638.984                   117234423.999                          47.400                  
C20  24452404.016                   127330085.266                          44.700                  
C13  39033046.172    39033054.777   203255313.940   157169936.856          41.600          39.600  
> 2025 04 10 06 36 20.0000000  0 32
G22  22148094.984    22148102.906                   116389023.463    90692775.462                          44.400          32.700                  
G03  22459043.289                    22459053.977   118023061.292                    91966065.962          42.900                          45.200  
G04  23635298.000                    23635310.973   124204340.648                    96782652.307          36.700                          41.600  
G19  19983922.859    19983926.680                   105016220.916    81830837.239                          47.100          41.100                  
G06  21211285.602                    21211295.840   111466055.927                    86856692.337          46.400                          48.600  
G12  24296912.008                    24296920.633   127681133.465                    99491837.588          40.600                          37.300  
G09  23916935.297                    23916950.926   125684354.593                    97935938.672          40.900                          43.700  
G17  20818862.406                    20818869.102   109403858.065                    85249787.203          47.200                          47.200  
G14  23053685.086                    23053697.820   121147930.084                    94401004.640          40.000                          43.200  
G11  23547390.500                    23547399.715   123742364.113                    96422659.053          43.400                          44.100  
R01  21149951.797    21149950.047                                   113058603.749   113058597.720                                          42.900          41.400                                  
R02  21135041.617    21135041.234    21135051.594    21135051.402   112780640.300   112780632.297    87718267.763    87718273.766          45.800          45.000          47.700          47.500  
R16  21624445.742    21624446.695    21624455.613    21624455.617   115513965.611   115513903.615    89844144.873    89844151.869          45.200          43.400          45.200          46.600  
R24  21805637.109    21805636.762    21805647.152    21805646.984   116604538.426   116604529.407    90692412.458    90692418.454          44.200          42.100          45.000          46.000  
R15  21626670.953    21626670.246    21626681.344    21626680.617   115566369.878   115566351.891    89884942.398    89884947.396          45.000          42.900          45.900          46.400  
R17  19836396.141    19836395.324    19836403.438    19836403.309   106148565.908   106148543.921    82559986.370    82559991.374          49.600          48.000          49.200          50.300  
R18  21773769.367    21773768.527    21773777.867    21773776.840   116229857.103   116229845.091    90400989.940    90400993.951          43.200          41.800          45.500          46.400  
E13  26278438.219    26278449.066    26278446.066    26278448.926   138094116.401   103122210.372   105812354.883   104467279.734          42.100          44.500          45.800          51.200  
E15  23566716.414    23566724.176    23566722.438    23566724.617   123843930.294    92480835.092    94893378.158    93687114.731          48.300          47.600          49.000          55.500  
E21  26737513.008    26737520.879    26737518.816    26737521.152   140506571.754   104923715.703   107660856.790   106292282.855          41.400          42.800          44.100          49.500  
E27  24381863.813    24381871.355    24381869.762    24381871.805   128127557.679    95679653.228    98175644.575    96927642.510          47.300          47.200          48.400          54.500  
E30  26172273.273    26172284.781    26172282.484    26172284.652   137536223.147   102705604.113   105384881.496   104045231.412          43.100          44.000          46.100          51.300  
E05  25616990.539    25617002.012    25616999.949    25617002.891   134618197.687   100526568.933   103149001.656   101837764.903          42.000          42.400          44.400          49.400  
C04  38593229.883    38593229.602   200965073.711   155398939.800          36.800          41.300  
C03  37570869.781    37570870.184   195641378.884   151282323.023          38.300          41.000  
C02  39051190.531    39051190.750   203349822.624   157242963.313          35.900          39.600  
C01  38126414.672    38126416.234   198534240.155   153519278.153          38.300          42.000  
C27  25593785.695                   133273541.072                          30.800                  
C30  22103851.375                   115100551.864                          48.400                  
C29  22511587.289                   117223741.993                          47.400                  
C20  24448882.422                   127311746.444                          44.900                  
C13  39031336.938    39031345.301   203246413.198   157163054.268          39.600          39.400  
> 2025 04 10 06 36 25.0000000  0 32
G22  22149993.945    22150001.598                   116399001.347    90700550.406                          44.500          33.000                  
G03  22461388.539                    22461399.188   118035386.392                    91975669.935          40.400                          42.800  
G04  23632936.328                    23632947.051   124191920.019                    96772973.936          38.400                          42.100  
G19  19982575.188    19982579.031                   105009136.989    81825317.287                          48.000          41.300                  
G06  21209533.773                    21209544.305   111456852.512                    86849520.861          46.300                          48.200  
G12  24293637.602                    24293646.402   127663926.997                    99478429.932          38.600                          38.300  
G09  23913569.711                    23913586.383   125666675.006                    97922162.507          39.900                          42.500  
G17  20819267.750                    20819275.215   109405990.986                    85251449.218          47.300                          47.200  
G14  23056576.016                    23056588.547   121163122.015                    94412842.450          39.400                          43.300  
G11  23544403.852                    23544413.957   123726672.370                    96410431.767          41.700                          45.000  
R01  21150344.422    21150343.727                                   113060707.458   113060701.468                                          43.900          42.400                                  
R02  21131848.898    21131848.047    21131858.602    21131858.801   112763601.475   112763593.471    87705015.345    87705021.349          46.300          45.000          46.900          47.500  
R16  21623481.359    21623481.254    21623490.371    21623490.266   115508814.058   115508752.058    89840138.097    89840145.103          42.700          42.600          47.400          48.000  
R24  21807335.227    21807334.176    21807344.363    21807344.016   116613613.828   116613604.817    90699471.047    90699477.051          45.300          43.400          45.700          46.500  
R15  21629092.516    21629091.223    21629102.152    21629101.793   115579306.567   115579288.566    89895004.225    89895009.229          44.700          43.600          45.900          46.500  
R17  19835639.953    19835638.902    19835647.086    19835647.055   106144521.492   106144499.489    82556840.729    82556845.734          49.200          47.200          48.600          49.700  
R18  21771022.047    21771021.324    21771031.082    21771030.160   116215196.719   116215184.723    90389587.405    90389591.408          43.600          42.400          45.600          46.400  
E13  26276072.438    26276083.145    26276080.566    26276083.336   138081685.138   103112927.345   105802829.686   104457875.626          41.800          43.600          44.800          50.800  
E15  23566097.680    23566105.270    23566103.535    23566105.773   123840677.855    92478406.323    94890886.034    93684654.286          48.300          47.200          48.700          55.500  
E21  26735120.953    26735129.852    26735127.457    26735129.930   140494006.739   104914332.677   107651229.001   106282777.451          42.800          42.100          43.300          49.400  
E27  24381995.664    24382003.438    24382001.422    24382003.711   128128250.462    95680170.548    98176175.399    96928166.586          47.600          46.600          48.000          54.800  
E30  26174497.859    26174508.570    26174506.082    26174508.414   137547909.367   102714330.792   105393835.832   104054071.920          44.200          44.500          45.000          51.700  
E05  25615383.258    25615395.688    25615392.781    25615396.273   134609755.397   100520264.670   103142532.914   101831378.400          40.900          42.000          42.900          48.500  
C04  38592655.695    38592655.020   200962083.063   155396627.241          37.800          39.900  
C03  37570318.922    37570319.488   195638510.156   151280104.726          38.600          41.500  
C02  39050624.648    39050625.105   203346876.693   157240685.371          35.900          40.800  
C01  38125871.125    38125872.680   198531409.063   153517088.979          38.600          42.100  
C27  25595683.328                   133283429.697                          28.900                  
C30  22104271.016                   115102735.856                          48.600                  
C29  22509537.133                   117213063.708                          46.900                  
C20  24445361.383                   127293412.573                          44.500                  
C13  39029627.195    39029636.543   203237514.648   157156173.348          39.300          39.600  
> 2025 04 10 06 36 30.0000000  0 32
G22  22151893.836    22151901.965                   116408988.699    90708332.750                          43.900          32.500                  
G03  22463735.570                    22463746.523   118047720.679                    91985281.039          41.200                          43.700  
G04  23630573.320                    23630585.426   124179509.202                    96763303.194          38.900                          40.900  
G19  19981229.328    19981232.840                   105002064.231    81819806.045                          47.600          41.300                  
G06  21207784.477                    21207794.188   111447656.523                    86842355.144          46.800                          48.200  
G12  24290365.609                    24290374.250   127646730.853                    99465030.318          41.600                          38.100  
G09  23910206.266                    23910222.766   125648998.647                    97908388.801          38.700                          42.500  
G17  20819675.719                    20819682.965   109408133.397                    85253118.624          46.700                          48.200  
G14  23059467.438                    23059480.559   121178317.995                    94424683.438          38.600                          42.800  
G11  23541419.320                    23541429.031   123710984.684                    96398207.607          42.700                          44.300  
R01  21150743.367    21150741.148                                   113062833.199   113062827.208                                          43.800          41.800                                  
R02  21128658.820    21128657.617    21128668.035    21128667.945   112746578.420   112746570.431    87691775.241    87691781.245          46.200          45.000          47.000          47.100  
R16  21622521.273    21622520.816    21622529.742    21622529.641   115503684.497   115503622.517    89836148.426    89836155.417          43.300          43.000          45.700          46.400  
R24  21809032.266    21809031.566    21809042.680    21809042.301   116622693.035   116622684.066    90706532.667    90706538.672          43.700          42.800          46.800          47.800  
R15  21631514.805    21631515.742    21631525.848    21631525.531   115592256.448   115592238.440    89905076.358    89905081.362          43.600          42.600          46.100          46.700  
R17  19834886.047    19834884.762    19834893.039    19834892.648   106140484.196   106140462.195    82553700.618    82553705.615          49.900          47.300          48.800          49.100  
R18  21768277.328    21768276.137    21768285.387    21768284.738   116200539.442   116200527.468    90378187.313    90378191.318          43.800          42.100          46.100          46.700  
E13  26273707.234    26273718.371    26273715.371    26273718.160   138069256.991   103103646.605   105793306.823   104448473.821          41.900          43.600          44.800          50.300  
E15  23565479.328    23565487.258    23565485.617    23565487.734   123837430.060    92475981.017    94888397.457    93682197.346          48.400          48.100          49.400          55.700  
E21  26732731.164    26732740.102    26732738.695    26732740.504   140481449.928   104904955.900   107641607.605   106273278.358          40.900          43.300          45.100          50.100  
E27  24382129.602    24382137.238    24382135.691    24382137.684   128128954.696    95680696.436    98176715.001    96928699.327          47.600          47.200          49.200          54.700  
E30  26176722.445    26176733.414    26176731.023    26176733.191   137559600.003   102723060.813   105402793.584   104062915.807          43.900          44.800          46.000          51.400  
E05  25613778.430    25613791.504    25613788.316    25613791.445   134601322.760   100513967.592   103136071.561   101824999.184          42.100          42.700          43.000          48.500  
C04  38592080.859    38592080.891   200959092.177   155394314.516          37.000          40.300  
C03  37569767.508    37569768.578   195635641.089   151277886.197          38.700          41.500  
C02  39050059.563    39050059.590   203343930.313   157238407.047          36.100          40.100  
C01  38125327.000    38125329.004   198528577.662   153514899.573          38.200          41.800  
C27  25597580.563                   133293320.145                          26.800                  
C30  22104691.477                   115104925.742                          48.200                  
C29  22507486.633                   117202389.438                          47.100                  
C20  24441841.898                   127275083.839                          44.300                  
C13  39027918.898    39027927.816   203228618.554   157149294.342          39.800          39.400  
> 2025 04 10 06 36 35.0000000  0 32
G22  22153796.594    22153804.613                   116418986.104    90716122.907                          43.900          33.500                  
G03  22466084.352                    22466095.188   118060064.615                    91994899.685          40.600                          43.800  
G04  23628214.211                    23628225.402   124167108.678                    96753640.506          38.600                          40.900  
G19  19979885.859    19979889.227                   104995003.216    81814303.958                          47.900          41.700                  
G06  21206035.602                    21206045.477   111438468.410                    86835195.588          47.500                          48.100  
G12  24287094.875                    24287103.641   127629545.400                    99451639.174          39.700                          34.700  
G09  23906843.461                    23906859.652   125631325.979                    97894618.022          40.100                          42.900  
G17  20820084.766                    20820091.949   109410285.846                    85254795.846          46.500                          48.000  
G14  23062360.258                    23062373.340   121193518.735                    94436528.134          39.900                          43.000  
G11  23538434.328                    23538444.227   123695301.575                    96385987.023          42.700                          43.900  
R01  21151145.164    21151143.180                                   113064981.351   113064975.352                                          44.100          42.400                                  
R02  21125471.906    21125470.938    21125481.164    21125481.219   112729571.422   112729563.411    87678547.596    87678553.600          46.300          45.000          47.200          47.600  
R16  21621566.336    21621565.527    21621574.289    21621574.504   115498577.629   115498515.637    89832176.427    89832183.431          44.700          43.500          46.200          47.100  
R24  21810730.609    21810730.613    21810740.746    21810740.773   116631776.876   116631767.886    90713597.856    90713603.854          44.100          43.000          46.300          46.600  
R15  21633941.930    21633941.223    21633951.367    21633950.867   115605219.995   115605202.016    89915159.125    89915164.129          45.400          43.600          46.200          46.000  
R17  19834132.641    19834131.824    19834139.883    19834138.992   106136454.466   106136432.474    82550566.379    82550571.376          49.800          46.900          48.200          48.700  
R18  21765531.164    21765530.441    21765539.699    21765539.355   116185885.769   116185873.774    90366790.031    90366794.033          44.000          42.700          45.700          47.100  
E13  26271342.836    26271353.906    26271351.328    26271353.633   138056832.448   103094368.557   105783786.730   104439074.750          41.200          43.600          45.000          50.200  
E15  23564862.352    23564870.203    23564868.328    23564870.727   123834187.493    92473559.620    94885912.888    93679744.360          48.000          47.800          49.200          55.400  
E21  26730343.398    26730352.090    26730350.820    26730352.664   140468901.849   104895585.562   107631992.817   106263785.799          41.500          42.000          44.400          49.200  
E27  24382266.039    24382273.633    24382271.758    24382273.965   128129670.985    95681231.324    98177263.842    96929241.188          48.000          47.100          48.800          54.500  
E30  26178948.008    26178958.941    26178956.645    26178958.965   137571295.710   102731794.595   105411755.211   104071763.514          44.200          44.500          45.600          51.200  
E05  25612177.195    25612188.480    25612185.809    25612188.465   134592900.310   100507678.122   103129618.006   101818627.673          41.100          41.600          43.100          48.100  
C04  38591506.742    38591506.719   200956101.526   155392001.942          37.300          40.500  
C03  37569217.102    37569217.516   195632772.258   151275667.844          39.000          41.700  
C02  39049494.219    39049493.488   203340984.091   157236128.827          36.000          39.400  
C01  38124784.016    38124785.137   198525746.554   153512710.394          37.900          41.700  
C27  25599483.406                   133303212.510                          29.400                  
C30  22105113.313                   115107122.010                          48.200                  
C29  22505437.828                   117191719.711                          47.200                  
C20  24438322.703                   127256760.828                          44.500                  
C13  39026211.086    39026220.234   203219725.345   157142417.564          39.400          39.300  
> 2025 04 10 06 36 40.0000000  0 32
G22  22155701.820    22155709.434                   116428993.459    90723920.827                          45.300          34.000                  
G03  22468435.016                    22468445.766   118072418.166                    92004525.804          41.300                          43.700  
G04  23625856.117                    23625867.754   124154718.536                    96743985.884          38.600                          40.600  
G19  19978543.867    19978547.539                   104987953.891    81808810.979                          47.800          41.100                  
G06  21204288.906                    21204299.051   111429288.122                    86828042.112          47.500                          49.100  
G12  24283826.211                    24283835.883   127612370.692                    99438256.222          39.200                          35.800  
G09  23903481.797                    23903497.270   125613656.981                    97880850.031          40.700                          43.200  
G17  20820496.953                    20820503.496   109412448.226                    85256480.824          46.800                          47.200  
G14  23065253.969                    23065266.652   121208724.048                    94448376.382          39.900                          42.600  
G11  23535450.922                    23535460.535   123679622.915                    96373769.875          42.600                          44.600  
R01  21151550.086    21151549.273                                   113067152.160   113067146.161                                          42.300          41.300                                  
R02  21122288.297    21122287.328    21122296.805    21122296.938   112712580.732   112712572.723    87665332.632    87665338.635          46.800          44.800          47.400          47.000  
R16  21620615.008    21620613.848    21620622.555    21620622.488   115493493.184   115493431.168    89828221.835    89828228.854          45.700          43.600          46.800          47.500  
R24  21812431.250    21812430.316    21812439.855    21812440.070   116640865.200   116640856.206    90720666.544    90720672.549          43.400          42.300          46.600          46.400  
R15  21636369.961    21636368.902    21636379.855    21636379.879   115618197.045   115618179.051    89925252.340    89925257.343          44.600          42.600          45.900          46.600  
R17  19833381.156    19833379.750    19833387.645    19833387.445   106132432.304   106132410.317    82547438.026    82547443.037          49.100          47.400          49.200          49.300  
R18  21762787.125    21762786.168    21762795.188    21762794.871   116171235.676   116171223.682    90355395.521    90355399.532          43.800          43.000          46.800          46.100  
E13  26268979.195    26268990.035    26268988.348    26268990.102   138044411.438   103085093.145   105774269.351   104429678.354          42.200          43.000          45.500          50.300  
E15  23564246.500    23564253.980    23564252.434    23564254.672   123830949.992    92471142.005    94883432.211    93677295.217          48.000          48.100          48.900          55.700  
E21  26727957.430    26727966.047    26727964.266    26727966.527   140456362.484   104886221.748   107622384.747   106254299.854          41.200          42.500          44.800          49.400  
E27  24382404.578    24382412.023    24382410.242    24382412.508   128130399.232    95681775.139    98177821.850    96929792.101          47.700          47.400          48.300          54.500  
E30  26181174.906    26181185.586    26181183.098    26181185.543   137582996.342   102740532.043   105420720.598   104080614.931          44.400          44.300          46.000          51.200  
E05  25610575.547    25610587.809    25610585.277    25610587.836   134584488.019   100501396.229   103123172.238   101812263.844          41.900          42.400          43.400          48.700  
C04  38590932.289    38590932.520   200953111.154   155389689.602          37.300          40.700  
C03  37568666.461    37568666.684   195629903.579   151273449.600          38.400          41.400  
C02  39048928.047    39048927.898   203338037.846   157233850.607          35.100          39.200  
C01  38124239.500    38124241.449   198522915.528   153510521.254          38.300          41.700  
C27  25601383.766                   133313107.625                          32.000                  
C30  22105536.148                   115109324.649                          47.700                  
C29  22503389.453                   117181054.412                          47.400                  
C20  24434805.141                   127238443.456                          43.900                  
C13  39024503.859    39024512.617   203210835.042   157135543.030          39.500          39.200  
> 2025 04 10 06 36 45.0000000  0 32
G22  22157608.195    22157615.598                   116439010.456    90731726.264                          45.400          32.800                  
G03  22470787.477                    22470798.551   118084781.000                    92014159.205          40.900                          44.000  
G04  23623499.805                    23623512.418   124142338.371                    96734339.011          38.100                          41.300  
G19  19977204.539    19977208.516                   104980915.936    81803326.857                          47.800          41.500                  
G06  21202543.391                    21202552.910   111420115.297                    86820894.469          47.200                          49.100  
G12  24280560.680                    24280569.605   127595206.308                    99424881.350          39.600                          34.900  
G09  23900119.383                    23900135.523   125595991.407                    97867084.718          41.000                          43.400  
G17  20820909.906                    20820916.613   109414620.238                    85258173.290          46.800                          47.500  
G14  23068148.398                    23068160.887   121223933.579                    94460227.909          39.800                          43.000  
G11  23532469.148                    23532477.641   123663948.465                    96361556.046          42.600                          45.100  
R01  21151960.297    21151959.602                                   113069345.030   113069339.047                                          42.900          40.900                                  
R02  21119107.422    21119106.688    21119115.961    21119116.027   112695605.802   112695597.791    87652129.916    87652135.919          47.200          45.800          47.300          47.100  
R16  21619667.156    21619666.348    21619674.598    21619674.773   115488430.956   115488368.961    89824284.559    89824291.563          45.500          44.100          46.000          46.800  
R24  21814131.594    21814131.363    21814140.895    21814140.891   116649957.537   116649948.548    90727738.353    90727744.349          44.200          42.600          45.500          46.100  
R15  21638799.359    21638799.004    21638811.008    21638810.316   115631187.546   115631169.536    89935356.026    89935361.030          43.700          42.200          45.600          47.300  
R17  19832630.508    19832629.809    19832638.043    19832637.629   106128417.401   106128395.421    82544315.328    82544320.340          49.200          48.000          48.800          49.400  
R18  21760043.266    21760042.543    21760051.520    21760051.539   116156588.821   116156576.833    90344003.529    90344007.524          43.900          43.400          46.300          46.400  
E13  26266616.250    26266626.918    26266625.699    26266627.211   138031993.660   103075820.153   105764754.459   104420284.416          41.900          43.500          46.000          50.700  
E15  23563631.344    23563638.867    23563637.457    23563639.539   123827717.317    92468728.003    94880955.234    93674849.725          48.200          47.600          49.300          55.600  
E21  26725572.156    26725581.219    26725580.281    26725581.973   140443831.452   104876864.180   107612783.051   106244820.221          39.900          42.000          44.100          49.000  
E27  24382545.484    24382552.809    24382550.648    24382553.285   128131139.121    95682327.647    98178388.766    96930351.813          47.800          47.500          48.500          54.400  
E30  26183401.797    26183412.664    26183410.320    26183412.902   137594701.571   102749272.955   105429689.546   104089469.857          43.800          43.700          45.700          51.200  
E05  25608976.289    25608988.605    25608986.727    25608988.828   134576085.548   100495121.711   103116734.023   101805907.480          41.200          41.800          43.700          48.700  
C04  38590357.773    38590358.188   200950120.618   155387377.135          36.900          40.800  
C03  37568115.047    37568116.191   195627034.763   151271231.234          38.100          41.400  
C02  39048361.477    39048362.113   203335091.361   157231572.194          35.600          40.000  
C01  38123696.461    38123698.059   198520084.377   153508332.044          38.200          41.500  
C27  25603284.703                   133323004.757                          32.600                  
C30  22105960.289                   115111533.304                          47.900                  
C29  22501342.328                   117170393.283                          47.000                  
C20  24431287.922                   127220131.425                          43.000                  
C13  39022797.352    39022805.578   203201947.354   157128670.515          40.300          39.900  
> 2025 04 10 06 36 50.0000000  0 32
G22  22159515.523    22159523.156                   116449036.280    90739538.599                          44.900          33.200                  
G03  22473142.672                    22473152.859   118097152.269                    92023799.119          41.800                          43.700  
G04  23621145.469                    23621157.797   124129967.407                    96724699.312          38.900                          40.900  
G19  19975867.070    19975871.246                   104973888.618    81797851.026                          47.400          41.100                  
G06  21200798.844                    21200809.258   111410949.203                    86813752.066          47.000                          48.400  
G12  24277295.367                    24277305.156   127578051.684                    99411514.183          38.800                          35.200  
G09  23896758.633                    23896774.453   125578328.366                    97853321.416          41.000                          43.200  
G17  20821324.875                    20821331.875   109416801.178                    85259872.715          46.600                          47.100  
G14  23071044.203                    23071055.410   121239146.552                    94472082.116          40.300                          42.200  
G11  23529486.961                    23529495.188   123648277.355                    96349344.819          43.400                          43.900  
R01  21152374.031    21152373.922                                   113071559.216   113071553.225                                          42.700          41.400                                  
R02  21115928.688    21115927.602    21115937.063    21115937.250   112678645.899   112678637.926    87638938.897    87638944.901          47.200          45.000          47.100          46.300  
R16  21618724.000    21618722.840    21618731.648    21618731.668   115483390.258   115483328.265    89820364.007    89820371.019          46.500          43.900          46.700          48.000  
R24  21815833.258    21815831.855    21815842.258    21815842.129   116659053.254   116659044.260    90734812.780    90734818.784          44.700          42.800          45.300          46.600  
R15  21641232.719    21641232.953    21641244.051    21641243.613   115644190.300   115644172.304    89945469.251    89945474.255          41.600          41.800          44.900          46.400  
R17  19831881.789    19831880.738    19831888.855    19831888.609   106124408.813   106124386.817    82541197.544    82541202.542          49.400          48.000          49.100          48.900  
R18  21757298.992    21757298.973    21757308.281    21757307.750   116141944.422   116141932.426    90332613.445    90332617.442          44.200          43.200          46.600          47.000  
E13  26264253.289    26264264.180    26264263.008    26264264.637   138019578.289   103066548.943   105755241.393   104410892.274          41.000          43.500          45.100          50.300  
E15  23563016.625    23563024.500    23563022.766    23563025.066   123824488.625    92466316.964    94878481.299    93672407.237          47.900          47.800          49.000          55.600  
E21  26723189.320    26723197.980    26723196.621    26723198.727   140431307.996   104867512.258   107603187.172   106235346.323          41.000          42.300          44.500          49.100  
E27  24382688.531    24382695.555    24382693.352    24382696.109   128131889.865    95682888.267    98178964.011    96930919.747          47.800          47.400          48.600          54.500  
E30  26185630.203    26185640.742    26185638.164    26185641.016   137606410.630   102758016.706   105438661.394   104098327.661          44.200          43.800          45.900          50.900  
E05  25607379.797    25607391.711    25607389.320    25607391.426   134567692.091   100488853.874   103110302.679   101799557.887          42.200          42.400          43.500          48.500  
C04  38589784.219    38589783.676   200947129.263   155385064.027          37.100          40.700  
C03  37567563.828    37567564.898   195624164.976   151269012.156          38.700          41.400  
C02  39047795.930    39047795.828   203332143.856   157229293.006          35.900          40.200  
C01  38123152.195    38123154.352   198517252.353   153506142.140          38.100          41.400  
C27  25605183.727                   133332903.467                          29.100                  
C30  22106385.641                   115113747.221                          48.200                  
C29  22499295.539                   117159735.507                          47.000                  
C20  24427771.938                   127201823.962                          43.700                  
C13  39021090.906    39021099.742   203193061.467   157121799.392          39.600          39.200  
> 2025 04 10 06 36 55.0000000  0 32
G22  22161426.359    22161432.969                   116459072.517    90747359.035                          46.200          33.500                  
G03  22475498.211                    22475509.133   118109533.589                    92033446.897          41.700                          43.600  
G04  23618794.023                    23618805.641   124117607.241                    96715068.056          38.800                          41.300  
G19  19974532.305    19974536.395                   104966873.452    81792384.658                          47.000          41.400                  
G06  21199056.461                    21199066.094   111401791.407                    86806616.129          47.200                          48.100  
G12  24274034.016                    24274042.566   127560908.153                    99398155.542          39.600                          35.900  
G09  23893398.539                    23893414.402   125560669.617                    97839561.449          40.600                          43.800  
G17  20821742.406                    20821748.668   109418992.570                    85261580.290          46.500                          46.700  
G14  23073938.430                    23073951.715   121254364.548                    94483940.258          39.800                          42.600  
G11  23526505.906                    23526514.234   123632611.231                    96337137.446          43.500                          43.800  
R01  21152793.969    21152791.633                                   113073796.299   113073790.300                                          43.100          41.300                                  
R02  21112753.992    21112752.438    21112762.098    21112762.484   112661702.865   112661694.862    87625761.001    87625767.012          46.500          45.400          47.200          47.100  
R16  21617783.117    21617782.777    21617792.566    21617792.086   115478372.421   115478310.436    89816461.240    89816468.230          45.300          43.700          46.000          47.200  
R24  21817534.461    21817534.230    21817543.773    21817543.543   116668153.875   116668144.896    90741891.030    90741897.034          44.600          42.900          45.100          45.900  
R15  21643670.203    21643669.613    21643680.141    21643679.738   115657207.073   115657189.102    89955593.399    89955598.397          43.700          42.300          45.400          46.000  
R17  19831134.164    19831133.113    19831141.453    19831140.945   106120408.339   106120386.351    82538086.045    82538091.040          49.200          47.700          49.100          49.400  
R18  21754556.359    21754556.223    21754565.859    21754565.359   116127304.087   116127292.084    90321226.512    90321230.508          44.000          42.800          45.600          47.300  
E13  26261891.719    26261902.352    26261900.848    26261902.770   138007166.896   103057280.712   105745731.388   104401503.156          41.700          43.300          45.200          50.100  
E15  23562403.484    23562411.195    23562409.555    23562411.773   123821265.524    92463910.099    94876011.652    93669968.981          47.800          47.900          49.000          55.700  
E21  26720808.375    26720816.738    26720815.285    26720817.375   140418793.704   104858167.175   107593598.296   106225879.341          41.000          42.600          44.300          49.400  
E27  24382833.430    24382840.699    24382838.777    24382841.410   128132653.012    95683458.132    98179548.748    96931497.050          47.800          46.900          48.300          54.400  
E30  26187859.859    26187869.930    26187867.727    26187870.414   137618125.048   102766764.482   105447637.379   104107189.541          44.400          44.400          45.900          51.100  
E05  25605784.133    25605796.523    25605793.945    25605796.105   134559309.272   100482594.015   103103879.509   101793216.370          41.500          42.000          44.200          48.400  
C04  38589209.102    38589209.238   200944138.566   155382751.424          37.000          40.600  
C03  37567012.727    37567013.492   195621295.840   151266793.540          38.600          41.100  
C02  39047229.836    39047229.922   203329196.840   157227014.170          35.800          40.100  
C01  38122608.633    38122610.355   198514420.890   153503952.658          38.100          41.100  
C27  25607086.484                   133342804.614                          28.600                  
C30  22106812.016                   115115967.941                          48.200                  
C29  22497249.703                   117149082.697                          47.400                  
C20  24424257.555                   127183522.669                          43.600                  
C13  39019385.641    39019393.992   203184178.972   157114930.906          39.600          39.400  
> 2025 04 10 06 37  0.0000000  0 32
G22  22163337.375    22163344.563                   116469118.122    90755186.771                          46.100          33.300                  
G03  22477855.859                    22477866.805   118121923.892                    92043101.666          41.700                          43.900  
G04  23616443.695                    23616455.352   124105256.836                    96705444.401          38.900                          40.700  
G19  19973199.883    19973203.965                   104959869.442    81786926.986                          47.000          41.300                  
G06  21197314.656                    21197325.152   111392640.860                    86799485.839          47.000                          47.900  
G12  24270773.078                    24270782.348   127543774.899                    99384804.961          39.000                          33.800  
G09  23890037.523                    23890054.297   125543013.936                    97825803.851          39.500                          43.500  
G17  20822161.266                    20822168.141   109421193.364                    85263295.189          47.000                          47.200  
G14  23076835.438                    23076848.484   121269586.530                    94495801.465          40.700                          41.800  
G11  23523525.438                    23523533.727   123616949.052                    96324933.190          43.900                          43.700  
R01  21153215.867    21153214.469                                   113076055.330   113076049.323                                          43.800          41.600                                  
R02  21109580.617    21109579.531    21109590.223    21109590.121   112644775.521   112644767.518    87612595.306    87612601.317          45.800          44.900          47.100          47.300  
R16  21616848.711    21616847.082    21616856.602    21616856.477   115473376.626   115473314.611    89812575.631    89812582.629          44.500          43.500          46.400          47.500  
R24  21819236.531    21819236.652    21819245.906    21819246.406   116677258.241   116677249.245    90748972.208    90748978.218          44.500          42.800          44.900          45.800  
R15  21646106.969    21646107.906    21646118.422    21646117.680   115670236.862   115670218.904    89965727.649    89965732.652          43.400          42.100          45.300          45.700  
R17  19830388.016    19830386.023    19830394.988    19830394.398   106116414.735   106116392.735    82534979.922    82534984.919          50.000          47.500          49.400          49.200  
R18  21751815.305    21751813.762    21751822.840    21751822.000   116112666.779   116112654.791    90309841.957    90309845.975          44.500          42.400          46.800          47.100  
E13  26259530.586    26259541.371    26259539.402    26259541.613   137994758.484   103048014.710   105736223.663   104392116.297          42.000          44.000          44.700          50.500  
E15  23561790.875    23561798.848    23561797.301    23561799.387   123818046.980    92461506.637    94873545.483    93667534.171          47.600          47.600          50.000          55.700  
E21  26718428.539    26718437.254    26718435.613    26718437.625   140406287.586   104848828.173   107584015.687   106216418.535          42.300          43.200          44.600          49.600  
E27  24382981.023    24382988.160    24382986.238    24382988.938   128133427.598    95684036.554    98180142.254    96932083.011          47.300          47.300          48.500          54.300  
E30  26190090.047    26190099.918    26190097.434    26190100.211   137629843.844   102775515.511   105456616.690   104116054.711          44.400          43.900          45.700          50.700  
E05  25604190.227    25604203.207    25604200.770    25604202.781   134550936.064   100476341.307   103097463.684   101786882.100          41.000          41.900          43.600          48.500  
C04  38588634.219    38588634.980   200941147.516   155380438.560          36.700          40.400  
C03  37566461.766    37566462.906   195618426.325   151264574.653          38.400          41.600  
C02  39046664.094    39046663.945   203326249.312   157224734.974          35.600          40.400  
C01  38122064.891    38122066.508   198511589.065   153501762.936          38.300          41.600  
C27  25608987.313                   133352707.423                          25.300                  
C30  22107239.727                   115118194.441                          47.800                  
C29  22495205.047                   117138433.782                          47.200                  
C20  24420743.906                   127165226.499                          43.400                  
C13  39017680.156    39017688.621   203175298.823   157108064.217          39.600          39.600  
> 2025 04 10 06 37  5.0000000  0 31
G22  22165250.711    22165257.469                   116479172.431    90763021.286                          45.400          33.300                  
G03  22480215.188                    22480226.004   118134322.531                    92052762.927          41.400                          44.100  
G04  23614094.297                    23614106.992   124092915.655                    96695827.907          37.800                          41.000  
G19  19971868.797    19971872.547                   104952875.959    81781477.524                          46.800          41.300                  
G06  21195574.867                    21195584.926   111383496.938                    86792360.705          47.200                          47.800  
G12  24267514.297                    24267523.227   127526651.163                    99371461.827          38.300                          35.800  
G09  23886677.563                    23886694.258   125525360.849                    97812048.283          38.400                          42.600  
G17  20822580.953                    20822588.406   109423402.959                    85265016.951          46.600                          47.700  
G14  23079732.914                    23079745.625   121284811.825                    94507665.281          39.900                          41.900  
G11  23520544.492                    23520554.094   123601290.184                    96312731.472          42.700                          44.600  
R01  21153642.102    21153641.523                                   113078335.558   113078329.545                                          43.100          41.700                                  
R02  21106412.023    21106410.469    21106420.672    21106420.977   112627863.131   112627855.128    87599441.273    87599447.284          46.700          44.600          47.300          47.500  
R16  21615916.781    21615915.504    21615925.051    21615925.039   115468402.131   115468340.128    89808706.573    89808713.570          44.500          43.000          46.200          47.900  
R24  21820939.961    21820939.848    21820949.387    21820949.574   116686365.839   116686356.825    90756055.870    90756061.874          43.800          43.100          45.100          45.900  
R15  21648547.844    21648548.430    21648558.992    21648558.188   115683278.932   115683260.930    89975871.467    89975876.471          43.300          42.100          45.100          45.800  
R17  19829643.180    19829641.422    19829650.137    19829649.133   106112427.472   106112405.478    82531878.712    82531883.716          49.600          48.000          49.200          49.400  
R18  21749074.547    21749072.652    21749081.266    21749081.191   116098031.831   116098019.837    90298459.225    90298463.229          46.200          43.100          46.400          47.000  
E13  26257169.445    26257180.879    26257178.160    26257180.793   137982352.427   103038750.458   105726717.727   104382731.202          41.900          43.600          45.000          50.400  
E15  23561179.445    23561186.648    23561185.195    23561187.281   123814832.328    92459106.091    94871082.313    93665102.309          48.500          48.000          50.000          55.500  
E21  26716050.180    26716058.578    26716057.406    26716059.258   140393788.964   104839494.804   107574438.830   106206963.423          41.900          42.700          44.800          49.400  
E27  24383130.609    24383137.664    24383135.648    24383138.273   128134212.908    95684622.985    98180743.986    96932677.092          48.000          47.800          48.500          54.400  
E30  26192320.641    26192330.809    26192328.230    26192331.063   137641566.327   102784269.297   105465598.842   104124922.677          44.200          44.600          45.600          50.800  
E05  25602599.359    25602611.086    25602609.586    25602611.117   134542571.754   100470095.261   103091054.692   101780554.582          40.800          41.900          43.100          48.700  
C04  38588060.133    38588060.152   200938155.489   155378124.950          36.900          40.500  
C03  37565910.719    37565911.641   195615555.767   151262354.970          38.400          42.100  
C02  39046097.352    39046097.516   203323300.640   157222454.871          35.600          39.000  
C01  38121520.805    38121522.605   198508756.208   153499572.392          38.400          41.600  
C30  22107668.164                   115120426.107                          48.400                  
C29  22493161.070                   117127788.147                          47.100                  
C20  24417231.375                   127146934.875                          44.500                  
C13  39015974.344    39015983.512   203166420.365   157101198.854          39.500          39.500  
> 2025 04 10 06 37 10.0000000  0 31
G22  22167165.508    22167172.629                   116489235.808    90770862.868                          44.300          33.500                  
G03  22482576.102                    22482586.902   118146729.837                    92062430.940          40.800                          44.700  
G04  23611748.547                    23611760.250   124080583.931                    96686218.826          38.300                          41.000  
G19  19970539.570    19970544.246                   104945893.321    81776036.509                          47.200          41.400                  
G06  21193836.086                    21193846.344   111374359.952                    86785240.974          46.200                          47.700  
G12  24264257.781                    24264267.270   127509537.367                    99358126.360          38.800                          34.700  
G09  23883319.914                    23883335.750   125507710.657                    97798294.978          38.900                          43.100  
G17  20823003.469                    20823010.059   109425621.717                    85266745.850          46.200                          47.600  
G14  23082631.477                    23082643.121   121300040.760                    94519531.968          41.400                          41.900  
G11  23517565.484                    23517575.141   123585634.923                    96300532.573          41.800                          44.100  
R01  21154073.711    21154072.078                                   113080637.312   113080631.307                                          42.800          41.600                                  
R02  21103245.156    21103243.953    21103254.000    21103254.141   112610966.201   112610958.205    87586299.222    87586305.232          47.100          44.700          47.300          47.300  
R16  21614990.070    21614989.027    21614998.215    21614998.070   115463449.201   115463387.209    89804854.299    89804861.296          45.000          43.500          46.800          47.500  
R24  21822644.430    21822643.027    21822653.309    21822653.012   116695477.070   116695468.071    90763142.354    90763148.351          44.900          43.400          45.400          46.600  
R15  21650991.461    21650991.813    21651002.086    21651001.613   115696333.484   115696315.501    89986024.973    89986029.979          43.600          42.200          45.600          45.900  
R17  19828898.656    19828898.309    19828906.613    19828905.887   106108446.987   106108424.979    82528782.781    82528787.785          48.800          47.500          48.500          50.300  
R18  21746332.273    21746331.434    21746340.617    21746340.156   116083399.567   116083387.580    90287078.565    90287082.576          45.500          43.800          46.800          47.800  
E13  26254809.227    26254820.543    26254817.543    26254820.418   137969948.968   103029488.150   105717213.786   104373348.082          41.900          43.700          44.700          50.200  
E15  23560568.563    23560575.973    23560574.426    23560576.594   123811621.924    92456708.707    94868622.396    93662673.656          47.700          48.000          49.600          55.500  
E21  26713673.320    26713681.516    26713680.250    26713682.148   140381298.238   104830167.327   107564868.022   106197514.276          42.600          42.400          44.400          49.600  
E27  24383282.109    24383289.270    24383287.441    24383289.992   128135009.321    95685217.701    98181354.220    96933279.567          47.400          47.200          48.800          54.600  
E30  26194552.281    26194562.117    26194559.680    26194562.434   137653292.848   102793026.100   105474584.091   104133793.703          45.100          44.200          45.300          51.200  
E05  25601009.656    25601020.242    25601019.539    25601021.387   134534216.818   100463856.182   103084652.887   101774234.139          42.300          41.100          43.100          47.600  
C04  38587485.469    38587485.590   200935162.793   155375810.771          36.800          40.800  
C03  37565359.273    37565359.945   195612684.515   151260134.738          38.600          41.200  
C02  39045530.711    39045530.977   203320351.175   157220174.162          35.900          39.000  
C01  38120976.469    38120977.973   198505922.647   153497381.312          38.300          42.000  
C30  22108097.969                   115122663.286                          48.800                  
C29  22491117.203                   117117146.166                          47.900                  
C20  24413719.609                   127128648.089                          44.200                  
C13  39014269.641    39014279.230   203157543.943   157094335.070          39.400          40.000  
> 2025 04 10 06 37 15.0000000  0 31
G22  22169081.773    22169089.836                   116499308.864    90778711.987                          44.900          33.400                  
G03  22484938.820                    22484949.777   118159146.441                    92072106.210          41.100                          43.400  
G04  23609402.453                    23609415.500   124068262.394                    96676617.644          38.000                          41.000  
G19  19969213.055    19969217.285                   104938922.227    81770604.481                          47.200          41.300                  
G06  21192099.398                    21192109.082   111365230.610                    86778127.187          47.500                          48.000  
G12  24261003.180                    24261011.699   127492434.229                    99344799.254          38.300                          34.100  
G09  23879961.242                    23879977.523   125490064.033                    97784544.469          38.600                          42.700  
G17  20823427.758                    20823434.145   109427850.250                    85268482.356          46.800                          48.000  
G14  23085529.398                    23085542.051   121315273.947                    94531401.924          40.900                          41.300  
G11  23514587.086                    23514596.930   123569983.971                    96288337.042          42.500                          43.900  
R01  21154507.961    21154507.031                                   113082961.358   113082955.352                                          43.000          41.300                                  
R02  21100081.500    21100080.766    21100090.641    21100091.117   112594085.453   112594077.457    87573169.790    87573175.793          46.500          45.000          47.200          46.900  
R16  21614067.336    21614066.879    21614076.031    21614076.074   115458518.632   115458456.623    89801019.423    89801026.427          45.300          43.900          46.400          47.600  
R24  21824348.461    21824348.582    21824358.078    21824358.031   116704592.390   116704583.391    90770232.032    90770238.030          45.300          44.100          45.500          45.900  
R15  21653436.594    21653436.711    21653447.926    21653447.125   115709401.278   115709383.284    89996188.787    89996193.791          43.600          42.100          45.500          45.700  
R17  19828156.758    19828155.234    19828163.949    19828163.398   106104473.752   106104451.750    82525692.485    82525697.495          48.800          47.300          48.700          49.800  
R18  21743591.859    21743590.902    21743599.879    21743599.539   116068770.680   116068758.690    90275700.555    90275704.558          44.500          43.400          46.300          47.100  
E13  26252449.430    26252460.922    26252457.969    26252460.895   137957548.885   103020228.360   105707712.445   104363967.511          41.800          44.200          45.100          50.400  
E15  23559958.523    23559965.867    23559964.508    23559966.566   123808416.410    92454314.979    94866166.218    93660248.705          47.600          47.200          49.600          55.500  
E21  26711298.352    26711306.352    26711305.039    26711307.031   140368816.037   104820846.199   107555303.741   106188071.576          43.200          43.000          44.700          49.600  
E27  24383436.195    24383443.195    24383441.227    24383443.691   128135817.491    95685821.198    98181973.464    96933890.938          47.600          47.600          48.600          54.500  
E30  26196784.422    26196794.602    26196792.023    26196795.008   137665024.051   102801786.385   105483572.910   104142668.255          43.900          44.500          45.300          50.900  
E05  25599420.430    25599432.355    25599430.996    25599433.391   134525871.848   100457624.553   103078258.690   101767921.229          42.400          41.100          43.200          47.800  
C04  38586910.320    38586910.629   200932170.151   155373496.698          36.400          40.800  
C03  37564808.250    37564808.512   195609813.231   151257914.480          38.700          41.800  
C02  39044964.469    39044964.766   203317401.489   157217893.276          35.700          39.400  
C01  38120432.602    38120433.844   198503089.046   153495190.192          38.400          42.100  
C30  22108528.570                   115124906.597                          48.400                  
C29  22489074.148                   117106508.467                          47.900                  
C20  24410208.891                   127110366.859                          45.000                  
C13  39012565.320    39012575.078   203148670.328   157087473.462          38.400          40.400  
> 2025 04 10 06 37 20.0000000  0 31
G22  22171000.781    22171008.332                   116509391.678    90786568.699                          44.900          33.000                  
G03  22487303.766                    22487314.703   118171572.424                    92081788.768          41.000                          43.700  
G04  23607060.828                    23607072.945   124055951.113                    96667024.474          37.900                          40.500  
G19  19967888.875    19967893.402                   104931962.771    81765181.536                          47.200          41.600                  
G06  21190363.141                    21190373.188   111356108.912                    86771019.391          47.600                          47.900  
G12  24257750.727                    24257759.098   127475341.664                    99331480.422          37.700                          34.400  
G09  23876603.547                    23876620.613   125472421.034                    97770796.769          38.400                          42.700  
G17  20823854.016                    20823860.676   109430088.655                    85270226.566          46.900                          47.800  
G14  23088429.969                    23088442.316   121330511.485                    94543275.316          40.500                          41.100  
G11  23511609.977                    23511619.656   123554337.396                    96276144.908          42.300                          43.900  
R01  21154946.695    21154946.234                                   113085307.695   113085301.689                                          43.000          41.300                                  
R02  21096921.688    21096920.367    21096930.125    21096930.320   112577220.688   112577212.691    87560052.771    87560058.781          46.900          45.400          46.800          47.000  
R16  21613148.555    21613147.160    21613156.383    21613156.266   115453610.534   115453548.548    89797202.004    89797209.008          44.600          43.400          46.900          47.400  
R24  21826053.828    21826053.715    21826063.199    21826063.223   116713712.082   116713703.079    90777325.123    90777331.127          44.700          43.400          46.000          46.000  
R15  21655884.523    21655884.758    21655895.859    21655895.477   115722482.315   115722464.281    90006362.921    90006367.918          44.400          43.200          45.600          46.800  
R17  19827415.055    19827413.887    19827422.496    19827421.988   106100507.932   106100485.944    82522607.962    82522612.975          49.100          47.500          48.900          49.800  
R18  21740852.055    21740850.980    21740860.797    21740860.254   116054145.189   116054133.213    90264325.200    90264329.196          44.300          42.600          47.200          47.300  
E13  26250091.102    26250101.676    26250099.379    26250102.066   137945152.190   103010971.099   105698213.691   104354589.502          41.200          43.500          46.100          50.600  
E15  23559349.453    23559357.039    23559355.539    23559357.660   123805215.877    92451924.968    94863713.862    93657827.520          47.200          47.700          49.400          55.500  
E21  26708924.430    26708932.141    26708931.203    26708933.090   140356342.417   104811531.485   107545746.023   106178635.363          42.200          42.000          44.500          49.200  
E27  24383592.156    24383599.414    24383597.305    24383599.770   128136637.447    95686433.495    98182601.735    96934511.224          47.400          47.700          48.800          54.800  
E30  26199017.508    26199027.758    26199025.555    26199028.348   137676759.999   102810550.230   105492565.383   104151546.420          44.500          44.200          46.000          51.100  
E05  25597835.594    25597846.816    25597844.285    25597847.355   134517536.907   100451400.428   103071872.186   101761615.915          41.300          41.200          42.500          47.500  
C04  38586335.781    38586336.465   200929177.588   155371182.637          36.600          40.700  
C03  37564256.664    37564257.426   195606941.966   151255694.238          38.700          41.700  
C02  39044398.320    39044398.508   203314451.729   157215612.347          35.700          40.100  
C01  38119888.195    38119889.750   198500255.541   153492999.146          37.900          41.500  
C30  22108960.797                   115127156.126                          48.300                  
C29  22487032.102                   117095875.108                          47.300                  
C20  24406699.438                   127092091.239                          45.500                  
C13  39010861.852    39010871.527   203139799.419   157080613.918          39.000          39.900  
> 2025 04 10 06 37 25.0000000  0 31
G22  22172921.969    22172929.188                   116519484.523    90794433.236                          45.900          34.100                  
G03  22489670.039                    22489680.984   118184008.075                    92091478.884          41.200                          44.300  
G04  23604719.813                    23604732.023   124043650.464                    96657439.597          37.300                          40.800  
G19  19966566.766    19966571.102                   104925015.287    81759767.904                          47.000          41.100                  
G06  21188629.180                    21188639.305   111346995.247                    86763917.831          46.500                          47.200  
G12  24254500.141                    24254509.539   127458260.208                    99318170.139          38.400                          35.100  
G09  23873247.406                    23873263.258   125454782.113                    97757052.269          38.600                          43.200  
G17  20824281.570                    20824288.332   109432337.231                    85271978.696          46.800                          48.000  
G14  23091330.250                    23091342.156   121345753.710                    94555152.295          40.800                          41.500  
G11  23508632.766                    23508643.398   123538695.509                    96263956.452          42.200                          43.600  
R01  21155390.227    21155389.414                                   113087676.712   113087670.706                                          42.900          42.000                                  
R02  21093765.516    21093763.609    21093772.988    21093773.133   112560372.521   112560364.525    87546948.643    87546954.660          47.400          45.000          46.900          47.600  
R16  21612233.492    21612232.801    21612241.531    21612241.586   115448725.302   115448663.301    89793402.354    89793409.350          44.500          43.300          46.300          46.400  
R24  21827761.906    21827759.797    21827769.883    21827769.953   116722836.358   116722827.349    90784421.771    90784427.774          45.600          43.100          45.900          46.600  
R15  21658335.648    21658335.414    21658346.734    21658346.324   115735577.098   115735559.095    90016547.726    90016552.729          44.100          42.900          46.400          46.100  
R17  19826675.828    19826674.188    19826682.602    19826682.445   106096549.858   106096527.858    82519529.466    82519534.471          49.100          47.400          48.900          49.400  
R18  21738113.070    21738112.113    21738122.168    21738121.332   116039523.495   116039511.515    90252952.787    90252956.782          44.500          42.800          47.300          48.100  
E13  26247732.500    26247742.848    26247740.879    26247743.598   137932759.194   103001716.621   105688717.783   104345214.309          41.900          44.400          45.000          50.600  
E15  23558741.492    23558749.105    23558747.512    23558749.699   123802020.608    92449538.895    94861265.536    93655410.323          47.700          47.600          49.800          55.500  
E21  26706552.656    26706560.648    26706559.383    26706561.340   140343877.746   104802223.462   107536195.190   106169205.932          42.400          42.700          44.800          49.500  
E27  24383750.094    24383757.793    24383755.730    24383758.082   128137469.560    95687054.873    98183239.319    96935140.706          47.500          47.100          48.900          54.600  
E30  26201251.609    26201262.164    26201259.539    26201262.566   137688500.989   102819317.827   105501561.696   104160428.371          44.900          44.300          45.100          50.800  
E05  25596251.836    25596263.293    25596260.102    25596263.145   134509212.375   100445184.082   103065493.667   101755318.482          42.300          41.900          42.700          47.600  
C04  38585761.688    38585761.766   200926185.411   155368868.893          36.800          41.400  
C03  37563705.258    37563705.980   195604071.089   151253474.296          38.700          41.200  
C02  39043831.805    39043832.242   203311502.242   157213331.608          35.400          39.700  
C01  38119344.273    38119345.863   198497422.348   153490808.349          38.300          41.900  
C30  22109393.805                   115129412.207                          48.400                  
C29  22484990.938                   117085246.463                          47.600                  
C20  24403190.602                   127073821.567                          45.500                  
C13  39009158.664    39009168.586   203130931.668   157073756.817          39.300          39.500  
> 2025 04 10 06 37 30.0000000  0 31
G22  22174844.492    22174851.719                   116529586.832    90802305.149                          46.000          33.200                  
G03  22492038.406                    22492049.098   118196452.795                    92101176.042          41.800                          44.600  
G04  23602380.961                    23602393.000   124031359.844                    96647862.501          38.800                          41.400  
G19  19965247.125    19965251.332                   104918079.165    81754363.139                          48.000          42.000                  
G06  21186896.000                    21186906.434   111337888.986                    86756822.045          47.300                          47.700  
G12  24251252.547                    24251260.512   127441189.184                    99304868.090          39.100                          35.100  
G09  23869891.453                    23869907.883   125437146.606                    97743310.384          39.500                          42.800  
G17  20824711.359                    20824717.781   109434595.418                    85273738.313          46.800                          47.300  
G14  23094231.727                    23094244.063   121360999.968                    94567032.440          40.200                          41.600  
G11  23505657.672                    23505667.371   123523057.708                    96251771.188          42.700                          43.800  
R01  21155837.164    21155836.703                                   113090067.641   113090061.656                                          42.600          41.800                                  
R02  21090609.500    21090608.180    21090618.004    21090618.305   112543540.239   112543532.236    87533856.880    87533862.884          47.600          45.700          46.500          46.800  
R16  21611323.180    21611321.551    21611330.371    21611330.672   115443862.106   115443800.127    89789619.890    89789626.895          44.100          43.100          45.700          47.200  
R24  21829466.656    21829465.605    21829476.641    21829476.301   116731964.628   116731955.631    90791521.508    90791527.506          44.900          43.200          45.600          46.400  
R15  21660788.563    21660788.445    21660799.977    21660799.035   115748684.761   115748666.778    90026742.540    90026747.552          44.500          43.400          46.000          46.400  
R17  19825936.742    19825936.160    19825944.621    19825944.270   106092598.887   106092576.899    82516456.485    82516461.489          48.900          47.900          48.400          49.300  
R18  21735374.555    21735373.480    21735382.973    21735382.457   116024905.045   116024893.027    90241582.880    90241586.884          44.200          42.600          47.200          48.300  
E13  26245374.375    26245385.051    26245383.270    26245385.688   137920369.319   102992464.454   105679224.261   104335841.465          41.400          43.900          45.600          50.700  
E15  23558134.367    23558141.887    23558140.246    23558142.414   123798830.026    92447156.320    94858820.806    93652996.668          47.800          47.800          49.700          55.400  
E21  26704182.492    26704189.941    26704189.098    26704191.121   140331421.397   104792921.646   107526650.722   106159782.796          41.800          41.800          45.300          49.500  
E27  24383910.445    24383918.422    24383916.309    24383918.695   128138313.213    95687684.868    98183885.751    96935778.918          47.700          47.900          49.200          54.700  
E30  26203486.648    26203497.289    26203494.805    26203497.621   137700246.452   102828088.773   105510561.454   104169313.725          43.900          44.400          45.700          50.900  
E05  25594669.313    25594680.754    25594678.359    25594680.801   134500897.651   100438975.056   103059122.654   101749028.464          41.600          40.700          42.600          47.300  
C04  38585186.992    38585186.660   200923193.076   155366555.030          36.800          41.100  
C03  37563153.867    37563154.668   195601199.959   151251254.161          38.700          41.400  
C02  39043265.711    39043265.602   203308552.378   157211050.581          35.900          39.700  
C01  38118800.281    38118801.469   198494588.928   153488617.376          38.200          41.400  
C30  22109828.453                   115131674.261                          48.400                  
C29  22482950.703                   117074621.898                          47.600                  
C20  24399683.648                   127055557.224                          45.000                  
C13  39007456.875    39007465.848   203122066.279   157066901.572          39.900          40.000  
> 2025 04 10 06 37 35.0000000  0 31
G22  22176768.242    22176775.453                   116539697.899    90810183.877                          46.000          33.400                  
G03  22494408.484                    22494418.848   118208905.826                    92110879.703          41.700                          44.100  
G04  23600044.117                    23600056.336   124019078.511                    96638292.663          38.600                          42.100  
G19  19963929.570    19963933.121                   104911153.677    81748966.658                          47.400          41.300                  
G06  21185164.078                    21185174.672   111328789.424                    86749731.482          47.300                          48.300  
G12  24248005.547                    24248013.473   127424127.851                    99291573.545          38.800                          36.900  
G09  23866535.391                    23866552.680   125419513.737                    97729570.570          39.500                          42.500  
G17  20825142.445                    20825149.418   109436862.471                    85275504.860          46.500                          47.000  
G14  23097133.766                    23097145.965   121376249.549                    94578915.181          40.900                          42.100  
G11  23502682.992                    23502692.176   123507423.297                    96239588.528          43.000                          44.400  
R01  21156288.898    21156287.500                                   113092479.871   113092473.865                                          43.200          41.900                                  
R02  21087458.703    21087457.383    21087467.266    21087467.340   112526723.321   112526715.333    87520777.077    87520783.088          47.600          45.100          46.800          46.300  
R16  21610416.289    21610416.652    21610425.168    21610425.387   115439020.238   115438958.243    89785853.985    89785860.989          44.000          43.100          46.200          46.600  
R24  21831174.609    21831174.848    21831184.660    21831184.734   116741096.197   116741087.204    90798623.808    90798629.797          44.900          43.000          45.600          45.600  
R15  21663243.906    21663243.672    21663255.137    21663254.371   115761804.681   115761786.670    90036946.894    90036951.898          45.100          43.200          46.200          46.000  
R17  19825199.891    19825198.605    19825206.887    19825206.645   106088654.436   106088632.435    82513388.579    82513393.598          49.400          48.100          48.400          49.200  
R18  21732635.484    21732634.879    21732644.449    21732644.191   116010288.961   116010276.966    90230214.840    90230218.844          45.000          43.200          47.300          48.100  
E13  26243017.227    26243027.746    26243025.965    26243028.348   137907981.863   102983214.089   105669732.582   104326470.443          41.900          43.600          45.100          50.300  
E15  23557527.781    23557535.684    23557533.949    23557536.180   123795643.426    92444776.711    94856379.126    93650586.024          47.700          47.800          49.300          55.500  
E21  26701812.742    26701821.355    26701820.184    26701822.234   140318972.709   104783625.574   107517112.138   106150365.465          40.500          42.300          44.400          49.400  
E27  24384073.016    24384080.949    24384079.121    24384081.355   128139167.688    95688322.939    98184540.476    96936425.317          48.200          47.800          49.300          54.700  
E30  26205722.320    26205733.332    26205731.172    26205733.727   137711995.646   102836862.505   105519564.072   104178201.896          44.300          44.200          45.300          50.900  
E05  25593088.570    25593099.949    25593098.309    25593100.289   134492591.981   100432772.786   103052758.587   101742745.295          41.500          40.600          42.600          47.100  
C04  38584612.539    38584612.121   200920199.782   155364240.433          36.700          40.800  
C03  37562602.352    37562603.078   195598327.879   151249033.281          38.700          41.400  
C02  39042698.547    39042698.727   203305601.460   157208768.763          35.800          39.100  
C01  38118255.813    38118257.336   198491754.512   153486425.631          37.900          41.300  
C30  22110263.961                   115133941.514                          48.800                  
C29  22480910.906                   117064000.715                          47.200                  
C20  24396176.922                   127037297.565                          44.800                  
C13  39005754.805    39005763.668   203113202.790   157060047.765          40.300          40.200  
> 2025 04 10 06 37 40.0000000  0 31
G22  22178693.883    22178701.063                   116549817.517    90818069.292                          46.300          33.200                  
G03  22496779.703                    22496789.949   118221367.092                    92120589.778          41.600                          43.900  
G04  23597708.664                    23597720.996   124006806.436                    96628730.019          40.100                          43.100  
G19  19962613.039    19962616.906                   104904238.715    81743578.372                          46.800          42.000                  
G06  21183434.234                    21183443.625   111319696.396                    86742646.007          46.800                          48.200  
G12  24244759.219                    24244769.145   127407076.136                    99278286.463          37.600                          37.100  
G09  23863181.133                    23863196.711   125401883.551                    97715832.839          39.700                          42.500  
G17  20825575.383                    20825582.602   109439138.300                    85277278.232          46.400                          47.400  
G14  23100035.672                    23100048.496   121391502.253                    94590800.341          40.100                          42.500  
G11  23499708.438                    23499717.457   123491792.127                    96227408.397          43.900                          44.700  
R01  21156744.289    21156742.656                                   113094913.223   113094907.231                                          42.900          41.700                                  
R02  21084310.164    21084308.609    21084318.520    21084318.520   112509921.326   112509913.322    87507708.867    87507714.878          46.700          45.300          47.000          46.600  
R16  21609513.211    21609512.988    21609522.672    21609522.828   115434199.651   115434137.650    89782104.618    89782111.622          44.100          43.200          46.300          46.700  
R24  21832882.891    21832882.660    21832892.695    21832892.852   116750230.874   116750221.891    90805728.560    90805734.556          42.800          41.500          44.500          44.200  
R15  21665701.820    21665701.230    21665711.715    21665711.406   115774936.668   115774918.658    90047160.625    90047165.630          45.600          44.100          45.300          46.200  
R17  19824464.555    19824463.148    19824471.684    19824471.547   106084716.205   106084694.212    82510325.515    82510330.519          48.100          47.800          48.600          48.800  
R18  21729898.109    21729897.738    21729906.449    21729906.387   115995675.159   115995663.172    90218848.545    90218852.534          43.300          42.600          46.200          46.700  
E13  26240660.500    26240671.242    26240669.367    26240671.637   137895596.632   102973965.396   105660242.621   104317101.115          41.800          43.900          45.900          50.600  
E15  23556922.086    23556929.910    23556928.082    23556930.340   123792460.620    92442399.943    94853940.352    93648178.251          48.200          48.000          49.300          55.500  
E21  26699446.148    26699454.031    26699452.484    26699454.852   140306531.508   104774335.060   107507579.275   106140953.773          41.500          42.600          44.600          49.500  
E27  24384237.875    24384245.395    24384243.707    24384245.672   128140032.820    95688968.983    98185203.365    96937079.779          47.400          47.400          49.300          54.800  
E30  26207958.703    26207969.434    26207967.277    26207969.859   137723748.428   102845638.908   105528569.427   104187092.775          43.700          44.000          45.200          50.400  
E05  25591509.367    25591521.000    25591519.594    25591521.344   134484295.305   100426577.270   103046401.428   101736468.956          38.700          39.400          41.200          45.900  
C04  38584036.930    38584036.805   200917205.493   155361925.055          37.200          41.700  
C03  37562050.680    37562051.180   195595454.694   151246811.545          38.500          42.400  
C02  39042132.070    39042131.691   203302649.300   157206485.961          36.000          39.400  
C01  38117711.031    38117712.910   198488919.102   153484233.112          38.600          41.300  
C30  22110699.945                   115136213.862                          48.700                  
C29  22478871.805                   117053382.771                          47.300                  
C20  24392671.500                   127019042.445                          44.300                  
C13  39004053.250    39004061.684   203104340.881   157053195.180          39.900          39.800  
> 2025 04 10 06 37 45.0000000  0 31
G22  22180621.414    22180628.543                   116559946.650    90825962.109                          45.800          32.700                  
G03  22499152.508                    22499162.988   118233837.403                    92130306.889          40.800                          43.300  
G04  23595375.656                    23595387.086   123994544.466                    96619175.253          39.400                          41.100  
G19  19961299.594    19961303.500                   104897335.242    81738199.035                          47.300          42.100                  
G06  21181704.875                    21181715.234   111310610.871                    86735566.389          46.700                          47.600  
G12  24241517.109                    24241526.621   127390035.037                    99265007.720          35.600                          36.800  
G09  23859827.344                    23859842.969   125384256.877                    97702097.872          39.800                          43.000  
G17  20826010.469                    20826017.414   109441423.845                    85279059.166          46.300                          47.100  
G14  23102939.063                    23102952.180   121406759.125                    94602688.778          40.600                          42.300  
G11  23496734.125                    23496743.582   123476165.192                    96215231.561          43.200                          44.500  
R01  21157202.688    21157202.344                                   113097368.622   113097362.631                                          42.800          41.600                                  
R02  21081164.719    21081162.344    21081172.590    21081172.879   112493135.417   112493127.413    87494653.196    87494659.208          47.500          45.800          46.900          47.000  
R16  21608616.625    21608614.996    21608624.430    21608624.332   115429401.330   115429339.344    89778372.604    89778379.614          45.100          44.400          46.300          47.800  
R24  21834591.484    21834591.371    21834601.316    21834601.203   116759369.709   116759360.739    90812836.538    90812842.535          43.600          42.100          45.500          45.900  
R15  21668161.930    21668160.988    21668171.605    21668171.133   115788081.713   115788063.705    90057384.530    90057389.549          45.500          43.900          45.300          45.500  
R17  19823729.523    19823728.707    19823736.758    19823736.297   106080785.164   106080763.163    82507268.030    82507273.034          49.100          48.100          48.800          49.100  
R18  21727162.594    21727160.465    21727169.188    21727169.012   115981064.799   115981052.788    90207484.940    90207488.943          44.400          43.800          46.400          46.600  
E13  26238304.219    26238315.563    26238313.172    26238315.504   137883214.641   102964719.116   105650755.126   104307734.231          41.000          43.600          45.200          50.600  
E15  23556317.234    23556325.121    23556323.293    23556325.660   123789282.599    92440026.741    94851505.244    93645774.102          48.800          48.400          49.800          55.600  
E21  26697080.242    26697087.488    26697086.645    26697088.719   140294098.807   104765050.916   107498052.925   106131548.525          42.400          42.100          44.500          49.100  
E27  24384404.523    24384412.309    24384410.523    24384412.730   128140909.599    95689623.714    98185875.178    96937743.054          47.700          47.300          48.800          54.500  
E30  26210196.203    26210207.008    26210204.898    26210207.465   137735505.765   102854418.695   105537578.259   104195987.091          43.600          44.400          46.000          51.000  
E05  25589932.023    25589943.938    25589942.484    25589944.391   134476008.442   100420389.058   103040051.796   101730200.035          39.600          39.400          41.900          46.400  
C04  38583462.008    38583462.148   200914211.107   155359609.620          37.300          41.400  
C03  37561498.188    37561499.402   195592581.416   151244589.751          38.300          41.600  
C02  39041565.547    39041564.605   203299696.960   157204203.026          35.800          39.000  
C01  38117166.633    38117167.734   198486083.511   153482040.454          38.100          41.700  
C30  22111137.633                   115138492.303                          48.700                  
C29  22476833.367                   117042769.063                          47.000                  
C20  24389167.055                   127000792.828                          44.900                  
C13  39002351.820    39002360.441   203095481.602   157046344.657          40.200          39.500  
> 2025 04 10 06 37 50.0000000  0 31
G22  22182550.539    22182557.488                   116570085.648    90833862.620                          44.900          32.300                  
G03  22501527.117                    22501538.078   118246317.225                    92140031.421          40.500                          43.000  
G04  23593044.719                    23593056.051   123982292.965                    96609628.653          39.400                          42.500  
G19  19959987.898    19959992.516                   104890443.525    81732828.870                          47.200          42.000                  
G06  21179977.891                    21179988.109   111301533.178                    86728492.852          46.600                          47.800  
G12  24238275.664                    24238286.453   127373004.788                    99251737.414          35.200                          37.600  
G09  23856473.414                    23856488.754   125366634.099                    97688365.920          38.700                          42.600  
G17  20826447.703                    20826454.703   109443719.390                    85280847.908          46.500                          46.600  
G14  23105842.828                    23105856.121   121422020.351                    94614580.572          39.900                          42.600  
G11  23493761.461                    23493770.715   123460542.788                    96203058.276          43.400                          44.100  
R01  21157666.938    21157665.891                                   113099846.419   113099840.421                                          43.800          41.500                                  
R02  21078020.922    21078019.953    21078030.563    21078030.828   112476366.183   112476358.172    87481610.468    87481616.479          47.200          45.300          46.900          47.300  
R16  21607720.977    21607720.754    21607730.914    21607730.574   115424625.542   115424563.534    89774658.115    89774665.112          44.100          43.300          46.800          47.800  
R24  21836301.445    21836301.098    21836311.766    21836311.441   116768512.965   116768503.973    90819947.938    90819953.943          44.900          43.000          45.400          46.300  
R15  21670623.648    21670623.531    21670634.094    21670633.910   115801239.908   115801221.913    90067618.665    90067623.669          45.200          43.800          45.200          45.600  
R17  19822996.531    19822995.008    19823002.977    19823002.949   106076861.758   106076839.764    82504216.492    82504221.487          49.300          47.600          48.500          49.500  
R18  21724424.516    21724424.379    21724433.316    21724433.461   115966457.966   115966445.956    90196124.086    90196128.090          43.700          43.100          46.700          46.800  
E13  26235948.883    26235960.121    26235957.445    26235959.813   137870836.147   102955475.457   105641270.325   104298369.998          42.000          44.000          45.300          50.600  
E15  23555713.641    23555721.367    23555719.676    23555721.824   123786109.693    92437657.364    94849074.057    93643373.816          48.800          48.200          49.500          55.700  
E21  26694716.445    26694723.457    26694722.332    26694724.727   140281674.862   104755773.278   107488533.281   106122149.888          43.100          42.300          44.900          49.500  
E27  24384573.852    24384581.313    24384579.625    24384581.738   128141798.336    95690287.382    98186556.157    96938415.378          47.300          47.300          48.500          54.500  
E30  26212433.961    26212445.199    26212443.230    26212445.754   137747267.891   102863202.081   105546590.776   104204885.036          41.800          44.600          46.300          50.900  
E05  25588357.547    25588369.348    25588367.379    25588369.504   134467731.855   100414208.495   103033710.002   101723938.857          40.200          40.100          42.000          46.700  
C04  38582886.859    38582887.188   200911216.926   155357294.336          37.300          41.000  
C03  37560947.133    37560947.602   195589708.286   151242368.078          38.400          41.700  
C02  39040997.922    39040997.813   203296744.636   157201920.113          35.400          39.900  
C01  38116621.859    38116623.719   198483248.085   153479847.923          38.100          42.000  
C30  22111576.484                   115140777.114                          48.500                  
C29  22474796.242                   117032159.842                          47.000                  
C20  24385662.859                   126982549.032                          44.000                  
C13  39000650.594    39000659.895   203086625.296   157039496.424          39.700          39.900  
> 2025 04 10 06 37 55.0000000  0 31
G22  22184481.891    22184488.887                   116580234.189    90841770.567                          44.900          33.300                  
G03  22503903.883                    22503914.664   118258806.137                    92149763.026          41.200                          43.400  
G04  23590713.984                    23590726.191   123970051.713                    96600090.063          38.000                          41.800  
G19  19958679.438    19958682.586                   104883563.380    81727467.726                          48.000          41.700                  
G06  21178252.023                    21178262.051   111292463.008                    86721425.206          46.600                          48.300  
G12  24235038.445                    24235047.813   127355985.210                    99238475.368          37.600                          37.000  
G09  23853120.164                    23853135.465   125349014.931                    97674636.790          39.200                          41.600  
G17  20826885.906                    20826892.910   109446024.671                    85282644.228          46.400                          46.800  
G14  23108747.719                    23108760.594   121437285.696                    94626475.608          40.200                          42.800  
G11  23490788.875                    23490798.797   123444924.590                    96190888.271          42.900                          44.600  
R01  21158134.945    21158132.961                                   113102346.290   113102340.313                                          43.400          41.400                                  
R02  21074881.375    21074880.641    21074891.223    21074891.551   112459612.975   112459604.971    87468580.219    87468586.229          46.600          44.600          46.800          47.900  
R16  21606832.039    21606831.582    21606840.875    21606840.234   115419871.959   115419809.972    89770960.871    89770967.868          45.900          44.100          46.700          47.800  
R24  21838013.023    21838011.621    21838022.250    21838021.633   116777660.410   116777651.436    90827062.599    90827068.597          44.600          42.900          45.600          46.300  
R15  21673088.641    21673088.285    21673098.613    21673098.813   115814411.162   115814393.165    90077862.982    90077867.972          43.800          43.300          45.300          45.700  
R17  19822264.492    19822263.086    19822271.699    19822271.383   106072945.626   106072923.640    82501170.616    82501175.626          49.000          47.900          48.300          49.200  
R18  21721689.750    21721688.559    21721697.770    21721697.316   115951854.429   115951842.427    90184765.799    90184769.804          43.900          42.900          46.700          46.700  
E13  26233594.148    26233604.598    26233602.582    26233604.930   137858460.983   102946234.289   105631788.074   104289008.286          42.400          44.000          45.700          50.500  
E15  23555110.695    23555118.371    23555116.730    23555118.941   123782941.592    92435291.575    94846646.552    93640977.171          48.600          48.200          49.800          55.600  
E21  26692353.141    26692360.438    26692359.402    26692362.105   140269259.491   104746502.068   107479020.200   106112757.740          42.300          42.100          44.500          49.100  
E27  24384745.164    24384752.676    24384750.988    24384753.094   128142698.736    95690959.745    98187246.060    96939096.513          47.000          48.000          49.200          54.700  
E30  26214673.164    26214684.480    26214682.465    26214684.867   137759034.595   102871988.882   105555606.799   104213786.447          42.800          44.000          46.200          51.000  
E05  25586784.695    25586796.434    25586794.277    25586796.281   134459465.266   100408035.402   103027375.866   101717685.242          39.300          40.400          41.900          46.600  
C04  38582312.414    38582312.313   200908222.751   155354979.036          36.900          41.000  
C03  37560394.953    37560395.871   195586835.045   151240146.292          38.600          41.700  
C02  39040430.680    39040430.645   203293792.125   157199637.035          36.300          39.600  
C01  38116076.906    38116079.176   198480412.563   153477655.321          37.500          41.900  
C30  22112016.328                   115143067.989                          48.400                  
C29  22472759.711                   117021554.893                          47.500                  
C20  24382160.398                   126964310.777                          43.800                  
C13  38998949.891    38998959.898   203077771.604   157032650.201          40.000          40.100  
> 2025 04 10 06 38  0.0000000  0 31
G22  22186415.039    22186422.527                   116590391.694    90849685.496                          44.500          32.300                  
G03  22506281.836                    22506293.004   118271303.690                    92159501.360          42.300                          44.700  
G04  23588387.156                    23588398.445   123957820.108                    96590558.972          39.800                          41.300  
G19  19957372.086    19957375.883                   104876694.270    81722115.158                          47.800          41.500                  
G06  21176527.125                    21176537.102   111283399.871                    86714363.015          46.400                          48.600  
G12  24231801.453                    24231810.254   127338975.726                    99225221.262          38.300                          37.600  
G09  23849768.156                    23849783.402   125331398.906                    97660910.104          38.900                          42.200  
G17  20827326.391                    20827333.266   109448339.184                    85284447.722          46.300                          47.100  
G14  23111653.484                    23111666.719   121452554.585                    94638373.420          39.200                          42.600  
G11  23487817.828                    23487827.023   123429310.108                    96178721.146          42.400                          43.200  
R01  21158604.383    21158604.391                                   113104867.692   113104861.694                                          43.100          41.600                                  
R02  21071744.648    21071744.387    21071754.500    21071754.324   112442875.463   112442867.468    87455562.181    87455568.184          46.800          44.800          47.500          47.600  
R16  21605947.094    21605945.934    21605954.855    21605954.801   115415140.192   115415078.198    89767280.602    89767287.605          45.800          44.200          46.500          47.400  
R24  21839724.117    21839722.949    21839733.953    21839733.285   116786811.477   116786802.480    90834180.074    90834186.086          43.800          42.400          44.800          46.300  
R15  21675554.961    21675555.078    21675565.223    21675565.551   115827594.836   115827576.869    90088116.942    90088121.931          43.900          42.600          44.100          44.600  
R17  19821534.023    19821533.090    19821540.871    19821540.523   106069036.236   106069014.234    82498129.986    82498134.989          49.000          47.900          48.200          48.300  
R18  21718953.383    21718953.129    21718962.633    21718962.191   115937253.665   115937241.668    90173409.667    90173413.671          43.700          42.400          46.200          46.600  
E13  26231239.430    26231250.402    26231247.543    26231250.520   137846088.526   102936995.129   105622307.886   104279648.612          41.800          43.700          44.900          50.200  
E15  23554508.703    23554516.246    23554514.699    23554516.793   123779777.750    92432928.965    94844222.312    93638583.743          48.300          48.200          49.600          55.500  
E21  26689992.016    26689999.758    26689998.352    26690000.898   140256852.021   104737236.754   107469513.186   106103371.575          43.000          42.000          44.200          49.000  
E27  24384918.836    24384926.023    24384924.145    24384926.512   128143610.256    95691640.419    98187944.492    96939786.063          47.100          47.600          49.000          54.500  
E30  26216913.117    26216924.117    26216922.055    26216924.656   137770805.295   102880778.643   105564625.863   104222690.862          42.700          44.200          46.200          50.900  
E05  25585212.828    25585225.168    25585223.012    25585225.020   134451208.113   100401869.362   103021048.988   101711438.784          38.600          40.700          42.200          46.600  
C04  38581736.656    38581736.375   200905227.943   155352663.280          37.500          41.700  
C03  37559843.266    37559844.039   195583961.197   151237924.056          38.100          41.700  
C02  39039863.586    39039863.684   203290838.855   157197353.386          36.800          39.700  
C01  38115533.172    38115534.484   198477576.434   153475462.240          38.600          42.600  
C30  22112457.297                   115145364.440                          48.800                  
C29  22470723.508                   117010953.669                          48.100                  
C20  24378658.484                   126946077.555                          43.300                  
C13  38997250.648    38997259.953   203068920.079   157025805.640          40.700          39.900  
> 2025 04 10 06 38  5.0000000  0 31
G22  22188349.219    22188357.207                   116600559.197    90857608.201                          44.500          32.200                  
G03  22508662.297                    22508672.918   118283810.730                    92169247.085          40.900                          44.200  
G04  23586061.359                    23586073.188   123945599.260                    96581036.288          39.200                          43.000  
G19  19956067.320    19956071.066                   104869837.087    81716771.896                          47.800          41.700                  
G06  21174804.211                    21174814.215   111274344.693                    86707307.053          46.700                          48.600  
G12  24228567.188                    24228575.551   127321977.393                    99211975.823          38.900                          39.200  
G09  23846416.453                    23846432.453   125313786.935                    97647186.566          38.800                          42.600  
G17  20827768.859                    20827775.445   109450663.830                    85286259.122          47.000                          46.800  
G14  23114560.773                    23114573.047   121467828.061                    94650274.757          40.300                          41.700  
G11  23484847.336                    23484856.949   123413700.329                    96166557.693          43.000                          43.500  
R01  21159081.703    21159081.008                                   113107411.598   113107405.606                                          43.400          42.100                                  
R02  21068611.641    21068610.906    21068621.105    21068621.227   112426154.630   112426146.633    87442557.094    87442563.104          46.300          45.000          46.900          48.000  
R16  21605063.680    21605064.750    21605073.074    21605073.551   115410431.212   115410369.227    89763618.073    89763625.084          45.000          43.400          46.500          47.500  
R24  21841436.148    21841434.863    21841445.770    21841445.086   116795967.090   116795958.089    90841301.092    90841307.104          44.200          42.400          45.100          46.200  
R15  21678025.289    21678024.348    21678034.949    21678034.680   115840792.094   115840774.107    90098381.473    90098386.462          43.500          42.700          44.800          45.400  
R17  19820805.086    19820803.563    19820811.727    19820811.402   106065134.646   106065112.646    82495095.403    82495100.407          49.000          47.200          48.500          48.500  
R18  21716219.461    21716219.207    21716227.684    21716227.820   115922656.681   115922644.678    90162056.458    90162060.455          44.500          43.000          47.000          46.700  
E13  26228885.867    26228896.305    26228893.680    26228896.746   137833719.763   102927758.710   105612830.521   104270291.724          42.300          43.500          45.300          50.400  
E15  23553907.516    23553915.414    23553913.539    23553915.867   123776619.169    92430570.287    94841802.104    93636194.300          48.300          48.300          49.800          55.600  
E21  26687632.680    26687640.996    26687639.496    26687641.832   140244453.638   104727978.225   107460013.129   106093992.286          43.400          42.600          44.300          49.400  
E27  24385094.578    24385101.938    24385099.969    24385102.457   128144533.925    95692330.160    98188652.224    96940484.799          47.000          47.700          48.800          54.500  
E30  26219154.008    26219165.188    26219163.500    26219165.637   137782581.020   102889572.177   105573648.804   104231599.097          42.300          43.900          46.300          50.900  
E05  25583642.523    25583655.543    25583653.574    25583655.805   134442961.287   100395711.067   103014730.028   101705200.155          39.000          39.700          41.600          46.300  
C04  38581162.141    38581161.715   200902233.586   155350347.834          37.800          41.400  
C03  37559291.344    37559291.789   195581087.688   151235702.079          38.900          42.100  
C02  39039296.820    39039296.930   203287885.756   157195069.877          35.800          40.100  
C01  38114988.289    38114989.793   198474740.652   153473269.454          38.800          42.200  
C30  22112899.602                   115147667.447                          48.900                  
C29  22468688.656                   117000357.101                          47.300                  
C20  24375158.016                   126927850.368                          43.400                  
C13  38995551.547    38995559.871   203060071.612   157018963.471          40.500          39.900  
> 2025 04 10 06 38 10.0000000  0 31
G22  22190285.977    22190293.945                   116610736.959    90865538.901                          44.500          32.000                  
G03  22511043.625                    22511054.848   118296327.665                    92179000.531          41.100                          44.800  
G04  23583738.117                    23583749.566   123933389.389                    96571522.087          39.400                          42.700  
G19  19954764.016    19954768.020                   104862992.259    81711438.264                          47.500          41.200                  
G06  21173082.461                    21173092.621   111265297.888                    86700257.586          46.400                          48.000  
G12  24225334.602                    24225343.547   127304990.472                    99198739.289          38.800                          39.400  
G09  23843065.570                    23843082.020   125296179.490                    97633466.561          38.600                          43.200  
G17  20828213.086                    20828220.273   109452999.025                    85288078.761          46.800                          46.800  
G14  23117467.313                    23117480.359   121483106.354                    94662179.901          39.600                          41.800  
G11  23481877.906                    23481887.059   123398095.605                    96154398.201          42.400                          43.700  
R01  21159560.891    21159561.484                                   113109978.629   113109972.645                                          43.800          42.100                                  
R02  21065481.383    21065480.414    21065490.125    21065490.219   112409450.825   112409442.822    87429565.281    87429571.292          46.400          45.800          47.000          47.200  
R16  21604187.477    21604187.371    21604195.602    21604196.199   115405745.192   115405683.205    89759973.387    89759980.397          43.500          43.400          46.100          47.500  
R24  21843148.555    21843147.855    21843158.984    21843158.594   116805127.711   116805118.727    90848426.014    90848432.018          43.600          42.500          45.500          46.600  
R15  21680497.430    21680496.371    21680507.063    21680506.840   115854003.043   115853985.039    90108656.650    90108661.655          44.100          42.500          44.300          44.800  
R17  19820077.563    19820076.629    19820084.652    19820084.309   106061241.074   106061219.059    82492067.074    82492072.069          49.200          47.900          48.600          49.700  
R18  21713484.391    21713485.430    21713494.344    21713494.113   115908063.791   115908051.765    90150706.442    90150710.445          43.000          42.600          46.700          46.700  
E13  26226532.984    26226543.352    26226540.773    26226543.863   137821354.992   102918525.293   105603356.237   104260937.874          41.600          44.100          45.100          50.400  
E15  23553307.789    23553315.262    23553313.715    23553315.895   123773466.185    92428215.785    94839386.178    93633809.086          48.300          48.200          49.600          55.700  
E21  26685274.680    26685282.859    26685281.641    26685284.016   140232064.486   104718726.595   107450520.143   106084619.978          42.100          42.100          43.500          49.000  
E27  24385272.375    24385280.078    24385278.199    24385280.543   128145470.002    95693029.170    98189369.470    96941192.927          47.600          47.800          48.800          54.500  
E30  26221396.133    26221406.934    26221405.246    26221407.387   137794362.016   102898369.663   105582675.789   104240511.336          42.400          44.800          46.300          51.400  
E05  25582076.953    25582088.074    25582086.105    25582088.605   134434725.349   100389560.820   103008419.343   101698969.692          38.900          40.800          41.700          46.900  
C04  38580587.078    38580586.820   200899239.907   155348032.939          37.800          40.900  
C03  37558739.828    37558740.504   195578214.846   151233480.615          38.600          42.300  
C02  39038729.320    39038729.332   203284933.208   157192786.777          36.100          40.000  
C01  38114443.922    38114445.793   198471905.502   153471077.143          38.400          42.100  
C30  22113343.453                   115149977.310                          48.200                  
C29  22466654.984                   116989765.596                          47.500                  
C20  24371659.016                   126909629.576                          43.800                  
C13  38993853.039    38993861.250   203051226.547   157012123.915          40.200          39.200  
> 2025 04 10 06 38 15.0000000  0 31
G22  22192224.664    22192232.820                   116620923.657    90873476.558                          44.800          32.300                  
G03  22513427.688                    22513438.512   118308853.154                    92188760.632          40.100                          45.400  
G04  23581415.375                    23581427.555   123921189.327                    96562015.579          38.400                          43.200  
G19  19953463.883    19953467.906                   104856158.485    81706113.247                          47.700          41.300                  
G06  21171362.141                    21171372.051   111256258.058                    86693213.567          46.500                          47.800  
G12  24222102.617                    24222112.656   127288013.726                    99185510.640          37.500                          39.400  
G09  23839715.688                    23839731.617   125278575.156                    97619748.980          39.200                          43.300  
G17  20828659.180                    20828666.238   109455343.408                    85289905.561          46.700                          47.000  
G14  23120375.891                    23120388.258   121498388.142                    94674087.725          38.800                          42.200  
G11  23478909.070                    23478918.832   123382494.573                    96142241.574          42.600                          44.000  
R01  21160046.766    21160046.070                                   113112567.073   113112561.096                                          42.600          42.200                                  
R02  21062354.844    21062352.469    21062362.617    21062362.508   112392762.534   112392754.530    87416585.502    87416591.513          46.700          45.600          47.400          47.700  
R16  21603313.336    21603313.113    21603322.598    21603322.809   115401080.921   115401018.928    89756345.643    89756352.633          43.900          43.100          46.500          47.200  
R24  21844862.789    21844862.324    21844872.738    21844872.195   116814291.930   116814282.961    90855553.713    90855559.709          43.200          42.400          45.000          46.300  
R15  21682972.039    21682971.566    21682982.238    21682982.203   115867226.327   115867208.325    90118941.396    90118946.401          43.600          42.600          44.600          45.300  
R17  19819350.719    19819350.137    19819358.098    19819357.746   106057354.268   106057332.287    82489044.011    82489049.008          49.400          47.900          48.900          49.300  
R18  21710751.633    21710752.320    21710761.418    21710761.051   115893473.705   115893461.672    90139358.596    90139362.592          41.700          42.200          46.700          47.300  
E13  26224180.328    26224190.895    26224188.504    26224191.480   137808992.995   102909293.949   105593884.067   104251586.114          41.800          43.600          45.300          50.200  
E15  23552708.398    23552716.078    23552714.578    23552716.734   123770317.448    92425864.455    94836973.507    93631427.091          48.800          48.000          50.200          55.600  
E21  26682918.313    26682926.953    26682925.496    26682927.969   140219683.426   104709481.001   107441033.354   106075253.786          42.600          42.100          44.200          49.100  
E27  24385452.391    24385460.246    24385458.465    24385460.781   128146417.211    95693736.498    98190095.254    96941909.484          47.100          47.000          48.800          54.400  
E30  26223638.961    26223649.656    26223648.250    26223650.234   137806147.032   102907170.127   105591705.832   104249426.583          42.400          44.200          47.100          51.400  
E05  25580511.391    25580522.102    25580520.039    25580522.965   134426498.729   100383417.632   103002115.882   101692746.368          40.200          40.500          41.500          46.600  
C04  38580012.492    38580011.621   200896245.682   155345717.609          37.700          40.400  
C03  37558187.430    37558188.711   195575341.376   151231258.676          38.600          41.800  
C02  39038162.531    39038162.434   203281979.965   157190503.141          35.500          39.700  
C01  38113899.109    38113901.184   198469069.771   153468884.376          37.900          41.800  
C30  22113787.953                   115152292.719                          49.100                  
C29  22464621.203                   116979177.817                          47.300                  
C20  24368160.828                   126891413.794                          43.900                  
C13  38992155.383    38992163.055   203042383.631   157005286.030          40.900          39.900  
> 2025 04 10 06 38 20.0000000  0 31
G22  22194165.102    22194173.422                   116631119.611    90881421.439                          44.800          32.900                  
G03  22515812.078                    22515823.371   118321387.469                    92198527.625          40.300                          45.400  
G04  23579095.859                    23579108.418   123908999.293                    96552516.860          38.900                          43.000  
G19  19952165.898    19952169.281                   104849336.073    81700797.082                          47.800          41.700                  
G06  21169643.711                    21169653.594   111247225.573                    86686175.270          47.000                          48.300  
G12  24218874.867                    24218884.102   127271047.482                    99172290.189          37.100                          38.900  
G09  23836366.180                    23836382.098   125260974.259                    97606034.067          39.100                          44.100  
G17  20829107.484                    20829114.305   109457697.387                    85291739.818          46.300                          47.000  
G14  23123284.828                    23123297.324   121513673.850                    94685998.614          40.200                          41.700  
G11  23475941.242                    23475950.828   123366897.594                    96130088.075          43.000                          44.500  
R01  21160534.828    21160534.016                                   113115177.370   113115171.363                                          42.400          41.900                                  
R02  21059229.859    21059228.539    21059238.453    21059238.824   112376090.455   112376082.459    87403618.353    87403624.363          46.600          45.700          47.100          46.500  
R16  21602444.367    21602443.910    21602454.184    21602454.523   115396438.758   115396376.773    89752735.060    89752742.063          44.000          42.800          46.400          47.400  
R24  21846577.555    21846577.090    21846586.969    21846586.613   116823460.037   116823451.040    90862684.446    90862690.441          43.900          42.400          44.900          45.000  
R15  21685449.586    21685448.293    21685459.027    21685459.230   115880462.223   115880444.221    90129235.946    90129240.951          45.000          43.600          45.900          46.400  
R17  19818626.164    19818624.523    19818632.816    19818632.387   106053474.597   106053452.596    82486026.478    82486031.488          48.900          47.600          48.500          49.500  
R18  21708020.656    21708019.934    21708028.832    21708027.754   115878886.726   115878874.716    90128013.177    90128017.182          44.100          43.100          46.900          47.400  
E13  26221828.438    26221839.117    26221837.004    26221839.777   137796634.033   102900064.866   105584414.223   104242236.654          41.400          43.400          45.500          50.300  
E15  23552109.719    23552117.824    23552115.949    23552118.223   123767173.284    92423516.546    94834564.348    93629048.556          48.300          48.200          49.500          55.700  
E21  26680564.609    26680572.797    26680571.391    26680573.539   140207310.666   104700241.612   107431552.944   106065893.885          42.800          42.200          44.500          49.400  
E27  24385635.219    24385642.570    24385640.648    24385642.988   128147375.864    95694452.372    98190829.804    96942634.696          47.400          47.500          48.200          54.400  
E30  26225882.078    26225893.074    26225891.715    26225893.621   137817936.301   102915973.770   105600739.144   104258345.067          43.200          44.200          46.600          51.300  
E05  25578946.438    25578958.902    25578956.512    25578959.422   134418281.942   100377281.707   102995819.901   101686530.411          39.400          40.700          41.400          46.600  
C04  38579436.867    38579436.715   200893251.147   155343402.054          37.500          40.500  
C03  37557636.148    37557636.539   195572467.584   151229036.476          38.700          41.100  
C02  39037595.023    39037595.074   203279026.278   157188219.170          35.500          39.100  
C01  38113354.750    38113356.430   198466233.697   153466691.339          38.500          42.100  
C30  22114233.805                   115154614.039                          48.800                  
C29  22462588.781                   116968594.084                          48.000                  
C20  24364663.680                   126873203.453                          44.500                  
C13  38990457.180    38990465.656   203033543.156   156998450.037          40.000          40.100  
> 2025 04 10 06 38 25.0000000  0 31
G22  22196107.328    22196115.090                   116641324.664    90889373.418                          46.000          33.600                  
G03  22518199.602                    22518210.359   118333930.471                    92208301.377          40.600                          44.200  
G04  23576778.445                    23576790.813   123896819.116                    96543025.842          39.400                          42.700  
G19  19950869.281    19950873.566                   104842524.861    81695489.636                          48.100          41.700                  
G06  21167925.883                    21167936.547   111238200.234                    86679142.539          46.700                          48.200  
G12  24215647.398                    24215657.480   127254091.535                    99159077.771          37.300                          39.400  
G09  23833017.148                    23833033.328   125243376.817                    97592321.880          39.100                          43.900  
G17  20829556.844                    20829564.289   109460060.724                    85293581.370          46.900                          46.700  
G14  23126194.516                    23126206.426   121528963.138                    94697912.288          39.900                          42.300  
G11  23472974.000                    23472983.348   123351304.466                    96117937.612          42.100                          44.900  
R01  21161026.344    21161026.000                                   113117809.423   113117803.438                                          43.600          41.600                                  
R02  21056108.180    21056106.977    21056116.820    21056117.406   112359434.336   112359426.326    87390663.608    87390669.611          46.400          45.100          47.100          47.100  
R16  21601580.414    21601579.137    21601589.320    21601589.156   115391818.535   115391756.549    89749141.523    89749148.528          45.300          43.200          46.200          47.700  
R24  21848292.078    21848292.199    21848302.102    21848302.141   116832631.953   116832622.927    90869818.158    90869824.154          42.800          41.800          44.500          44.600  
R15  21687929.656    21687928.832    21687938.938    21687938.438   115893710.704   115893692.700    90139540.310    90139545.308          45.500          43.900          45.700          45.600  
R17  19817902.547    19817901.141    19817909.148    19817908.750   106049601.760   106049579.750    82483014.277    82483019.281          48.500          47.600          48.800          49.800  
R18  21705288.227    21705288.090    21705296.953    21705296.492   115864302.689   115864290.702    90116670.033    90116674.036          43.800          43.000          47.000          47.900  
E13  26219476.633    26219488.148    26219485.613    26219488.500   137784277.886   102890837.883   105574946.551   104232889.327          41.600          43.700          45.500          50.400  
E15  23551512.664    23551520.465    23551518.777    23551520.922   123764033.558    92421171.942    94832158.587    93626673.373          48.400          47.800          49.200          55.600  
E21  26678211.547    26678220.020    26678218.004    26678220.645   140194946.123   104691008.370   107422078.830   106056540.209          42.600          42.600          44.000          49.400  
E27  24385819.727    24385827.559    24385825.449    24385827.867   128148345.797    95695176.661    98191572.988    96943368.432          47.900          47.400          48.300          54.400  
E30  26228126.313    26228137.266    26228135.672    26228137.723   137829729.736   102924780.538   105609775.646   104267266.698          43.200          44.000          46.600          51.200  
E05  25577385.164    25577397.203    25577395.000    25577397.609   134410074.787   100371152.980   102989531.284   101680321.745          39.800          39.900          40.900          46.000  
C04  38578862.039    38578861.535   200890256.195   155341086.169          37.800          40.900  
C03  37557084.133    37557084.645   195569593.321   151226813.927          38.500          41.500  
C02  39037027.375    39037027.934   203276071.906   157185934.664          35.700          38.400  
C01  38112809.813    38112811.645   198463397.176   153464497.966          37.700          41.200  
C30  22114681.023                   115156941.065                          48.600                  
C29  22460557.227                   116958014.231                          47.600                  
C20  24361167.758                   126854998.331                          43.700                  
C13  38988759.789    38988768.352   203024704.999   156991615.840          40.000          39.500  
> 2025 04 10 06 38 30.0000000  0 31
G22  22198051.000    22198058.391                   116651538.919    90897332.557                          45.600          33.700                  
G03  22520587.313                    22520599.152   118346482.200                    92218081.951          39.400                          44.300  
G04  23574462.680                    23574474.566   123884648.987                    96533542.673          40.000                          42.400  
G19  19949575.305    19949579.523                   104835724.938    81690190.996                          47.800          41.400                  
G06  21166209.883                    21166220.207   111229182.145                    86672115.462          47.100                          48.000  
G12  24212425.023                    24212432.648   127237146.030                    99145873.459          38.100                          38.600  
G09  23829669.313                    23829685.129   125225782.694                    97578612.264          39.000                          43.900  
G17  20830008.992                    20830015.375   109462433.484                    85295430.275          46.900                          47.600  
G14  23129104.055                    23129117.012   121544256.202                    94709828.900          40.200                          42.600  
G11  23470007.625                    23470017.094   123335715.283                    96105790.198          43.000                          44.100  
R01  21161523.992    21161522.594                                   113120463.125   113120457.142                                          43.400          42.100                                  
R02  21052989.875    21052988.320    21052998.563    21052998.797   112342794.086   112342786.067    87377721.193    87377727.204          46.300          45.200          47.400          47.800  
R16  21600719.922    21600718.410    21600727.953    21600727.898   115387220.208   115387158.208    89745565.046    89745572.051          45.800          44.300          46.800          48.100  
R24  21850007.594    21850006.777    21850017.539    21850017.121   116841807.705   116841798.692    90876954.852    90876960.849          41.600          40.600          44.200          45.100  
R15  21690410.852    21690410.145    21690420.566    21690420.020   115906971.698   115906953.711    90149854.407    90149859.405          45.400          44.600          45.900          46.600  
R17  19817180.500    19817178.391    19817186.684    19817186.391   106045735.971   106045713.962    82480007.546    82480012.558          49.800          48.100          48.400          49.400  
R18  21702557.828    21702556.754    21702565.781    21702564.625   115849721.692   115849709.682    90105329.263    90105333.267          44.300          43.500          47.000          47.600  
E13  26217126.211    26217137.137    26217135.070    26217137.469   137771924.705   102881613.142   105565481.146   104223544.244          41.600          43.600          45.300          50.100  
E15  23550916.086    23550923.625    23550922.031    23550924.180   123760898.311    92418830.686    94829756.251    93624301.574          48.600          48.800          50.000          55.600  
E21  26675860.398    26675868.777    26675866.996    26675869.383   140182589.792   104681781.247   107412610.998   106047192.729          42.400          42.700          44.600          49.500  
E27  24386006.359    24386014.121    24386012.246    24386014.523   128149327.088    95695909.434    98192324.884    96944110.766          47.700          47.800          49.200          54.500  
E30  26230371.695    26230382.020    26230380.707    26230382.621   137841527.355   102933590.430   105618815.363   104276191.500          43.900          44.000          46.500          51.200  
E05  25575825.602    25575837.859    25575835.375    25575837.625   134401877.320   100365031.536   102983250.141   101674120.444          38.100          40.700          42.600          46.800  
C04  38578287.219    38578286.633   200887260.903   155338770.012          37.100          41.300  
C03  37556532.070    37556532.508   195566718.648   151224591.038          38.600          42.000  
C02  39036461.109    39036460.422   203273117.050   157183649.777          35.500          39.100  
C01  38112265.250    38112266.945   198460560.219   153462304.259          38.000          41.700  
C30  22115128.539                   115159273.885                          49.200                  
C29  22458525.977                   116947438.392                          46.700                  
C20  24357672.602                   126836798.559                          43.800                  
C13  38987062.836    38987071.863   203015869.152   156984783.416          40.800          38.900  
> 2025 04 10 06 38 35.0000000  0 31
G22  22199997.117    22200004.281                   116661762.857    90905299.248                          46.000          33.200                  
G03  22522978.547                    22522989.512   118359043.269                    92227869.783          39.500                          43.800  
G04  23572148.672                    23572160.926   123872489.419                    96524067.710          40.000                          43.100  
G19  19948283.961    19948287.531                   104828936.881    81684901.596                          47.200          41.800                  
G06  21164495.289                    21164505.305   111220171.832                    86665094.442          47.300                          48.800  
G12  24209200.398                    24209210.629   127220211.476                    99132677.696          37.400                          38.200  
G09  23826321.984                    23826338.121   125208192.653                    97564905.817          38.400                          44.000  
G17  20830462.156                    20830468.500   109464816.290                    85297287.027          46.700                          46.800  
G14  23132015.117                    23132028.551   121559553.522                    94721748.836          40.100                          43.000  
G11  23467041.398                    23467050.785   123320130.628                    96093646.333          41.800                          43.800  
R01  21162024.664    21162023.031                                   113123139.136   113123133.152                                          43.300          42.100                                  
R02  21049874.469    21049872.797    21049883.578    21049883.398   112326170.413   112326162.411    87364791.705    87364797.717          47.400          45.400          47.700          48.100  
R16  21599862.844    21599862.152    21599871.215    21599870.977   115382644.555   115382582.563    89742006.223    89742013.234          45.500          43.700          46.300          47.600  
R24  21851725.609    21851723.852    21851734.574    21851734.563   116850987.857   116850978.832    90884094.933    90884100.929          43.800          40.900          44.200          45.200  
R15  21692894.703    21692894.938    21692905.453    21692904.375   115920245.942   115920227.970    90160178.815    90160183.833          45.300          43.900          45.900          46.500  
R17  19816458.211    19816457.512    19816465.891    19816465.582   106041877.595   106041855.601    82477006.583    82477011.588          48.800          47.300          48.500          49.200  
R18  21699825.586    21699825.215    21699834.801    21699833.938   115835144.241   115835132.230    90093991.272    90093995.270          43.700          43.000          46.200          47.900  
E13  26214776.688    26214787.246    26214785.559    26214787.523   137759575.056   102872391.010   105556018.446   104214201.837          41.700          43.900          45.700          50.600  
E15  23550320.531    23550327.836    23550326.336    23550328.543   123757768.103    92416493.198    94827357.781    93621933.594          48.700          47.700          49.200          55.600  
E21  26673510.563    26673519.059    26673517.277    26673519.641   140170242.340   104672560.760   107403149.980   106037851.979          42.600          43.000          44.400          49.700  
E27  24386195.422    24386203.258    24386201.570    24386203.637   128150320.233    95696651.068    98193085.856    96944862.069          47.400          47.500          48.800          54.500  
E30  26232617.852    26232628.250    26232626.891    26232628.836   137853329.708   102942403.857   105627858.705   104285119.889          44.700          43.900          46.500          51.300  
E05  25574266.156    25574279.430    25574277.836    25574279.457   134393690.034   100358917.699   102976976.814   101667926.862          37.600          41.000          42.700          47.200  
C04  38577711.328    38577711.426   200884265.775   155336453.998          37.200          41.400  
C03  37555980.023    37555980.941   195563844.134   151222368.286          38.800          41.700  
C02  39035892.438    39035892.816   203270162.288   157181364.979          36.100          38.800  
C01  38111720.211    38111721.906   198457723.439   153460110.683          37.900          41.500  
C30  22115577.531                   115161613.061                          48.800                  
C29  22456496.328                   116936867.010                          47.300                  
C20  24354178.977                   126818604.700                          44.900                  
C13  38985366.445    38985375.551   203007036.164   156977953.203          39.700          39.300  
> 2025 04 10 06 38 40.0000000  0 31
G22  22201943.992    22201951.504                   116671995.890    90913273.030                          45.600          32.300                  
G03  22525370.461                    22525381.246   118371612.973                    92237664.334          40.600                          44.100  
G04  23569837.688                    23569848.867   123860339.847                    96514600.545          40.200                          42.600  
G19  19946994.430    19946998.215                   104822160.038    81679620.948                          47.400          41.400                  
G06  21162782.273                    21162791.902   111211168.696                    86658079.012          46.700                          48.500  
G12  24205981.000                    24205989.535   127203287.313                    99119490.063          37.200                          38.800  
G09  23822975.250                    23822991.020   125190605.938                    97551201.979          39.000                          43.800  
G17  20830917.352                    20830924.117   109467208.527                    85299151.087          46.500                          47.200  
G14  23134926.930                    23134939.285   121574854.412                    94733671.552          39.500                          42.300  
G11  23464077.430                    23464086.402   123304549.861                    96081505.486          43.000                          44.700  
R01  21162528.297    21162527.133                                   113125836.932   113125830.934                                          43.600          42.400                                  
R02  21046761.883    21046760.797    21046771.207    21046771.086   112309562.662   112309554.689    87351874.594    87351880.611          46.300          44.600          47.700          48.100  
R16  21599011.039    21599009.293    21599018.797    21599018.828   115378090.673   115378028.700    89738464.341    89738471.353          44.200          44.100          46.000          47.700  
R24  21853443.234    21853441.949    21853451.844    21853452.129   116860171.730   116860162.741    90891237.942    90891243.946          44.500          42.300          44.600          44.600  
R15  21695381.133    21695380.777    21695391.359    21695390.707   115933532.496   115933514.508    90170512.771    90170517.782          45.400          43.800          46.400          47.000  
R17  19815738.820    19815737.535    19815745.957    19815745.309   106038026.192   106038004.199    82474011.043    82474016.048          48.300          47.400          48.900          48.500  
R18  21697095.352    21697094.277    21697103.621    21697102.953   115820569.756   115820557.745    90082655.578    90082659.581          42.200          42.100          47.300          46.800  
E13  26212427.117    26212437.234    26212435.734    26212437.887   137747228.304   102863171.052   105546557.958   104204861.616          41.900          44.100          45.400          50.600  
E15  23549725.469    23549733.324    23549731.543    23549733.883   123754642.327    92414159.011    94824962.707    93619568.966          47.900          47.900          50.000          55.600  
E21  26671162.266    26671170.883    26671169.289    26671171.406   140157903.036   104663346.362   107393695.203   106028517.389          41.400          43.100          44.300          49.600  
E27  24386386.719    24386394.176    24386392.348    24386394.656   128151324.715    95697401.155    98193855.518    96945621.941          47.500          47.400          48.600          54.400  
E30  26234864.555    26234874.805    26234873.445    26234875.270   137865136.182   102951220.354   105636905.197   104294051.383          43.100          43.400          45.700          51.000  
E05  25572710.836    25572723.586    25572721.992    25572723.695   134385512.468   100352811.078   102970710.896   101661740.596          37.600          41.400          42.700          47.500  
C04  38577136.555    38577136.090   200881270.289   155334137.696          37.500          40.400  
C03  37555428.188    37555428.656   195560969.154   151220145.162          38.700          41.800  
C02  39035324.773    39035325.117   203267206.886   157179079.666          35.400          39.200  
C01  38111175.664    38111177.496   198454886.204   153457916.759          38.300          41.500  
C30  22116028.000                   115163957.991                          49.600                  
C29  22454466.703                   116926299.574                          47.400                  
C20  24350685.945                   126800416.143                          45.400                  
C13  38983671.109    38983679.367   202998205.511   156971124.818          40.600          39.800  
> 2025 04 10 06 38 45.0000000  0 31
G22  22203893.352    22203899.805                   116682238.393    90921254.188                          45.700          33.400                  
G03  22527763.898                    22527774.793   118384191.756                    92247465.979          40.400                          44.000  
G04  23567527.180                    23567538.992   123848200.670                    96505141.471          40.800                          42.000  
G19  19945706.758    19945711.012                   104815394.842    81674349.362                          47.200          42.500                  
G06  21161070.188                    21161080.035   111202173.146                    86651069.504          47.000                          48.000  
G12  24202761.805                    24202771.391   127186373.997                    99106310.860          38.200                          38.900  
G09  23819629.313                    23819645.367   125173023.127                    97537501.162          39.100                          44.600  
G17  20831374.203                    20831381.281   109469610.548                    85301022.776          46.800                          47.100  
G14  23137840.531                    23137852.320   121590159.389                    94745597.448          40.800                          42.400  
G11  23461113.063                    23461121.918   123288973.420                    96069368.003          43.400                          43.900  
R01  21163036.094    21163035.164                                   113128556.760   113128550.782                                          43.300          41.100                                  
R02  21043653.281    21043652.664    21043662.301    21043661.930   112292971.438   112292963.449    87338970.305    87338976.322          46.300          44.700          47.500          47.600  
R16  21598161.969    21598161.277    21598170.832    21598170.488   115373559.254   115373497.280    89734939.899    89734946.897          45.200          43.800          46.100          47.100  
R24  21855161.758    21855159.531    21855169.809    21855170.164   116869359.828   116869350.848    90898384.263    90898390.267          44.600          42.800          44.600          45.000  
R15  21697869.805    21697868.395    21697879.887    21697879.383   115946832.048   115946814.055    90180856.844    90180861.840          44.900          43.600          46.700          47.000  
R17  19815020.195    19815019.613    19815027.605    19815027.566   106034182.153   106034160.159    82471021.248    82471026.252          48.400          47.300          48.800          48.500  
R18  21694366.578    21694365.035    21694374.141    21694373.852   115805998.705   115805986.695    90071322.543    90071326.539          43.600          42.400          46.700          47.000  
E13  26210078.609    26210088.316    26210086.816    26210088.859   137734884.855   102853953.565   105537100.003   104195523.892          41.500          44.600          45.700          50.500  
E15  23549131.711    23549139.328    23549137.594    23549139.898   123751521.393    92411828.445    94822571.342    93617208.000          48.300          48.600          49.800          55.700  
E21  26668815.867    26668824.461    26668822.633    26668825.066   140145572.452   104654138.460   107384247.098   106019189.388          42.100          43.300          44.000          49.900  
E27  24386580.055    24386588.066    24386586.004    24386588.297   128152340.904    95698159.989    98194634.152    96946390.676          47.200          47.500          49.300          54.800  
E30  26237112.227    26237122.691    26237121.051    26237123.098   137876947.202   102960040.250   105645955.180   104302986.321          43.600          43.700          46.700          51.200  
E05  25571158.078    25571169.258    25571167.242    25571169.441   134377345.033   100346712.022   102964452.737   101655561.985          39.600          41.600          43.400          47.800  
C04  38576560.680    38576560.363   200878274.812   155331821.382          37.400          40.900  
C03  37554876.266    37554876.262   195558094.146   151217922.034          38.700          41.700  
C02  39034758.172    39034757.582   203264251.358   157176794.258          35.500          39.000  
C01  38110631.039    38110631.957   198452048.926   153455722.808          38.300          41.400  
C30  22116479.578                   115166309.072                          48.400                  
C29  22452438.398                   116915736.497                          48.000                  
C20  24347193.922                   126782233.304                          45.300                  
C13  38981975.789    38981984.082   202989377.546   156964298.480          41.300          39.000  
> 2025 04 10 06 38 50.0000000  0 31
G22  22205843.398    22205850.867                   116692489.645    90929242.165                          45.300          32.700                  
G03  22530159.531                    22530169.844   118396778.835                    92257274.067          41.400                          44.000  
G04  23565218.164                    23565230.691   123836071.173                    96495689.926          39.900                          42.400  
G19  19944421.680    19944425.254                   104808640.574    81669086.298                          47.500          41.300                  
G06  21159359.930                    21159370.203   111193184.478                    86644065.353          47.000                          48.300  
G12  24199546.086                    24199553.828   127169470.785                    99093139.523          37.800                          38.400  
G09  23816284.367                    23816300.137   125155443.339                    97523802.699          40.200                          44.600  
G17  20831833.203                    20831840.109   109472021.643                    85302901.544          46.600                          47.200  
G14  23140752.758                    23140765.598   121605467.638                    94757525.902          38.400                          41.700  
G11  23458149.438                    23458158.738   123273400.591                    96057233.321          43.900                          43.300  
R01  21163550.266    21163548.281                                   113131297.926   113131291.941                                          43.100          42.000                                  
R02  21040547.492    21040546.055    21040555.332    21040555.176   112276395.837   112276387.841    87326078.212    87326084.223          46.800          45.300          47.700          47.200  
R16  21597318.156    21597317.465    21597326.539    21597326.684   115369049.336   115368987.337    89731432.154    89731439.160          45.100          43.800          46.800          47.700  
R24  21856881.102    21856879.109    21856889.035    21856889.059   116878551.394   116878542.410    90905533.206    90905539.210          44.000          42.700          44.200          45.400  
R15  21700359.586    21700358.996    21700370.660    21700370.551   115960143.583   115960125.587    90191210.246    90191215.244          43.900          42.300          45.900          46.400  
R17  19814303.680    19814302.273    19814310.613    19814310.133   106030344.756   106030322.770    82468036.600    82468041.604          49.000          47.600          48.900          48.000  
R18  21691636.000    21691634.340    21691643.828    21691643.914   115791430.264   115791418.276    90059991.551    90059995.561          44.100          42.300          46.400          46.000  
E13  26207730.219    26207740.121    26207738.105    26207740.332   137722543.922   102844737.947   105527643.980   104186188.072          42.600          43.600          45.200          50.500  
E15  23548538.625    23548546.289    23548544.410    23548546.750   123748404.553    92409500.936    94820183.112    93614850.132          48.600          48.200          49.400          55.600  
E21  26666471.320    26666479.344    26666477.938    26666480.145   140133249.760   104644936.481   107374805.059   106009867.372          42.100          43.500          44.400          49.800  
E27  24386775.750    24386783.164    24386781.617    24386783.648   128153368.043    95698927.008    98195421.173    96947167.695          48.000          47.100          48.700          54.500  
E30  26239360.430    26239370.742    26239369.148    26239371.066   137888762.002   102968862.978   105655008.054   104311924.123          43.700          43.500          46.200          50.600  
E05  25569604.289    25569617.031    25569614.313    25569616.902   134369186.813   100340619.885   102958201.677   101649390.389          39.100          41.500          42.400          47.200  
C04  38575985.211    38575985.305   200875278.565   155329504.517          37.100          40.900  
C03  37554323.461    37554323.844   195555218.353   151215698.279          38.100          41.800  
C02  39034190.266    39034189.828   203261294.988   157174508.207          35.800          39.200  
C01  38110085.047    38110087.211   198449210.857   153453528.237          38.100          41.700  
C30  22116932.234                   115168665.571                          48.700                  
C29  22450410.391                   116905177.009                          47.900                  
C20  24343703.266                   126764055.436                          44.600                  
C13  38980281.344    38980288.828   202980551.601   156957473.709          41.000          39.700  
> 2025 04 10 06 38 55.0000000  0 31
G22  22207796.203    22207802.918                   116702749.637    90937236.961                          45.100          33.500                  
G03  22532556.625                    22532567.184   118409374.255                    92267088.676          41.200                          43.900  
G04  23562911.992                    23562924.285   123823951.413                    96486245.977          39.200                          43.000  
G19  19943138.570    19943142.289                   104801897.325    81663831.812                          48.000          42.100                  
G06  21157650.297                    21157660.883   111184202.710                    86637066.566          47.100                          48.600  
G12  24196330.672                    24196339.941   127152577.636                    99079976.070          38.100                          39.200  
G09  23812939.438                    23812955.094   125137866.833                    97510106.834          38.800                          44.100  
G17  20832293.805                    20832300.398   109474441.850                    85304787.419          47.200                          47.700  
G14  23143666.430                    23143679.441   121620779.177                    94769456.913          39.500                          42.600  
G11  23455186.328                    23455195.824   123257831.357                    96045101.478          42.700                          43.700  
R01  21164067.008    21164065.609                                   113134060.482   113134054.490                                          42.900          41.800                                  
R02  21037443.234    21037442.383    21037452.176    21037452.063   112259835.927   112259827.924    87313198.278    87313204.289          47.500          45.000          47.300          47.700  
R16  21596479.617    21596477.520    21596485.410    21596485.938   115364561.123   115364499.130    89727941.288    89727948.284          46.300          44.300          46.200          46.600  
R24  21858598.703    21858597.652    21858608.766    21858608.133   116887746.436   116887737.444    90912684.911    90912690.908          44.100          42.400          45.100          45.800  
R15  21702853.641    21702854.227    21702865.238    21702864.605   115973467.306   115973449.327    90201573.118    90201578.114          44.600          43.400          46.000          45.800  
R17  19813588.266    19813586.625    19813594.625    19813594.305   106026514.134   106026492.140    82465057.213    82465062.209          49.400          47.600          48.600          49.000  
R18  21688907.734    21688907.246    21688915.816    21688915.871   115776864.586   115776852.597    90048662.696    90048666.692          43.600          42.400          45.900          46.800  
E13  26205382.133    26205392.422    26205390.688    26205392.680   137710205.717   102835524.362   105518190.053   104176854.314          42.100          44.400          45.300          50.600  
E15  23547946.211    23547953.879    23547952.141    23547954.477   123745291.876    92407176.535    94817798.071    93612495.410          48.200          48.000          49.600          55.500  
E21  26664127.789    26664136.039    26664134.586    26664136.742   140120935.093   104635740.449   107365369.137   106000551.397          41.700          42.600          44.600          49.600  
E27  24386973.359    24386980.602    24386979.008    24386981.098   128154406.227    95699702.260    98196216.653    96947953.063          48.200          47.800          48.900          54.500  
E30  26241608.859    26241619.762    26241618.215    26241620.121   137900580.624   102977688.555   105664063.851   104320864.810          43.600          43.300          46.200          50.600  
E05  25568053.469    25568066.277    25568064.402    25568066.598   134361038.036   100334534.755   102951957.811   101643225.886          38.900          41.300          43.100          47.800  
C04  38575410.461    38575409.699   200872281.677   155327187.120          37.300          41.300  
C03  37553770.633    37553771.660   195552341.822   151213473.973          38.300          42.200  
C02  39033621.820    39033622.258   203258337.709   157172221.457          35.900          39.900  
C01  38109540.406    38109542.078   198446372.080   153451333.119          38.100          41.900  
C30  22117385.914                   115171027.563                          48.500                  
C29  22448383.281                   116894621.176                          47.200                  
C20  24340213.031                   126745882.688                          44.100                  
C13  38978586.219    38978594.152   202971727.705   156950650.531          40.300          39.500  
> 2025 04 10 06 39  0.0000000  0 31
G22  22209750.523    22209757.594                   116713019.399    90945239.360                          45.500          33.800                  
G03  22534954.320                    22534965.484   118421978.945                    92276910.488          41.300                          43.000  
G04  23560607.063                    23560619.496   123811842.293                    96476810.327          39.700                          42.900  
G19  19941857.508    19941861.551                   104795165.997    81658586.628                          47.300          41.300                  
G06  21155942.656                    21155953.164   111175228.786                    86630073.903          46.100                          48.900  
G12  24193117.773                    24193127.348   127135695.659                    99066821.263          37.100                          39.200  
G09  23809595.578                    23809611.773   125120294.315                    97496414.039          38.300                          44.900  
G17  20832756.289                    20832763.059   109476872.114                    85306681.140          47.000                          47.200  
G14  23146581.305                    23146594.035   121636095.013                    94781391.286          40.300                          42.300  
G11  23452223.930                    23452233.660   123242266.703                    96032973.192          42.500                          44.100  
R01  21164588.555    21164586.219                                   113136845.391   113136839.376                                          43.900          42.000                                  
R02  21034343.133    21034342.871    21034352.699    21034352.938   112243292.817   112243284.822    87300331.450    87300337.461          47.600          45.600          47.000          47.300  
R16  21595643.117    21595642.074    21595649.984    21595650.180   115360095.528   115360033.527    89724468.054    89724475.065          45.800          44.800          46.300          46.800  
R24  21860319.875    21860319.762    21860330.055    21860329.672   116896945.916   116896936.964    90919840.020    90919846.031          42.300          40.500          44.900          45.600  
R15  21705349.820    21705348.527    21705359.859    21705359.297   115986803.971   115986785.997    90211946.056    90211951.053          46.000          44.400          46.200          46.400  
R17  19812872.922    19812871.871    19812880.004    19812879.887   106022691.030   106022669.050    82462083.683    82462088.680          49.400          47.900          48.900          49.400  
R18  21686179.438    21686178.715    21686188.281    21686187.832   115762302.593   115762290.604    90037336.706    90037340.709          43.600          41.300          46.500          47.000  
E13  26203035.148    26203045.211    26203043.102    26203045.348   137697870.978   102826313.381   105508738.766   104167523.185          42.200          44.200          45.600          50.500  
E15  23547354.844    23547362.469    23547360.688    23547363.047   123742184.278    92404855.924    94815416.925    93610144.532          48.500          48.300          50.100          55.600  
E21  26661786.289    26661794.477    26661792.973    26661795.227   140108629.283   104626551.039   107355940.010   105991242.130          42.100          42.600          45.500          49.800  
E27  24387173.094    24387180.668    24387178.887    24387181.063   128155456.339    95700486.418    98197021.269    96948747.450          47.400          47.600          48.900          54.400  
E30  26243858.844    26243869.984    26243868.012    26243869.992   137912404.013   102986517.682   105673123.323   104329809.113          43.800          43.800          46.500          51.000  
E05  25566506.000    25566516.949    25566515.684    25566517.777   134352899.629   100328457.451   102945721.964   101637069.314          39.500          39.100          40.500          45.700  
C04  38574834.711    38574833.930   200869285.029   155324869.920          37.400          40.700  
C03  37553218.609    37553219.375   195549465.544   151211249.855          38.300          42.500  
C02  39033054.320    39033053.926   203255380.543   157169934.790          35.400          39.200  
C01  38108994.523    38108997.199   198443533.516   153449138.157          37.300          42.300  
C30  22117840.492                   115173395.958                          48.200                  
C29  22446356.914                   116884069.963                          47.800                  
C20  24336724.555                   126727715.925                          44.900                  
C13  38976892.109    38976900.441   202962906.736   156943829.633          40.600          39.500  
> 2025 04 10 06 39  5.0000000  0 31
G22  22211706.266    22211713.598                   116723298.165    90953248.779                          46.000          32.900                  
G03  22537354.617                    22537365.703   118434592.184                    92286738.965          40.600                          43.200  
G04  23558305.734                    23558316.938   123799743.210                    96467382.517          39.900                          42.500  
G19  19940578.570    19940582.754                   104788445.906    81653350.187                          47.500          41.800                  
G06  21154236.125                    21154246.777   111166261.950                    86623086.771          47.200                          48.200  
G12  24189907.148                    24189916.941   127118824.088                    99053674.601          36.900                          38.800  
G09  23806252.047                    23806267.438   125102725.309                    97482723.994          37.400                          44.800  
G17  20833220.750                    20833227.531   109479311.775                    85308582.163          47.300                          46.600  
G14  23149496.773                    23149509.125   121651414.338                    94793328.374          40.000                          42.700  
G11  23449262.852                    23449272.559   123226705.881                    96020847.905          42.000                          44.300  
R01  21165113.266    21165112.102                                   113139651.883   113139645.877                                          44.300          42.700                                  
R02  21031246.805    21031245.133    21031255.078    21031255.129   112226765.683   112226757.680    87287477.014    87287483.017          46.400          45.000          47.300          47.000  
R16  21594809.703    21594810.066    21594818.359    21594818.508   115355651.813   115355589.834    89721011.841    89721018.853          45.100          44.700          46.500          47.300  
R24  21862040.742    21862040.980    21862050.410    21862049.984   116906149.109   116906140.142    90926998.037    90927004.043          44.000          43.200          45.000          45.300  
R15  21707848.492    21707846.965    21707858.500    21707857.320   116000153.063   116000135.083    90222328.643    90222333.639          45.400          44.000          45.300          46.300  
R17  19812160.164    19812159.230    19812167.152    19812166.629   106018874.786   106018852.799    82459115.508    82459120.504          48.900          48.000          49.200          49.200  
R18  21683451.570    21683450.145    21683461.160    21683460.383   115747743.457   115747731.453    90026012.948    90026016.952          43.300          42.200          46.800          47.900  
E13  26200688.383    26200698.508    26200696.633    26200698.820   137685539.117   102817104.516   105499289.675   104158194.207          42.300          43.900          45.700          50.500  
E15  23546764.477    23546772.105    23546770.324    23546772.551   123739081.045    92402538.566    94813039.118    93607796.947          48.800          48.500          50.000          55.600  
E21  26659445.641    26659453.984    26659452.625    26659454.836   140096331.712   104617367.833   107346517.220   105981939.132          41.500          42.400          44.900          49.800  
E27  24387375.109    24387382.574    24387380.605    24387382.859   128156517.694    95701278.985    98197834.515    96949550.356          47.600          47.200          48.900          54.500  
E30  26246109.930    26246120.598    26246118.672    26246120.742   137924231.432   102995349.811   105682185.858   104338756.441          43.200          43.600          46.600          51.000  
E05  25564958.617    25564969.539    25564967.660    25564970.727   134344770.883   100322387.259   102939493.426   101630919.953          40.600          40.400          41.800          46.600  
C04  38574259.273    38574258.820   200866287.964   155322552.394          37.100          40.600  
C03  37552666.508    37552666.973   195546588.719   151209025.312          38.900          42.600  
C02  39032485.891    39032486.078   203252422.712   157167647.615          35.600          39.400  
C01  38108449.734    38108451.605   198440694.434   153446942.815          37.300          41.500  
C30  22118296.602                   115175770.050                          48.200                  
C29  22444331.781                   116873522.609                          47.600                  
C20  24333236.594                   126709554.482                          45.200                  
C13  38975198.648    38975207.238   202954088.003   156937010.440          39.500          39.500  
> 2025 04 10 06 39 10.0000000  0 31
G22  22213663.977    22213671.641                   116733585.968    90961265.217                          44.300          31.800                  
G03  22539755.563                    22539767.789   118447214.033                    92296574.194          39.800                          42.800  
G04  23556005.094                    23556017.297   123787654.143                    96457962.528          38.700                          42.800  
G19  19939302.133    19939305.840                   104781737.163    81648122.597                          47.800          42.200                  
G06  21152531.625                    21152540.965   111157302.384                    86616105.298          47.400                          48.100  
G12  24186697.344                    24186708.688   127101963.044                    99040536.107          36.500                          38.600  
G09  23802909.828                    23802925.645   125085159.792                    97469036.677          36.700                          44.300  
G17  20833686.641                    20833693.348   109481760.912                    85310490.576          47.000                          47.100  
G14  23152412.492                    23152425.000   121666737.248                    94805268.236          41.300                          41.600  
G11  23446303.375                    23446312.766   123211149.050                    96008725.722          42.100                          44.400  
R01  21165641.938    21165641.008                                   113142480.033   113142474.042                                          43.000          41.400                                  
R02  21028152.188    21028150.867    21028161.379    21028160.789   112210254.730   112210246.734    87274635.182    87274641.186          47.000          45.100          46.900          47.700  
R16  21593982.016    21593981.676    21593990.754    21593990.895   115351229.989   115351168.004    89717572.626    89717579.630          44.800          43.800          46.500          47.500  
R24  21863763.414    21863762.480    21863772.738    21863772.266   116915356.203   116915347.222    90934159.099    90934165.110          45.800          44.000          45.900          46.100  
R15  21710347.398    21710347.867    21710359.484    21710358.648   116013514.464   116013496.477    90232720.825    90232725.828          44.100          42.300          45.000          45.100  
R17  19811448.672    19811447.148    19811455.383    19811455.133   106015065.591   106015043.597    82456152.794    82456157.798          49.100          47.200          48.600          49.400  
R18  21680725.516    21680724.090    21680734.414    21680733.684   115733187.313   115733175.333    90014691.521    90014695.538          43.700          41.400          46.600          48.000  
E13  26198341.781    26198352.551    26198350.160    26198352.621   137673210.174   102807897.864   105489842.853   104148867.466          41.800          44.000          45.300          50.300  
E15  23546174.859    23546182.344    23546180.609    23546182.809   123735982.257    92400224.544    94810664.733    93605452.745          48.000          48.200          49.600          55.600  
E21  26657106.969    26657115.629    26657114.129    26657116.355   140084042.482   104608190.794   107337100.783   105972642.397          42.300          42.400          44.900          49.700  
E27  24387579.188    24387586.688    24387584.762    24387587.078   128157590.379    95702080.001    98198656.430    96950361.824          46.900          47.700          49.000          54.500  
E30  26248361.289    26248371.992    26248370.164    26248372.051   137936062.956   103004185.018   105691251.539   104347706.886          43.700          44.200          46.300          50.900  
E05  25563411.313    25563425.105    25563421.117    25563425.594   134336651.802   100316324.297   102933272.280   101624777.901          39.400          40.800          41.300          46.300  
C04  38573683.266    38573683.055   200863290.506   155320234.577          37.500          40.200  
C03  37552113.672    37552114.652   195543711.513   151206800.464          38.700          41.400  
C02  39031918.313    39031918.000   203249464.389   157165360.052          35.500          39.800  
C01  38107904.477    38107906.605   198437854.962   153444747.147          37.800          41.700  
C30  22118753.719                   115178149.936                          48.100                  
C29  22442307.203                   116862979.267                          48.300                  
C20  24329749.750                   126691398.474                          43.900                  
C13  38973505.258    38973513.641   202945271.609   156930193.066          39.400          39.400  
