     3.04           OBSERVATION DATA    M (MIXED)           RINEX VERSION / TYPE
BLANK OR G = GPS, R = GLONASS, C = BDS, E = GAL, J = QZSS, M = MIXEDCOMMENT             
HGO                 HITARGET            20250510 112545 UTC PGM / RUN BY / DATE 
2222                                                        MARKER NAME         
                                                            MARKER NUMBER       
whoever             HITARGET                                OBSERVER / AGENCY   
10020463            iRTK2                                   REC # / TYPE / VERS 
1                   HITIRTK2-2                              ANT # / TYPE        
 -2623881.1459  3976994.3576  4226086.3025                  APPROX POSITION XYZ 
------------------------------------------------------------COMMENT             
*** Antenna height is from mark to ANTENNA Phase Center.    COMMENT             
------------------------------------------------------------COMMENT             
        1.5689        0.0000        0.0000                  ANTENNA: DELTA H/E/N
G    9 C1C C2W C2X L1C L2W L2X S1C S2W S2X                  SYS / # / OBS TYPES 
R   12 C1C C1P C2P C2C L1C L1P L2P L2C S1C S1P S2P S2C      SYS / # / OBS TYPES 
E   12 C1X C5X C7X C8X L1X L5X L7X L8X S1X S5X S7X S8X      SYS / # / OBS TYPES 
C    6 C2I C7I L2I L7I S2I S7I                              SYS / # / OBS TYPES 
     5.000                                                  INTERVAL            
  2025     4    10     6    34   30.0000000     GPS         TIME OF FIRST OBS   
  2025     4    10     6    55   25.0000000     GPS         TIME OF LAST OBS    
     0                                                      RCV CLOCK OFFS APPL 
    18                                                      LEAP SECONDS        
                                                            END OF HEADER       
> 2025 04 10 06 34 30.0000000  0 22
R01  21219644.531    21219642.664                                   113431159.793   113431140.802                                          44.100          42.500                                  
R02  21283338.430    21283337.109    21283346.863    21283346.785   113571977.390   113571966.412    88333753.008    88333760.019          47.500          45.700          45.800          46.500  
R18  21911661.094    21911659.434    21911668.629    21911668.203   116965934.597   116965917.591    90973492.064    90973496.068          46.300          44.600          46.200          47.000  
R17  19930671.688    19930671.223    19930678.410    19930678.023   106653045.401   106653034.411    82952366.522    82952370.524          51.500          49.800          49.200          49.500  
R16  21724028.508    21724028.285    21724037.121    21724037.109   116045870.514   116045849.521    90257887.997    90257895.009          46.000          44.700          46.200          46.000  
R15  21651370.672    21651370.082    21651380.055    21651379.535   115698344.830   115698330.841    89987592.563    89987597.568          47.500          46.300          46.800          46.900  
R24  21845794.547    21845792.906    21845803.430    21845803.395   116819276.337   116819262.352    90859424.851    90859430.847          45.800          43.900          44.100          45.600  
E13  26407958.797    26407968.891    26407966.500    26407968.711   138774761.243   103630504.713   106333908.271   104982182.601          42.600          43.400          44.100          49.300  
E30  26200893.984    26200904.414    26200901.695    26200904.328   137686619.456   102817967.291   105500165.485   104159071.498          45.000          45.100          45.900          51.400  
E15  23657876.969    23657884.207    23657882.285    23657884.527   124322982.892    92838577.713    95260452.889    94049506.407          48.200          48.600          49.800          55.600  
E21  26867828.047    26867836.027    26867834.059    26867836.258   141191388.153   105435159.230   108185631.802   106810357.623          42.800          42.800          43.600          49.200  
E05  25730102.266    25730114.336    25730111.336    25730113.852   135212607.912   100970492.782   103604496.779   102287505.388          43.100          40.400          42.100          47.000  
E27  24456843.484    24456850.086    24456848.727    24456850.730   128521577.485    95973922.955    98477584.951    97225712.065          48.200          47.300          48.300          54.000  
C04  38683167.141    38683166.734   201433401.998   155761080.658          36.700          41.800  
C03  37660301.477    37660301.586   196107074.058   151642426.536          39.000          42.100  
C02  39140946.492    39140946.477   203817192.993   157604371.111          34.300          38.600  
C01  38215680.531    38215680.398   198999072.155   153878708.837          39.700          41.800  
C30  22172221.406                   115456572.444                          48.600                  
C29  22634216.188                   117862296.993                          47.200                  
C27  25629400.992                   133459001.873                          40.900                  
C20  24603908.922                   128119018.232                          44.600                  
C13  39146379.281    39146387.648   203845474.200   157626286.788          40.900          40.900  
> 2025 04 10 06 34 35.0000000  0 31
G17  20887292.875                    20887298.867   109763470.056                    85530001.612          47.200                          47.300  
G11  23686825.266                    23686834.641   124475142.097                    96993627.101          42.500                          45.000  
G14  23069709.977                    23069720.605   121232142.061                    94466630.121          42.400                          43.700  
G22  22185191.672    22185199.168                   116583973.359    90844681.661                          44.100          32.900                  
G03  22486725.273                                   118168552.347                                          41.100                                  
G19  20089261.148    20089265.254                   105569775.372    82262186.540                          46.800          41.800                  
G06  21324933.422                    21324942.301   112063297.824                    87322062.780          48.600                          46.800  
G09  24064258.383                                   126458509.626                                          39.400                                  
G04  23761891.125                                   124869571.525                                          38.600                                  
R01  21219169.281    21219168.234                                   113428620.165   113428601.167                                          44.300          42.300                                  
R02  21279304.422    21279303.102    21279312.266    21279312.402   113550448.669   113550437.669    88317008.479    88317015.489          48.800          46.900          45.700          46.500  
R18  21908123.430    21908122.707    21908131.457    21908131.188   116947054.652   116947037.662    90958807.676    90958811.673          45.800          43.700          45.600          46.000  
R17  19929109.695    19929108.645    19929115.988    19929115.473   106644684.073   106644673.063    82945863.264    82945867.267          51.900          50.300          48.900          49.900  
R16  21722196.391    21722195.816    21722204.906    21722204.406   116036079.668   116036058.668    90250272.918    90250279.938          46.000          45.600          47.200          46.800  
R15  21652958.555    21652958.199    21652968.809    21652968.090   115706831.278   115706817.267    89994193.122    89994198.126          47.100          45.700          46.400          46.700  
R24  21846696.820    21846696.590    21846705.988    21846706.082   116824105.422   116824091.428    90863180.761    90863186.766          45.700          43.900          44.400          44.700  
E13  26404802.500    26404812.629    26404810.285    26404812.684   138758175.335   103618119.107   106321199.575   104969635.450          41.900          43.100          44.200          49.400  
E30  26202321.016    26202331.043    26202328.137    26202331.125   137694117.784   102823566.660   105505910.927   104164743.903          45.400          45.300          45.900          51.200  
E15  23656460.570    23656467.938    23656465.969    23656468.195   124315540.209    92833019.865    95254750.053    94043876.063          48.000          48.500          50.300          55.600  
E21  26864625.188    26864633.348    26864631.004    26864633.422   141174557.501   105422590.900   108172735.605   106797625.362          42.700          42.200          42.800          48.400  
E05  25727677.922    25727689.785    25727687.301    25727689.281   135199867.586   100960978.920   103594734.720   102277867.428          41.900          39.900          41.800          46.600  
E27  24456149.125    24456156.141    24456154.496    24456156.480   128517929.756    95971199.003    98474789.939    97222952.575          48.000          47.000          48.500          54.100  
C04  38681816.133    38681815.902   201426366.912   155755640.704          36.900          42.600  
C03  37658974.555    37658974.258   196100161.923   151637081.630          38.700          41.800  
C02  39139605.188    39139605.496   203810206.346   157598968.538          36.400          40.200  
C01  38214359.742    38214360.324   198992197.652   153873393.031          39.400          42.300  
C30  22171838.266                   115454577.326                          48.000                  
C29  22631371.313                   117847481.676                          47.400                  
C27  25630515.180                   133464800.079                          41.800                  
C20  24599589.195                   128096523.579                          44.600                  
C13  39143882.516    39143890.879   203832472.256   157616232.888          40.300          41.000  
> 2025 04 10 06 34 40.0000000  0 31
G17  20886883.188                    20886889.887   109761316.679                    85528323.606          47.300                          47.300  
G11  23683045.156                    23683056.137   124455279.417                    96978149.727          41.700                          44.300  
G14  23071805.758                    23071817.688   121243156.972                    94475213.138          42.100                          43.900  
G22  22186274.273    22186281.785                   116589662.135    90849114.451                          43.900          33.700                  
G03  22488255.820                    22488265.508   118176595.145                    92085672.266          41.000                          43.800  
G19  20087091.023    20087095.258                   105558370.815    82253299.866                          47.700          40.900                  
G06  21322374.773                    21322384.668   112049852.973                    87311586.228          47.300                          47.600  
G09  24060104.852                    24060120.688   126436679.710                    98522137.679          39.800                          42.100  
G04  23758711.461                    23758724.395   124852860.944                    97287981.681          37.500                          39.200  
R01  21218698.242    21218697.313                                   113426103.105   113426084.128                                          44.300          43.000                                  
R02  21275272.984    21275271.430    21275281.094    21275281.203   113528935.462   113528924.455    88300275.975    88300282.979          48.100          47.000          46.600          46.200  
R18  21904587.773    21904586.582    21904595.754    21904595.031   116928178.051   116928161.047    90944125.895    90944129.884          44.100          42.900          46.500          46.600  
R17  19927548.617    19927547.332    19927554.828    19927554.715   106636330.022   106636319.020    82939365.674    82939369.669          51.300          49.500          48.300          49.100  
R16  21720367.148    21720367.629    21720376.047    21720375.660   116026311.315   116026290.324    90242675.303    90242682.308          46.700          45.900          46.000          46.600  
R15  21654548.648    21654548.176    21654559.344    21654558.457   115715331.422   115715317.433    90000804.358    90000809.355          46.100          45.600          46.500          47.000  
R24  21847602.891    21847601.605    21847610.461    21847610.348   116828938.849   116828924.862    90866940.106    90866946.110          45.600          44.300          42.800          43.800  
E13  26401646.859    26401657.180    26401654.180    26401657.121   138741592.695   103605736.041   106308493.455   104957090.854          42.500          42.500          43.200          49.000  
E30  26203748.906    26203759.031    26203756.219    26203759.121   137701621.042   102829169.707   105511660.144   104170420.033          44.600          44.800          46.800          51.700  
E15  23655045.305    23655052.523    23655050.551    23655052.891   124308102.480    92827465.707    95249050.997    94038249.459          49.100          48.200          49.400          55.100  
E21  26861423.883    26861432.176    26861429.691    26861432.270   141157735.141   105410028.753   108159845.741   106784899.353          42.800          41.900          42.900          48.200  
E05  25725255.422    25725266.699    25725264.965    25725266.797   135187137.068   100951472.432   103584980.236   102268236.943          40.400          39.700          40.200          45.300  
E27  24455457.242    24455464.199    24455462.559    24455464.563   128514293.821    95968483.846    98472003.962    97220202.009          48.400          48.000          49.400          54.800  
C04  38680464.805    38680465.070   201419331.818   155750200.720          37.600          41.800  
C03  37657646.680    37657646.648   196093249.756   151631736.715          38.100          41.700  
C02  39138262.281    39138263.496   203803219.516   157593565.873          34.800          41.400  
C01  38213039.602    38213040.051   198985323.112   153868077.212          39.500          41.600  
C30  22171456.398                   115452588.313                          47.600                  
C29  22628526.688                   117832670.535                          47.900                  
C27  25631628.867                   133470600.375                          39.900                  
C20  24595269.445                   128074034.089                          44.000                  
C13  39141386.039    39141394.273   203819473.062   157606181.091          41.100          40.200  
> 2025 04 10 06 34 45.0000000  0 31
G17  20886475.289                    20886481.813   109759172.630                    85526652.924          47.800                          47.400  
G11  23679265.578                    23679276.250   124435420.652                    96962675.329          40.100                          45.000  
G14  23073902.094                    23073914.750   121254176.233                    94483799.506          41.700                          42.600  
G22  22187358.695    22187366.320                   116595360.593    90853554.770                          44.300          33.100                  
G03  22489787.953                    22489798.676   118184647.327                    92091946.656          41.300                          43.800  
G19  20084923.195    20084926.820                   105546977.250    82244421.766                          47.700          41.100                  
G06  21319817.414                    21319827.141   112036415.376                    87301115.387          47.400                          48.000  
G09  24055951.602                    24055967.227   126414852.639                    98505129.701          39.000                          40.300  
G04  23755533.109                    23755545.289   124836159.787                    97274967.852          38.600                          40.300  
R01  21218232.289    21218231.125                                   113423608.046   113423589.048                                          44.300          43.600                                  
R02  21271244.156    21271242.953    21271252.738    21271253.117   113507437.432   113507426.431    88283555.326    88283562.329          47.500          45.700          47.000          47.200  
R18  21901051.602    21901050.762    21901060.781    21901060.004   116909304.386   116909287.385    90929446.377    90929450.382          44.100          42.000          46.800          47.300  
R17  19925988.906    19925987.148    19925994.727    19925994.289   106627982.962   106627971.959    82932873.523    82932877.512          51.700          49.500          48.300          48.400  
R16  21718542.195    21718542.441    21718551.172    21718551.031   116016564.770   116016543.771    90235094.631    90235101.620          45.500          44.400          47.000          47.300  
R15  21656141.375    21656141.141    21656151.801    21656151.094   115723845.048   115723831.054    90007426.031    90007431.036          46.700          45.200          45.800          46.000  
R24  21848506.102    21848505.285    21848514.691    21848514.563   116833776.184   116833762.192    90870702.471    90870708.469          44.700          43.300          42.900          44.100  
E13  26398491.859    26398502.430    26398498.961    26398502.129   138725013.129   103593355.154   106295789.604   104944548.488          41.600          43.400          44.400          50.100  
E30  26205177.102    26205187.449    26205184.777    26205187.730   137709128.853   102834776.175   105517412.873   104176099.634          43.400          44.600          45.700          51.700  
E15  23653630.953    23653638.086    23653636.352    23653638.469   124300669.376    92821915.019    95243355.512    94032626.372          49.300          47.800          49.300          55.100  
E21  26858223.688    26858232.633    26858230.336    26858232.617   141140920.747   105397472.515   108146961.950   106772179.335          42.800          41.600          43.100          48.300  
E05  25722833.578    25722845.848    25722844.113    25722846.031   135174415.996   100941972.923   103575232.910   102258613.529          40.500          39.400          41.700          46.100  
E27  24454767.188    24454774.801    24454772.781    24454774.922   128510669.305    95965777.219    98469226.723    97217460.079          48.000          48.000          48.800          54.900  
C04  38679113.680    38679113.586   201412296.434   155744760.531          36.000          42.300  
C03  37656318.781    37656319.406   196086337.167   151626391.450          38.600          41.800  
C02  39136920.828    39136921.301   203796232.167   157588162.852          35.000          40.800  
C01  38211719.563    38211720.207   198978448.199   153862761.099          40.200          40.500  
C30  22171075.500                   115450605.076                          47.900                  
C29  22625683.391                   117817863.217                          48.200                  
C27  25632742.797                   133476402.410                          42.400                  
C20  24590951.766                   128051549.415                          43.400                  
C13  39138890.195    39138898.688   203806476.116   157596131.035          41.800          40.100  
> 2025 04 10 06 34 50.0000000  0 31
G17  20886068.586                    20886075.242   109757037.269                    85524989.000          47.800                          47.600  
G11  23675487.555                    23675497.707   124415565.048                    96947203.461          39.900                          45.400  
G14  23076000.813                    23076012.277   121265199.075                    94492388.711          41.300                          43.500  
G22  22188445.492    22188453.016                   116601067.989    90858002.091                          44.800          33.400                  
G03  22491322.750                    22491333.035   118192708.048                    92098227.711          42.000                          44.100  
G19  20082756.633    20082760.754                   105535593.957    82235551.659                          47.900          40.500                  
G06  21317262.164                    21317271.582   112022984.322                    87290649.681          47.600                          47.300  
G09  24051797.664                    24051813.898   126393027.584                    98488123.251          39.800                          42.000  
G04  23752356.820                    23752368.367   124819467.449                    97261960.844          39.300                          40.600  
R01  21217768.516    21217767.586                                   113421134.215   113421115.232                                          44.500          43.200                                  
R02  21267218.375    21267217.523    21267227.199    21267226.465   113485953.923   113485942.915    88266845.941    88266852.952          48.100          46.700          46.800          47.200  
R18  21897516.234    21897516.098    21897524.871    21897524.102   116890432.995   116890416.003    90914768.695    90914772.700          44.300          43.500          45.500          46.700  
R17  19924429.969    19924428.563    19924436.027    19924435.828   106619641.980   106619630.992    82926386.081    82926390.092          51.600          49.000          48.800          48.700  
R16  21716722.570    21716722.348    21716729.941    21716730.453   116006839.499   116006818.508    90227530.560    90227537.563          47.200          46.200          46.600          46.600  
R15  21657737.539    21657737.066    21657746.590    21657746.512   115732371.508   115732357.520    90014057.668    90014062.672          46.600          44.300          45.400          45.900  
R24  21849410.930    21849411.168    21849420.102    21849419.965   116838616.669   116838602.678    90874467.243    90874473.255          46.400          44.700          44.200          45.300  
E13  26395337.367    26395348.008    26395344.820    26395347.855   138708435.795   103580975.999   106283087.533   104932007.872          43.300          44.400          44.400          50.500  
E30  26206606.906    26206616.582    26206614.656    26206617.023   137716640.513   102840385.539   105523168.563   104181782.161          45.700          44.100          45.600          51.200  
E15  23652217.531    23652224.379    23652222.598    23652224.699   124293240.204    92816367.254    95237663.023    94027006.245          49.100          48.100          49.800          56.000  
E21  26855025.789    26855034.277    26855031.887    26855034.059   141124113.607   105384921.781   108134083.782   106759464.888          42.400          40.900          42.300          47.700  
E05  25720414.367    25720426.836    25720424.816    25720426.887   135161703.536   100932479.895   103565492.224   102248996.665          40.600          40.000          41.900          46.600  
E27  24454079.766    24454086.641    24454085.188    24454087.180   128507055.543    95963078.647    98466457.747    97214726.302          48.300          46.800          47.200          53.900  
C04  38677762.219    38677762.313   201405259.979   155739319.476          36.300          41.600  
C03  37654992.211    37654991.898   196079423.542   151621045.402          39.500          41.700  
C02  39135578.867    39135579.699   203789243.643   157582758.863          34.500          40.900  
C01  38210399.078    38210399.367   198971572.220   153857444.131          39.800          40.400  
C30  22170695.844                   115448626.890                          49.100                  
C29  22622840.367                   117803059.038                          47.900                  
C27  25633857.688                   133482205.538                          43.300                  
C20  24586634.914                   128029068.863                          44.100                  
C13  39136394.602    39136402.809   203793480.872   157586082.301          41.200          39.400  
> 2025 04 10 06 34 55.0000000  0 31
G17  20885664.242                    20885671.145   109754911.660                    85523332.684          47.300                          47.900  
G11  23671710.289                    23671720.449   124395713.712                    96931734.908          40.100                          44.700  
G14  23078098.688                    23078110.477   121276226.606                    94500981.561          42.200                          43.900  
G22  22189533.563    22189540.777                   116606785.345    90862457.165                          45.500          33.500                  
G03  22492857.852                    22492867.555   118200778.512                    92104516.347          42.200                          43.800  
G19  20080593.227    20080596.719                   105524222.021    82226690.412                          47.500          40.800                  
G06  21314707.633                    21314717.457   112009560.941                    87280189.883          46.900                          47.500  
G09  24047645.258                    24047661.566   126371205.691                    98471119.263          40.000                          42.100  
G04  23749182.305                    23749194.250   124802784.919                    97248961.495          39.000                          40.500  
R01  21217309.797    21217308.867                                   113418682.824   113418663.833                                          44.400          43.000                                  
R02  21263194.719    21263193.047    21263203.238    21263203.285   113464485.933   113464474.934    88250148.649    88250155.652          48.200          45.900          46.500          47.200  
R18  21893983.891    21893981.762    21893990.066    21893989.480   116871565.029   116871548.032    90900093.620    90900097.624          45.500          43.800          45.900          47.300  
R17  19922872.203    19922871.504    19922879.023    19922878.246   106611308.421   106611297.433    82919904.431    82919908.433          51.000          49.700          49.500          49.100  
R16  21714906.180    21714905.957    21714913.828    21714914.254   115997136.496   115997115.512    90219983.750    90219990.746          48.100          46.300          45.400          45.600  
R15  21659336.617    21659335.676    21659345.105    21659344.660   115740911.614   115740897.624    90020700.004    90020705.016          47.800          44.800          45.000          46.300  
R24  21850316.859    21850315.809    21850325.367    21850325.469   116843461.316   116843447.353    90878235.297    90878241.294          46.200          43.900          44.400          44.600  
E13  26392183.398    26392193.820    26392190.910    26392193.762   138691861.814   103568599.327   106270387.971   104919469.758          43.400          43.900          44.200          50.100  
E30  26208037.336    26208046.977    26208045.102    26208047.473   137724157.063   102845998.526   105528927.980   104187468.363          44.900          44.100          45.900          50.800  
E15  23650804.539    23650811.535    23650809.848    23650811.859   124285815.993    92810823.208    95231974.352    94021389.886          48.600          48.000          49.900          55.600  
E21  26851829.148    26851837.359    26851835.156    26851837.594   141107314.769   105372377.194   108121211.956   106746756.678          41.600          41.400          42.700          47.600  
E05  25717998.672    25718009.008    25718007.367    25718009.793   135149000.980   100922994.245   103555759.138   102239387.298          40.800          41.400          43.100          47.500  
E27  24453394.484    24453401.449    24453399.387    24453401.766   128503453.583    95960388.859    98463697.794    97212001.435          48.300          47.500          48.200          54.000  
C04  38676411.266    38676410.777   201398223.483   155733878.418          37.400          41.700  
C03  37653663.891    37653664.043   196072509.825   151615699.288          38.800          41.400  
C02  39134236.727    39134237.438   203782254.909   157577354.748          34.300          40.700  
C01  38209078.305    38209079.047   198964696.146   153852127.135          39.600          42.100  
C30  22170316.734                   115446654.847                          48.800                  
C29  22619998.039                   117788259.062                          47.100                  
C27  25634972.930                   133488010.702                          41.700                  
C20  24582318.898                   128006593.624                          45.000                  
C13  39133899.219    39133907.547   203780488.300   157576035.650          40.700          39.400  
> 2025 04 10 06 35  0.0000000  0 31
G17  20885261.789                    20885268.840   109752796.616                    85521684.591          47.200                          47.700  
G11  23667933.719                    23667943.652   124375867.446                    96916270.274          41.600                          44.700  
G14  23080198.641                    23080210.078   121287259.646                    94509578.675          40.600                          43.000  
G22  22190623.469    22190630.527                   116612513.436    90866920.590                          46.300          33.700                  
G03  22494395.180                    22494405.961   118208859.480                    92110813.216          42.500                          44.700  
G19  20078431.008    20078434.684                   105512862.250    82217838.642                          47.500          40.900                  
G06  21312154.805                    21312164.531   111996146.031                    87269736.715          48.100                          47.900  
G09  24043493.078                    24043509.117   126349387.871                    98454118.479          38.600                          40.900  
G04  23746009.820                    23746021.309   124786113.051                    97235970.503          40.300                          42.200  
R01  21216854.789    21216855.621                                   113416254.650   113416235.637                                          43.900          43.100                                  
R02  21259174.492    21259173.758    21259183.824    21259183.668   113443034.371   113443023.378    88233464.097    88233471.101          48.000          46.200          46.100          46.600  
R18  21890447.188    21890447.520    21890455.699    21890455.477   116852701.192   116852684.196    90885421.710    90885425.692          45.100          43.700          45.800          47.200  
R17  19921316.281    19921315.348    19921322.742    19921322.586   106602983.012   106602972.016    82913429.118    82913433.113          50.600          49.400          48.500          49.500  
R16  21713094.563    21713094.105    21713102.234    21713102.164   115987456.604   115987435.590    90212454.941    90212461.939          48.500          46.100          45.100          45.400  
R15  21660936.672    21660936.789    21660946.813    21660946.395   115749466.348   115749452.359    90027353.663    90027358.675          48.600          46.100          45.300          46.000  
R24  21851224.469    21851223.535    21851232.633    21851232.703   116848311.046   116848297.053    90882007.292    90882013.283          46.000          44.300          45.000          45.300  
E13  26389030.141    26389040.363    26389038.254    26389040.477   138675291.986   103556225.771   106257691.624   104906934.806          42.700          43.600          45.100          50.000  
E30  26209468.547    26209478.516    26209476.500    26209479.070   137731679.366   102851615.783   105534691.781   104193158.889          45.100          44.400          46.300          51.200  
E15  23649392.602    23649399.762    23649397.793    23649400.105   124278397.570    92805283.491    95226290.113    94015777.904          48.800          48.500          49.300          55.300  
E21  26848634.352    26848642.531    26848640.141    26848642.578   141090525.126   105359839.434   108108347.143   106734055.391          41.900          41.800          44.200          48.800  
E05  25715583.297    25715593.797    25715592.250    25715594.570   135136309.063   100913516.559   103546034.186   102229785.976          42.400          40.700          42.600          47.300  
E27  24452711.453    24452718.648    24452716.398    24452718.863   128499864.241    95957708.496    98460947.520    97209286.120          48.000          46.900          48.600          54.200  
C04  38675060.227    38675060.176   201391187.889   155728438.066          36.900          41.800  
C03  37652336.398    37652336.844   196065596.923   151610353.793          39.300          42.100  
C02  39132894.523    39132895.465   203775266.828   157571951.094          35.000          40.500  
C01  38207758.234    38207758.422   198957820.902   153846810.768          39.600          41.300  
C30  22169939.563                   115444689.739                          48.400                  
C29  22617157.078                   117773464.114                          47.600                  
C27  25636087.516                   133493818.870                          43.900                  
C20  24578003.625                   127984124.320                          44.900                  
C13  39131404.930    39131413.379   203767499.214   157565991.666          41.700          40.200  
> 2025 04 10 06 35  5.0000000  0 31
G17  20884860.500                    20884867.895   109750690.305                    85520043.331          47.000                          47.700  
G11  23664157.898                    23664167.281   124356024.414                    96900808.186          41.300                          44.500  
G14  23082298.742                    23082310.645   121298296.244                    94518178.579          42.900                          43.400  
G22  22191715.063    22191722.133                   116618250.478    90871391.017                          46.100          33.900                  
G03  22495934.266                    22495945.246   118216949.032                    92117116.728          42.000                          44.300  
G19  20076271.273    20076275.016                   105501512.774    82208994.894                          47.500          41.300                  
G06  21309602.984                    21309613.012   111982737.688                    87259288.653          47.200                          48.000  
G09  24039341.219                    24039358.465   126327572.186                    98437119.332          37.300                          40.400  
G04  23742838.383                    23742850.883   124769450.087                    97222986.346          39.400                          41.700  
R01  21216405.695    21216404.648                                   113413847.838   113413828.830                                          43.200          42.500                                  
R02  21255157.453    21255156.484    21255166.367    21255166.133   113421597.481   113421586.481    88216790.997    88216798.001          47.600          46.000          46.300          47.300  
R18  21886913.875    21886913.855    21886922.426    21886922.277   116833839.681   116833822.671    90870751.672    90870755.661          45.200          44.100          45.600          46.600  
R17  19919761.805    19919760.520    19919767.930    19919767.848   106594663.793   106594652.798    82906958.611    82906962.615          50.900          50.200          48.500          49.500  
R16  21711287.391    21711285.762    21711294.121    21711293.859   115977797.918   115977776.919    90204942.651    90204949.647          48.600          46.500          46.500          46.300  
R15  21662539.727    21662540.313    21662549.871    21662549.168   115758033.946   115758019.943    90034017.334    90034022.348          47.900          46.900          45.700          46.200  
R24  21852131.813    21852130.645    21852140.086    21852140.063   116853164.046   116853150.080    90885781.829    90885787.818          45.600          43.900          45.000          46.400  
E13  26385877.297    26385887.402    26385885.574    26385887.734   138658724.437   103543853.927   106244997.040   104894401.589          42.700          43.900          45.000          50.500  
E30  26210900.586    26210910.406    26210908.906    26210911.117   137739205.532   102857235.968   105540458.573   104198852.377          45.200          44.100          45.800          51.300  
E15  23647981.625    23647989.047    23647986.938    23647989.301   124270983.094    92799746.697    95220608.894    94010168.901          49.100          48.200          49.000          55.500  
E21  26845440.688    26845448.691    26845446.348    26845448.828   141073742.754   105347307.164   108095487.938   106721359.661          42.100          42.300          43.600          48.400  
E05  25713169.992    25713179.676    25713178.504    25713181.086   135123625.912   100904045.377   103536315.945   102220191.267          42.500          41.000          42.400          47.600  
E27  24452030.258    24452037.699    24452035.352    24452037.945   128496285.657    95955036.176    98458205.480    97206578.937          48.200          47.300          48.200          54.100  
C04  38673709.188    38673708.930   201384151.255   155722996.891          36.600          42.100  
C03  37651008.352    37651008.273   196058682.971   151605007.488          38.900          41.300  
C02  39131552.781    39131553.402   203768277.563   157566546.571          34.500          40.000  
C01  38206437.898    38206438.031   198950944.575   153841493.563          39.800          40.900  
C30  22169563.203                   115442729.762                          49.000                  
C29  22614316.250                   117758672.348                          47.100                  
C27  25637203.453                   133499628.096                          43.300                  
C20  24573689.008                   127961659.301                          44.700                  
C13  39128910.992    39128919.473   203754511.778   157555948.960          42.100          39.900  
> 2025 04 10 06 35 10.0000000  0 31
G17  20884462.016                    20884468.742   109748593.254                    85518409.232          47.600                          47.400  
G11  23660383.406                    23660391.352   124336185.189                    96885349.072          42.100                          43.800  
G14  23084399.938                    23084411.652   121309336.989                    94526781.713          41.400                          45.300  
G22  22192808.641    22192815.836                   116623996.914    90875868.739                          45.800          34.400                  
G03  22497475.977                    22497486.422   118225047.687                    92123427.381          42.600                          44.200  
G19  20074113.930    20074117.695                   105490174.127    82200159.582                          47.500          41.600                  
G06  21307053.477                    21307062.906   111969336.480                    87248846.163          47.100                          46.800  
G09  24035190.563                    24035206.941   126305759.226                    98420122.361          38.800                          42.100  
G04  23739669.781                    23739681.746   124752796.335                    97210009.453          38.300                          40.000  
R01  21215959.789    21215958.742                                   113411462.891   113411443.894                                          45.800          43.100                                  
R02  21251142.547    21251142.164    21251151.914    21251151.570   113400175.626   113400164.634    88200129.550    88200136.554          46.600          46.200          46.800          47.400  
R18  21883381.938    21883380.160    21883390.875    21883390.086   116814980.950   116814963.945    90856083.767    90856087.757          45.600          43.000          45.700          47.500  
R17  19918209.031    19918207.625    19918214.832    19918214.340   106586351.348   106586340.353    82900493.381    82900497.384          51.500          49.400          48.500          49.000  
R16  21709481.492    21709480.918    21709489.734    21709489.652   115968161.002   115968140.009    90197447.266    90197454.263          47.300          46.200          45.600          45.500  
R15  21664145.906    21664145.906    21664155.547    21664154.848   115766614.685   115766600.674    90040691.233    90040696.237          48.000          47.200          45.700          45.600  
R24  21853039.008    21853038.895    21853048.539    21853048.289   116858020.784   116858006.801    90889559.278    90889565.282          44.900          43.800          45.500          46.700  
E13  26382725.711    26382735.461    26382733.398    26382735.758   138642159.783   103531484.243   106232304.667   104881870.561          42.300          44.100          44.800          50.100  
E30  26212333.672    26212343.789    26212341.680    26212344.063   137746736.031   102862859.400   105546228.692   104204549.153          44.800          44.200          45.700          50.900  
E15  23646571.742    23646578.957    23646577.035    23646579.270   124263573.049    92794213.227    95214931.072    94004563.256          48.200          48.700          49.000          55.500  
E21  26842248.797    26842256.840    26842254.258    26842257.070   141056968.257   105334780.742   108082634.738   106708669.847          41.900          42.000          43.500          48.200  
E05  25710757.750    25710767.746    25710766.570    25710769.254   135110952.149   100894581.232   103526604.910   102210603.680          40.800          40.100          42.500          47.100  
E27  24451351.688    24451358.824    24451356.762    24451359.125   128492718.347    95952372.268    98455472.085    97203880.285          48.300          47.100          48.600          54.100  
C04  38672357.461    38672357.352   201377114.175   155717555.358          36.000          41.500  
C03  37649680.492    37649680.914   196051768.467   151599660.770          39.000          41.500  
C02  39130210.570    39130210.652   203761287.683   157561141.609          34.600          39.700  
C01  38205117.391    38205117.324   198944067.770   153836175.977          40.300          40.300  
C30  22169187.906                   115440775.415                          48.600                  
C29  22611476.367                   117743884.284                          48.200                  
C27  25638319.641                   133505438.919                          41.400                  
C20  24569376.102                   127939198.962                          43.800                  
C13  39126416.836    39126425.660   203741526.539   157545907.979          40.600          39.800  
> 2025 04 10 06 35 15.0000000  0 31
G17  20884064.758                    20884071.555   109746506.604                    85516783.261          47.800                          47.700  
G11  23656609.281                    23656617.598   124316350.822                    96869893.763          42.800                          43.700  
G14  23086501.133                    23086513.520   121320383.028                    94535388.979          40.700                          44.500  
G22  22193903.859    22193911.309                   116629753.935    90880354.725                          45.500          33.700                  
G03  22499019.266                    22499029.430   118233156.680                    92129746.067          41.400                          42.700  
G19  20071958.188    20071962.305                   105478847.563    82191333.680                          47.800          40.500                  
G06  21304504.570                    21304513.898   111955943.580                    87238410.146          48.000                          47.800  
G09  24031040.594                    24031056.961   126283950.152                    98403128.384          37.600                          41.100  
G04  23736502.594                    23736514.125   124736153.315                    97197040.838          39.100                          40.400  
R01  21215516.656    21215516.195                                   113409100.849   113409081.842                                          43.400          42.600                                  
R02  21247131.344    21247130.609    21247140.676    21247140.371   113378770.184   113378759.185    88183480.896    88183487.906          47.500          46.000          46.000          46.800  
R18  21879849.500    21879848.191    21879858.277    21879857.242   116796126.296   116796109.322    90841419.082    90841423.088          45.700          43.900          47.000          48.100  
R17  19916656.719    19916655.313    19916662.867    19916663.121   106578046.869   106578035.881    82894034.342    82894038.339          50.500          48.700          47.100          48.000  
R16  21707682.492    21707681.332    21707689.773    21707689.844   115958547.114   115958526.129    90189969.785    90189976.797          49.200          47.400          46.500          46.600  
R15  21665753.766    21665753.410    21665763.805    21665763.547   115775209.806   115775195.802    90047376.280    90047381.284          47.500          45.900          45.300          45.700  
R24  21853948.914    21853948.918    21853957.672    21853957.316   116862882.346   116862868.361    90893340.477    90893346.473          46.900          45.800          45.700          47.000  
E13  26379573.930    26379584.340    26379581.715    26379584.211   138625599.088   103519117.487   106219615.292   104869342.498          42.600          42.900          43.700          48.800  
E30  26213767.742    26213778.090    26213775.699    26213778.105   137754272.129   102868486.982   105552003.090   104210250.143          44.600          44.900          46.300          51.200  
E15  23645162.898    23645169.844    23645167.969    23645170.250   124256168.674    92788683.980    95209257.580    93998961.888          48.500          48.300          49.000          55.300  
E21  26839058.172    26839066.570    26839064.133    26839066.621   141040202.781   105322261.123   108069788.512   106695986.924          42.800          41.200          42.200          47.400  
E05  25708346.703    25708358.355    25708356.574    25708359.684   135098288.768   100885124.846   103516901.824   102201023.941          42.600          42.100          44.000          48.800  
E27  24450675.445    24450682.406    24450680.250    24450682.625   128489163.537    95949717.702    98452748.275    97201191.096          47.400          47.600          49.200          54.700  
C04  38671006.617    38671006.219   201370077.717   155712114.345          36.700          41.500  
C03  37648352.555    37648352.492   196044854.557   151594314.485          39.600          41.400  
C02  39128868.016    39128868.578   203754298.306   157555736.926          35.300          40.100  
C01  38203796.938    38203796.699   198937191.504   153830858.827          39.600          41.500  
C30  22168813.906                   115438827.860                          48.700                  
C29  22608637.586                   117729101.081                          47.700                  
C27  25639435.250                   133511252.529                          43.200                  
C20  24565064.164                   127916744.619                          44.500                  
C13  39123924.117    39123932.887   203728544.636   157535869.556          41.400          40.000  
> 2025 04 10 06 35 20.0000000  0 31
G17  20883669.727                    20883676.066   109744429.483                    85515164.726          47.100                          46.500  
G11  23652836.047                    23652844.523   124296520.571                    96854441.620          42.200                          45.700  
G14  23088604.398                    23088616.520   121331433.379                    94543999.609          41.100                          43.600  
G22  22195001.039    22195008.152                   116635520.724    90884848.304                          45.500          33.600                  
G03  22500563.617                    22500574.230   118241275.138                    92136072.160          40.000                          42.000  
G19  20069804.953    20069808.754                   105467532.146    82182516.488                          46.300          39.200                  
G06  21301956.961                    21301967.387   111942558.063                    87227979.830          48.100                          47.800  
G09  24026890.234                    24026907.129   126262144.056                    98386136.742          37.100                          42.500  
G04  23733336.773                    23733349.695   124719519.817                    97184079.718          40.100                          43.000  
R01  21215080.102    21215078.938                                   113406761.134   113406742.150                                          42.200          41.100                                  
R02  21243122.703    21243121.969    21243131.953    21243131.805   113357380.120   113357369.127    88166844.191    88166851.195          47.900          46.900          47.000          47.200  
R18  21876317.891    21876317.285    21876326.508    21876325.645   116777274.768   116777257.765    90826756.770    90826760.772          46.000          45.100          47.200          47.900  
R17  19915106.469    19915104.359    19915111.949    19915111.805   106569749.519   106569738.522    82887580.868    82887584.864          49.300          47.200          46.200          46.700  
R16  21705886.297    21705886.074    21705895.230    21705895.172   115948955.189   115948934.177    90182509.378    90182516.383          48.600          47.500          47.800          48.000  
R15  21667364.625    21667364.859    21667375.176    21667374.379   115783818.376   115783804.402    90054071.856    90054076.860          47.600          46.000          45.900          47.200  
R24  21854859.180    21854858.480    21854867.617    21854866.949   116867747.966   116867733.978    90897124.861    90897130.866          43.800          41.800          42.400          43.200  
E13  26376423.313    26376432.973    26376431.188    26376433.457   138609041.553   103506753.088   106206928.360   104856816.829          43.000          44.600          45.200          50.700  
E30  26215202.531    26215212.906    26215210.656    26215213.023   137761812.807   102874118.009   105557781.011   104215954.617          44.600          44.400          45.500          51.300  
E15  23643754.609    23643761.457    23643760.047    23643761.984   124248769.001    92783158.286    95203587.729    93993364.117          48.400          47.400          48.100          54.100  
E21  26835869.219    26835877.426    26835874.707    26835877.641   141023445.466   105309747.435   108056948.373   106683310.014          44.300          43.500          45.100          50.100  
E05  25705939.422    25705949.441    25705946.156    25705951.625   135085634.956   100875675.654   103507206.112   102191451.493          38.200          35.600          35.000          41.000  
E27  24450001.000    24450008.285    24450006.082    24450008.496   128485620.243    95947071.705    98450033.253    97198510.589          48.300          47.800          49.500          55.200  
C04  38669654.938    38669655.012   201363041.058   155706673.160          38.300          42.900  
C03  37647025.070    37647025.184   196037940.400   151588968.049          39.100          41.800  
C02  39127526.031    39127526.105   203747308.528   157550332.027          35.300          40.400  
C01  38202475.875    38202476.582   198930315.046   153825541.490          39.500          41.500  
C30  22168440.984                   115436886.229                          48.200                  
C29  22605799.320                   117714321.877                          48.800                  
C27  25640552.797                   133517067.937                          46.500                  
C20  24560753.016                   127894295.313                          43.200                  
C13  39121431.930    39121439.625   203715565.223   157525833.099          40.500          39.100  
> 2025 04 10 06 35 25.0000000  0 31
G17  20883276.063                    20883282.773   109742362.303                    85513553.932          47.800                          47.200  
G11  23649061.516                    23649071.367   124276694.680                    96838992.912          41.100                          45.600  
G14  23090708.305                    23090720.137   121342488.563                    94552613.962          40.800                          43.900  
G22  22196101.180    22196107.461                   116641297.628    90889349.784                          45.500          33.300                  
G03  22502111.461                    22502120.879   118249403.210                    92142405.680          42.500                          43.500  
G19  20067654.438    20067657.813                   105456228.220    82173708.223                          47.400          41.100                  
G06  21299411.500                    21299421.570   111929180.354                    87217555.697          46.400                          48.000  
G09  24022741.070                    24022758.109   126240341.396                    98369147.730          37.000                          42.100  
G04  23730173.234                    23730185.504   124702896.482                    97171126.519          40.000                          42.800  
R01  21214646.945    21214646.367                                   113404443.816   113404424.832                                          44.300          43.400                                  
R02  21239116.906    21239115.938    21239126.254    21239126.348   113336005.768   113335994.761    88150219.721    88150226.731          47.000          45.600          46.300          46.900  
R18  21872787.539    21872786.699    21872795.320    21872794.145   116758426.659   116758409.684    90812097.170    90812101.174          45.700          44.300          45.100          46.100  
R17  19913557.250    19913555.258    19913562.973    19913562.703   106561459.664   106561448.677    82881133.177    82881137.165          51.700          49.100          48.300          49.300  
R16  21704094.820    21704094.129    21704103.086    21704102.977   115939385.688   115939364.702    90175066.514    90175073.525          48.100          46.500          46.000          46.400  
R15  21668978.891    21668979.242    21668989.695    21668989.051   115792440.796   115792426.807    90060778.109    90060783.106          47.300          45.800          46.700          46.800  
R24  21855769.773    21855769.191    21855778.652    21855778.281   116872617.950   116872603.944    90900912.567    90900918.563          46.900          45.400          45.600          47.000  
E13  26373273.031    26373282.609    26373280.969    26373283.113   138592487.534   103494391.355   106194244.127   104844293.850          43.600          43.100          44.500          49.800  
E30  26216638.484    26216649.063    26216646.578    26216648.926   137769358.564   102879752.769   105563562.760   104221662.875          44.600          44.600          46.300          51.100  
E15  23642347.445    23642354.625    23642352.563    23642354.941   124241374.465    92777636.356    95197921.759    93987770.166          48.900          48.300          49.100          55.400  
E21  26832681.984    26832690.480    26832687.523    26832690.484   141006696.622   105297240.303   108044114.978   106670639.751          41.300          42.300          42.600          48.200  
E05  25703534.617    25703545.559    25703541.805    25703545.398   135072991.393   100866233.975   103497518.123   102181886.662          41.600          41.200          42.100          47.100  
E27  24449329.039    24449336.035    24449334.441    24449336.398   128482088.918    95944434.696    98447327.450    97195839.180          48.200          47.200          49.000          54.500  
C04  38668303.953    38668303.598   201356004.560   155701232.084          36.300          41.900  
C03  37645697.344    37645697.426   196031026.407   151583621.695          39.200          41.200  
C02  39126183.281    39126184.211   203740318.768   157544927.069          35.000          40.700  
C01  38201155.430    38201155.785   198923438.661   153820224.260          39.400          40.700  
C30  22168069.109                   115434950.852                          48.600                  
C29  22602962.125                   117699547.083                          48.000                  
C27  25641669.570                   133522885.756                          43.000                  
C20  24556442.695                   127871851.448                          44.400                  
C13  39118939.523    39118947.457   203702588.661   157515798.779          39.900          39.800  
> 2025 04 10 06 35 30.0000000  0 31
G17  20882884.922                    20882891.320   109740305.291                    85511951.079          47.200                          47.200  
G11  23645290.406                    23645300.008   124256873.466                    96823547.844          41.500                          44.500  
G14  23092812.852                    23092824.953   121353548.682                    94561232.169          41.800                          44.000  
G22  22197202.555    22197209.496                   116647084.843    90893859.272                          45.500          34.200                  
G03  22503660.000                    22503669.664   118257541.316                    92148747.063          43.000                          43.900  
G19  20065505.180    20065508.980                   105444936.114    82164909.180                          47.500          41.400                  
G06  21296867.586                    21296876.855   111915810.648                    87207137.750          47.300                          47.400  
G09  24018593.344                    24018609.957   126218542.517                    98352161.688          37.800                          41.800  
G04  23727011.969                    23727024.688   124686283.415                    97158181.324          38.900                          43.400  
R01  21214216.750    21214215.938                                   113402149.306   113402130.329                                          44.500          42.600                                  
R02  21235115.422    21235112.930    21235123.426    21235123.340   113314647.534   113314636.556    88133607.791    88133614.786          47.500          46.100          46.300          47.500  
R18  21869256.961    21869256.121    21869265.512    21869264.566   116739582.349   116739565.361    90797440.481    90797444.484          44.500          43.300          45.500          46.400  
R17  19912009.031    19912007.625    19912015.262    19912014.516   106553177.527   106553166.531    82874691.519    82874695.508          51.200          49.200          49.000          49.400  
R16  21702307.727    21702307.738    21702315.848    21702315.465   115929839.102   115929818.087    90167641.351    90167648.368          47.400          46.600          45.500          45.900  
R15  21670595.016    21670594.781    21670605.207    21670604.430   115801077.344   115801063.342    90067495.404    90067500.408          46.800          45.600          46.700          46.600  
R24  21856680.258    21856680.613    21856690.094    21856689.984   116877492.624   116877478.624    90904703.980    90904709.977          44.900          44.900          45.200          46.200  
E13  26370123.508    26370133.559    26370131.871    26370133.887   138575937.164   103482032.332   106181562.700   104831773.618          43.400          43.200          43.600          49.500  
E30  26218075.367    26218085.945    26218083.977    26218086.113   137776909.534   102885391.474   105569348.566   104227375.129          44.000          45.500          45.700          51.500  
E15  23640941.414    23640948.422    23640946.590    23640948.813   124233985.280    92772118.466    95192259.923    93982180.304          49.000          48.200          49.400          55.500  
E21  26829496.492    26829504.652    26829502.449    26829505.008   140989956.568   105284739.602   108031288.170   106657975.991          42.000          42.700          43.900          48.800  
E05  25701130.250    25701141.855    25701138.809    25701141.254   135060357.918   100856799.929   103487837.972   102172329.561          42.600          42.000          42.200          47.800  
E27  24448659.203    24448666.387    24448664.602    24448666.746   128478569.790    95941806.764    98444630.965    97193176.973          48.000          47.700          49.100          54.700  
C04  38666951.648    38666952.387   201348968.478   155695791.356          35.600          42.000  
C03  37644369.180    37644369.676   196024112.762   151578275.611          38.800          41.700  
C02  39124841.234    39124841.891   203733329.351   157539522.405          32.900          40.400  
C01  38199834.930    38199835.309   198916562.659   153814907.274          39.400          40.700  
C30  22167698.938                   115433022.016                          48.500                  
C29  22600125.602                   117684776.874                          47.600                  
C27  25642787.258                   133528705.935                          42.800                  
C20  24552133.492                   127849413.240                          44.000                  
C13  39116448.031    39116455.930   203689615.143   157505766.875          40.400          37.900  
> 2025 04 10 06 35 35.0000000  0 31
G17  20882495.320                    20882502.203   109738258.025                    85510355.797          47.300                          47.800  
G11  23641518.852                    23641528.715   124237056.563                    96808106.095          41.600                          44.900  
G14  23094918.633                    23094930.801   121364613.309                    94569853.953          41.600                          43.300  
G22  22198305.063    22198312.797                   116652881.934    90898376.492                          45.000          33.800                  
G03  22505209.953                    22505220.219   118265689.011                    92155095.870          42.100                          44.000  
G19  20063358.898    20063362.383                   105433655.388    82156119.002                          48.000          41.500                  
G06  21294324.609                    21294334.324   111902448.564                    87196725.733          47.000                          47.300  
G09  24014445.367                    24014461.648   126196746.816                    98335178.107          37.500                          41.600  
G04  23723853.078                    23723865.301   124669680.309                    97145243.871          39.000                          43.700  
R01  21213791.875    21213791.180                                   113399877.123   113399858.116                                          45.200          43.000                                  
R02  21231115.500    21231114.297    21231124.164    21231124.082   113293305.212   113293294.197    88117008.220    88117015.223          47.400          46.400          46.600          47.600  
R18  21865727.336    21865726.848    21865736.238    21865735.332   116720741.423   116720724.427    90782786.440    90782790.444          45.400          44.400          46.000          47.200  
R17  19910463.375    19910461.852    19910469.172    19910468.844   106544902.641   106544891.631    82868255.494    82868259.489          51.400          49.600          48.600          48.900  
R16  21700526.031    21700524.402    21700532.277    21700532.320   115920314.695   115920293.689    90160233.484    90160240.489          47.700          46.200          45.300          46.100  
R15  21672215.070    21672214.129    21672223.547    21672223.074   115809727.541   115809713.545    90074223.323    90074228.328          47.700          45.700          46.200          46.700  
R24  21857593.852    21857593.855    21857602.668    21857602.355   116882371.439   116882357.445    90908498.589    90908504.592          45.400          44.500          45.100          46.300  
E13  26366974.883    26366984.852    26366983.258    26366984.883   138559390.198   103469675.821   106168883.843   104819255.940          41.600          43.100          44.400          49.900  
E30  26219513.734    26219524.082    26219521.598    26219523.918   137784465.327   102891033.741   105575138.040   104233090.994          45.400          45.000          45.600          51.700  
E15  23639536.305    23639543.234    23639541.547    23639543.730   124226601.021    92766604.243    95186601.854    93976594.156          49.100          48.300          48.900          55.700  
E21  26826312.531    26826320.656    26826318.500    26826321.230   140973224.920   105272245.205   108018467.844   106645318.634          42.600          42.000          42.100          47.900  
E05  25698728.180    25698739.707    25698737.035    25698739.051   135047734.276   100847373.203   103478165.329   102162779.874          42.300          41.800          42.700          48.000  
E27  24447992.016    24447998.680    24447997.086    24447999.230   128475062.408    95939187.600    98441943.476    97190523.646          48.800          47.400          48.500          54.200  
C04  38665601.055    38665601.035   201341932.423   155690350.597          35.900          42.000  
C03  37643041.508    37643042.180   196017199.020   151572929.502          38.800          41.000  
C02  39123499.133    39123499.496   203726339.612   157534117.516          35.900          41.800  
C01  38198514.609    38198514.938   198909686.664   153809590.336          39.700          40.900  
C30  22167329.703                   115431099.289                          48.900                  
C29  22597289.641                   117670010.859                          47.500                  
C27  25643905.430                   133534528.294                          41.300                  
C20  24547825.766                   127826980.311                          43.900                  
C13  39113956.781    39113965.406   203676644.305   157495737.005          40.800          38.400  
> 2025 04 10 06 35 40.0000000  0 31
G17  20882107.508                    20882114.023   109736220.289                    85508767.943          47.200                          47.600  
G11  23637749.016                    23637758.527   124217243.598                    96792667.438          41.300                          44.000  
G14  23097024.672                    23097037.121   121375682.227                    94578479.007          41.700                          44.200  
G22  22199409.953    22199417.723                   116658688.604    90902901.146                          45.500          32.700                  
G03  22506761.977                    22506772.383   118273845.950                    92161451.914          42.300                          43.900  
G19  20061214.563    20061217.926                   105422385.770    82147337.483                          47.600          41.700                  
G06  21291783.523                    21291793.094   111889093.870                    87186319.481          47.200                          47.800  
G09  24010298.156                    24010314.938   126174954.149                    98318196.915          37.300                          40.500  
G04  23720696.141                    23720707.578   124653086.847                    97132313.929          39.700                          42.800  
R01  21213371.117    21213370.422                                   113397626.958   113397607.953                                          44.500          42.900                                  
R02  21227119.711    21227119.094    21227128.145    21227128.023   113271978.227   113271967.240    88100420.586    88100427.597          48.500          46.400          46.800          46.500  
R18  21862198.227    21862197.855    21862206.777    21862206.145   116701903.587   116701886.563    90768134.796    90768138.799          44.700          44.100          45.100          45.800  
R17  19908917.867    19908917.168    19908924.461    19908924.227   106536634.854   106536623.865    82861825.006    82861829.008          51.400          49.300          48.900          48.600  
R16  21698746.500    21698745.340    21698753.664    21698754.055   115910812.239   115910791.240    90152842.684    90152849.688          47.100          45.600          46.000          46.100  
R15  21673836.398    21673835.809    21673844.500    21673844.344   115818390.999   115818376.997    90080961.554    90080966.558          47.900          46.100          45.200          45.900  
R24  21858507.305    21858506.840    21858515.848    21858515.211   116887254.257   116887240.255    90912296.341    90912302.345          47.100          44.500          44.900          46.300  
E13  26363827.219    26363836.660    26363835.020    26363836.809   138542846.259   103457321.604   106156207.341   104806740.581          42.200          43.600          44.600          50.200  
E30  26220952.344    26220962.953    26220960.230    26220962.703   137792025.708   102896679.467   105580931.053   104238810.372          44.400          45.100          45.700          51.500  
E15  23638131.797    23638138.805    23638137.164    23638139.313   124219221.450    92761093.524    95180947.376    93971011.556          49.100          48.200          49.300          55.700  
E21  26823130.109    26823138.563    26823136.500    26823138.938   140956501.385   105259756.842   108005653.694   106632667.377          42.100          41.900          42.900          48.400  
E05  25696327.695    25696339.223    25696336.738    25696338.480   135035120.295   100837953.688   103468500.065   102153237.484          42.500          41.900          41.500          47.100  
E27  24447326.453    24447333.570    24447331.695    24447333.992   128471566.533    95936577.041    98439264.809    97187879.033          47.800          47.800          48.700          54.500  
C04  38664249.898    38664249.930   201334896.084   155684909.680          36.900          41.700  
C03  37641714.086    37641714.078   196010285.021   151567583.142          39.300          41.900  
C02  39122156.961    39122156.832   203719349.502   157528712.316          34.800          40.700  
C01  38197193.883    38197194.441   198902810.278   153804273.079          39.400          40.800  
C30  22166961.563                   115429182.438                          49.200                  
C29  22594454.844                   117655248.801                          47.700                  
C27  25645024.125                   133540352.429                          42.600                  
C20  24543518.398                   127804552.479                          44.300                  
C13  39111465.961    39111474.855   203663675.902   157485709.026          40.700          38.600  
> 2025 04 10 06 35 45.0000000  0 31
G17  20881721.602                    20881728.055   109734192.238                    85507187.637          47.000                          47.300  
G11  23633979.000                    23633988.617   124197434.857                    96777232.081          40.900                          43.900  
G14  23099132.398                    23099143.727   121386755.627                    94587107.601          41.000                          43.900  
G22  22200516.609    22200524.594                   116664505.130    90907433.492                          45.400          32.800                  
G03  22508315.609                    22508326.672   118282012.407                    92167815.386          41.400                          44.300  
G19  20059072.039    20059075.730                   105411127.513    82138564.816                          47.600          41.100                  
G06  21289243.266                    21289253.074   111875746.709                    87175919.109          47.100                          47.700  
G09  24006151.297                    24006168.340   126153164.741                    98301218.259          37.900                          40.000  
G04  23717539.609                    23717551.414   124636503.313                    97119391.697          39.700                          42.600  
R01  21212953.469    21212952.773                                   113395399.071   113395380.102                                          43.800          42.900                                  
R02  21223125.766    21223124.328    21223133.777    21223133.480   113250666.766   113250655.766    88083845.021    88083852.031          48.900          46.800          46.000          46.800  
R18  21858669.414    21858669.512    21858677.977    21858677.168   116683068.974   116683051.952    90753485.665    90753489.677          45.300          44.400          45.400          45.800  
R17  19907374.281    19907373.348    19907380.449    19907380.586   106528374.333   106528363.323    82855400.157    82855404.152          51.300          49.300          48.500          49.400  
R16  21696971.766    21696970.488    21696979.645    21696979.195   115901332.068   115901311.070    90145469.227    90145476.230          47.200          45.600          46.400          46.700  
R15  21675459.602    21675459.484    21675468.547    21675468.766   115827068.123   115827054.127    90087710.402    90087715.399          48.300          45.900          45.200          45.800  
R24  21859421.234    21859420.301    21859429.176    21859428.648   116892141.164   116892127.185    90916097.261    90916103.271          46.500          45.300          45.100          46.000  
E13  26360678.867    26360689.043    26360687.684    26360689.281   138526305.613   103444969.840   106143533.352   104794227.704          41.800          43.600          44.700          50.000  
E30  26222392.359    26222402.664    26222399.848    26222402.273   137799590.821   102902328.716   105586727.672   104244533.301          44.700          45.200          46.100          51.700  
E15  23636728.375    23636735.723    23636733.941    23636736.133   124211846.743    92755586.437    95175296.627    93965432.640          49.200          48.700          49.400          55.600  
E21  26819949.453    26819957.699    26819955.730    26819957.887   140939786.173   105247274.700   107992845.931   106620022.425          42.100          42.400          43.500          48.500  
E05  25693928.234    25693940.789    25693938.113    25693940.047   135022516.060   100828541.441   103458842.302   102143702.480          42.200          41.600          42.700          47.800  
E27  24446663.664    24446670.773    24446668.664    24446671.043   128468082.382    95933975.226    98436595.127    97185243.286          48.000          47.100          48.900          54.400  
C04  38662898.625    38662898.676   201327859.687   155679468.682          36.000          41.300  
C03  37640386.547    37640386.469   196003370.887   151562236.706          39.200          42.000  
C02  39120813.984    39120814.598   203712359.177   157523306.944          34.300          40.500  
C01  38195873.367    38195873.906   198895933.830   153798955.775          39.300          40.800  
C30  22166594.539                   115427271.676                          47.900                  
C29  22591620.953                   117640490.913                          47.700                  
C27  25646143.070                   133546178.642                          42.400                  
C20  24539212.570                   127782129.866                          44.700                  
C13  39108976.242    39108984.648   203650710.140   157475683.090          40.400          39.000  
> 2025 04 10 06 35 50.0000000  0 31
G17  20881337.094                    20881344.086   109732173.970                    85505614.952          47.000                          47.100  
G11  23630210.477                    23630220.219   124177630.378                    96761800.066          39.800                          42.800  
G14  23101240.039                    23101252.148   121397833.537                    94595739.688          41.100                          44.100  
G22  22201626.148    22201632.664                   116670331.516    90911973.523                          46.200          33.200                  
G03  22509871.109                    22509882.195   118290188.411                    92174186.281          41.100                          44.700  
G19  20056931.320    20056935.262                   105399880.708    82129801.067                          47.500          41.800                  
G06  21286704.945                    21286714.723   111862407.178                    87165524.676          47.400                          48.000  
G09  24002006.844                    24002022.367   126131378.713                    98284242.251          38.200                          40.300  
G04  23714385.609                    23714397.730   124619929.748                    97106477.282          39.500                          42.800  
R01  21212540.711    21212540.836                                   113393193.534   113393174.528                                          42.700          42.400                                  
R02  21219134.086    21219133.117    21219143.652    21219143.449   113229371.377   113229360.392    88067281.951    88067288.962          48.500          47.000          46.800          47.700  
R18  21855143.156    21855141.730    21855151.016    21855150.633   116664237.716   116664220.728    90738839.139    90738843.135          45.600          43.600          45.700          46.600  
R17  19905831.805    19905831.223    19905838.344    19905837.879   106520121.067   106520110.072    82848980.948    82848984.950          51.400          49.100          48.500          49.800  
R16  21695200.555    21695200.098    21695208.820    21695208.684   115891874.139   115891853.132    90138113.064    90138120.076          47.300          45.900          45.700          46.800  
R15  21677087.016    21677085.371    21677095.219    21677095.121   115835758.688   115835744.685    90094469.733    90094474.724          48.300          45.500          46.000          46.300  
R24  21860335.570    21860334.754    21860343.125    21860343.473   116897032.354   116897018.370    90919901.500    90919907.497          45.600          44.100          43.800          45.100  
E13  26357531.891    26357542.004    26357540.316    26357542.250   138509768.252   103432620.533   106130861.887   104781717.314          43.000          43.300          43.700          49.500  
E30  26223833.063    26223843.438    26223840.531    26223842.809   137807160.769   102907981.571   105592528.014   104250259.900          45.300          45.100          45.300          51.700  
E15  23635326.188    23635333.230    23635331.352    23635333.688   124204476.994    92750083.052    95169649.677    93959857.475          48.700          48.400          48.900          55.700  
E21  26816770.258    26816778.766    26816776.234    26816778.918   140923079.356   105234798.847   107980044.625   106607383.842          43.800          41.700          42.000          48.100  
E05  25691531.602    25691544.156    25691541.344    25691543.480   135009921.742   100819136.620   103449192.128   102134174.984          42.200          42.100          43.000          48.000  
E27  24446002.945    24446009.969    24446007.578    24446010.203   128464610.006    95931382.221    98433934.471    97182616.454          48.000          46.800          48.200          54.400  
C04  38661546.563    38661547.563   201320823.342   155674027.736          36.200          41.600  
C03  37639058.688    37639058.648   195996456.770   151556890.258          39.400          41.400  
C02  39119471.320    39119471.836   203705368.628   157517901.415          34.500          40.400  
C01  38194553.266    38194553.242   198889057.352   153793638.442          39.800          40.500  
C30  22166228.883                   115425367.054                          48.500                  
C29  22588787.500                   117625737.276                          47.900                  
C27  25647261.930                   133552006.945                          41.400                  
C20  24534907.859                   127759712.652                          44.200                  
C13  39106486.594    39106495.465   203637747.080   157465659.239          40.100          38.500  
> 2025 04 10 06 35 55.0000000  0 31
G17  20880954.938                    20880961.898   109730165.462                    85504049.868          47.000                          46.900  
G11  23626442.531                    23626451.805   124157830.206                    96746371.359          40.800                          42.800  
G14  23103349.078                    23103361.152   121408915.975                    94604375.314          41.400                          43.100  
G22  22202736.258    22202743.844                   116676167.763    90916521.226                          46.600          33.400                  
G03  22511429.391                    22511439.727   118298373.938                    92180564.593          41.100                          44.700  
G19  20054793.336    20054797.066                   105388645.273    82121046.177                          47.500          41.600                  
G06  21284168.344                    21284177.996   111849075.306                    87155136.202          48.200                          47.600  
G09  23997860.977                    23997877.500   126109595.984                    98267268.761          38.500                          40.600  
G04  23711233.711                    23711245.449   124603366.159                    97093570.597          39.000                          43.100  
R01  21212133.742    21212133.281                                   113391010.305   113390991.321                                          44.700          43.500                                  
R02  21215146.141    21215145.289    21215155.660    21215155.359   113208091.626   113208080.619    88050731.063    88050738.067          48.300          46.000          46.600          48.100  
R18  21851614.383    21851613.777    21851624.000    21851622.766   116645409.835   116645392.850    90724195.250    90724199.254          45.000          42.600          46.300          47.100  
R17  19904290.688    19904289.637    19904297.160    19904296.605   106511875.200   106511864.205    82842567.499    82842571.501          50.600          49.100          48.600          49.500  
R16  21693434.961    21693434.855    21693442.742    21693442.887   115882438.626   115882417.633    90130774.334    90130781.340          48.300          46.100          46.400          46.600  
R15  21678714.391    21678714.508    21678724.316    21678723.551   115844462.834   115844448.817    90101239.599    90101244.596          47.500          45.800          46.000          45.800  
R24  21861250.734    21861250.387    21861258.738    21861258.883   116901927.794   116901913.811    90923709.043    90923715.048          46.000          44.500          44.200          45.100  
E13  26354385.289    26354395.879    26354394.328    26354396.105   138493234.283   103420273.746   106118193.016   104769209.489          43.400          41.900          44.000          49.700  
E30  26225274.211    26225284.672    26225282.141    26225284.309   137814735.531   102913638.031   105598332.031   104255990.142          44.900          44.400          44.900          51.700  
E15  23633924.531    23633931.719    23633929.891    23633932.133   124197112.196    92744583.370    95164006.524    93954286.053          49.100          47.700          48.700          55.600  
E21  26813592.469    26813601.426    26813598.988    26813601.262   140906380.983   105222329.291   107967249.780   106594751.645          42.800          42.300          42.600          48.500  
E05  25689137.617    25689149.043    25689145.668    25689148.414   134997337.286   100809739.162   103439549.500   102124654.941          42.400          41.300          41.900          47.500  
E27  24445344.094    24445351.438    24445349.422    24445351.758   128461149.433    95928798.015    98431282.857    97179998.545          48.500          46.400          47.400          54.200  
C04  38660195.578    38660196.230   201313786.989   155668586.783          36.800          41.000  
C03  37637730.977    37637730.625   195989542.594   151551543.793          39.200          41.400  
C02  39118128.781    39118129.574   203698377.997   157512495.806          34.800          40.400  
C01  38193232.453    38193232.652   198882180.850   153788321.100          39.400          40.900  
C30  22165864.430                   115423468.571                          48.600                  
C29  22585955.063                   117610987.869                          47.800                  
C27  25648381.969                   133557837.359                          41.200                  
C20  24530603.922                   127737300.740                          45.100                  
C13  39103998.047    39104006.629   203624786.680   157455637.452          39.700          38.300  
> 2025 04 10 06 36  0.0000000  0 31
G17  20880574.133                    20880581.555   109728166.163                    85502491.980          46.800                          47.100  
G11  23622675.188                    23622684.902   124138033.739                    96730945.547          40.500                          42.800  
G14  23105459.141                    23105470.539   121420002.356                    94613014.019          42.500                          42.700  
G22  22203848.758    22203856.176                   116682013.306    90921076.183                          46.300          32.600                  
G03  22512989.609                    22512999.398   118306568.432                    92186949.899          42.500                          44.300  
G19  20052657.625    20052661.641                   105377420.760    82112299.802                          47.800          41.300                  
G06  21281632.438                    21281641.996   111835750.496                    87144753.249          47.400                          47.500  
G09  23993716.758                    23993732.238   126087816.043                    98250297.492          38.800                          40.000  
G04  23708083.664                    23708095.367   124586812.018                    97080671.320          38.900                          44.100  
R01  21211728.406    21211728.531                                   113388848.825   113388829.848                                          45.300          43.800                                  
R02  21211160.961    21211159.875    21211170.711    21211170.027   113186827.247   113186816.254    88034192.127    88034199.123          47.400          46.000          46.900          47.300  
R18  21848088.055    21848087.566    21848096.875    21848096.289   116626584.796   116626567.800    90709553.578    90709557.567          45.000          43.500          45.600          46.100  
R17  19902750.938    19902749.770    19902757.238    19902756.824   106503636.129   106503625.141    82836159.332    82836163.334          51.300          49.300          49.000          49.500  
R16  21691672.445    21691670.934    21691679.484    21691679.914   115873024.767   115873003.781    90123452.438    90123459.441          47.000          45.800          46.100          45.500  
R15  21680344.906    21680345.258    21680355.707    21680355.082   115853180.021   115853166.019    90108019.607    90108024.611          46.600          45.600          46.100          46.000  
R24  21862167.617    21862165.742    21862174.828    21862174.480   116906826.919   116906812.941    90927519.461    90927525.458          46.700          44.300          44.600          44.500  
E13  26351239.813    26351250.516    26351248.266    26351250.316   138476703.082   103407929.058   106105526.288   104756703.779          43.000          42.600          44.400          49.500  
E30  26226716.625    26226726.863    26226724.613    26226726.637   137822314.555   102919297.668   105604139.328   104261723.604          44.700          45.000          45.700          51.700  
E15  23632523.914    23632531.203    23632529.609    23632531.676   124189751.783    92739086.954    95158366.724    93948717.943          48.900          48.300          49.400          55.700  
E21  26810416.508    26810425.105    26810422.715    26810425.023   140889690.514   105209865.626   107954460.970   106582125.407          42.800          42.500          43.600          48.700  
E05  25686744.422    25686755.391    25686752.813    25686755.434   134984762.165   100800348.681   103429914.047   102115141.970          42.400          41.000          42.200          47.600  
E27  24444687.930    24444695.270    24444693.016    24444695.449   128457700.072    95926222.191    98428639.837    97177389.125          47.800          47.000          47.900          54.200  
C04  38658845.133    38658844.199   201306750.138   155663145.442          36.400          41.900  
C03  37636402.539    37636402.883   195982627.828   151546196.867          39.400          41.800  
C02  39116787.078    39116787.105   203691386.682   157507089.690          34.900          40.600  
C01  38191911.586    38191912.039   198875303.756   153783003.300          39.300          40.800  
C30  22165500.836                   115421575.656                          48.800                  
C29  22583123.258                   117596242.178                          47.600                  
C27  25649502.102                   133563669.367                          41.100                  
C20  24526301.023                   127714893.693                          44.800                  
C13  39101509.242    39101518.031   203611828.449   157445617.342          40.000          39.700  
> 2025 04 10 06 36  5.0000000  0 31
G17  20880196.563                    20880202.793   109726176.862                    85500941.863          46.900                          47.700  
G11  23618909.133                    23618918.555   124118241.837                    96715523.312          40.300                          43.200  
G14  23107569.398                    23107581.914   121431093.425                    94621656.354          42.500                          42.200  
G22  22204963.406    22204970.285                   116687868.904    90925638.961                          45.700          33.800                  
G03  22514551.438                    22514560.680   118314772.576                    92193342.730          42.800                          44.100  
G19  20050523.992    20050527.797                   105366207.863    82103562.479                          47.600          41.000                  
G06  21279098.148                    21279107.809   111822433.503                    87134376.376          47.500                          47.600  
G09  23989572.531                    23989588.582   126066039.736                    98233329.044          38.200                          40.400  
G04  23704935.086                    23704947.223   124570268.065                    97067779.986          38.800                          43.800  
R01  21211329.383    21211327.750                                   113386709.928   113386690.928                                          45.000          43.000                                  
R02  21207179.398    21207178.898    21207189.145    21207188.836   113165578.714   113165567.714    88017665.512    88017672.516          47.200          45.700          47.800          47.600  
R18  21844562.539    21844562.637    21844571.301    21844570.434   116607763.321   116607746.312    90694914.674    90694918.680          45.000          43.500          45.600          46.000  
R17  19901212.625    19901211.809    19901219.035    19901218.594   106495404.581   106495393.586    82829757.027    82829761.037          51.200          49.300          49.000          49.500  
R16  21689914.773    21689912.559    21689921.699    21689922.371   115863633.405   115863612.385    90116148.025    90116155.043          47.200          44.800          45.700          46.400  
R15  21681979.219    21681978.395    21681989.473    21681988.871   115861910.921   115861896.927    90114810.297    90114815.308          47.000          45.400          46.200          45.800  
R24  21863084.344    21863082.941    21863092.121    21863091.566   116911730.448   116911716.479    90931333.313    90931339.311          46.800          44.300          45.000          45.900  
E13  26348095.258    26348105.586    26348102.395    26348105.043   138460175.439   103395587.011   106092862.261   104744200.744          43.300          42.700          44.000          49.700  
E30  26228159.813    26228170.086    26228167.648    26228169.844   137829898.612   102924961.063   105609950.467   104267460.872          45.700          45.600          45.800          51.700  
E15  23631124.289    23631131.375    23631129.641    23631131.789   124182396.522    92733594.396    95152730.887    93943153.745          48.800          47.800          48.600          55.700  
E21  26807241.773    26807250.762    26807248.180    26807250.520   140873008.634   105197408.390   107941678.759   106569505.681          42.400          42.300          42.700          48.600  
E05  25684353.211    25684364.031    25684361.969    25684364.422   134972197.170   100790965.744   103420286.317   102105636.641          41.500          40.300          42.600          47.300  
E27  24444033.703    24444040.828    24444038.715    24444041.078   128454262.685    95923655.305    98426005.992    97174788.753          48.300          46.700          47.600          54.300  
C04  38657493.641    38657493.293   201299713.486   155657704.252          36.900          42.000  
C03  37635075.398    37635075.105   195975713.246   151540850.065          39.400          41.400  
C02  39115443.961    39115444.461   203684395.425   157501683.603          34.700          40.400  
C01  38190590.930    38190591.102   198868426.862   153777685.654          39.400          40.500  
C30  22165138.281                   115419689.138                          48.900                  
C29  22580292.250                   117581500.921                          47.700                  
C27  25650621.883                   133569503.655                          41.400                  
C20  24521998.766                   127692492.230                          45.400                  
C13  39099021.547    39099030.184   203598873.131   157435599.489          39.900          39.800  
> 2025 04 10 06 36 10.0000000  0 32
G17  20879819.141                    20879825.938   109724197.636                    85499399.615          46.600                          47.500  
G11  23615143.344                    23615153.004   124098454.342                    96700104.495          40.500                          42.600  
G14  23109681.094                    23109692.813   121442189.145                    94630302.334          42.900                          42.300  
G22  22206078.891    22206086.266                   116693734.514    90930209.566                          45.500          33.400                  
G03  22516113.375                    22516123.465   118322986.446                    92199743.145          43.300                          45.000  
G19  20048392.273    20048396.152                   105355006.605    82094834.227                          47.600          41.300                  
G06  21276565.766                    21276575.426   111809124.348                    87124005.605          47.800                          47.200  
G09  23985429.930                    23985445.305   126044267.033                    98216363.396          39.000                          41.100  
G04  23701789.492                    23701800.898   124553734.443                    97054896.681          39.200                          43.400  
G12  24365238.039                    24365244.188   128040182.440                    99771610.110          38.200                          36.600  
R01  21210933.469    21210931.953                                   113384593.402   113384574.411                                          44.900          43.100                                  
R02  21203201.453    21203199.547    21203209.578    21203209.211   113144346.416   113144335.400    88001151.526    88001158.522          48.300          46.500          47.100          47.200  
R18  21841037.523    21841036.332    21841045.230    21841045.234   116588945.358   116588928.354    90680278.484    90680282.495          45.800          43.600          44.700          45.700  
R17  19899676.336    19899675.168    19899682.461    19899682.219   106487180.493   106487169.506    82823360.506    82823364.509          51.500          49.700          48.900          49.800  
R16  21688161.969    21688159.871    21688168.465    21688169.035   115854264.730   115854243.733    90108861.277    90108868.289          47.900          45.800          45.900          47.000  
R15  21683616.664    21683615.723    21683626.508    21683625.504   115870655.615   115870641.619    90121611.694    90121616.700          46.400          45.000          45.900          46.000  
R24  21864002.406    21864001.355    21864010.527    21864010.355   116916638.521   116916624.564    90935150.690    90935156.687          46.200          43.900          44.700          46.100  
E13  26344951.023    26344960.891    26344958.078    26344960.605   138443651.312   103383247.576   106080200.936   104731700.361          44.300          43.300          44.400          49.800  
E30  26229603.773    26229613.813    26229611.563    26229614.008   137837487.614   102930628.153   105615765.393   104273201.883          45.300          45.100          45.800          51.500  
E15  23629725.688    23629732.887    23629730.918    23629733.211   124175046.388    92728105.658    95147098.962    93937593.419          48.500          48.100          48.600          55.700  
E21  26804069.430    26804078.203    26804075.484    26804077.840   140856335.407   105184957.603   107928903.168   106556892.492          42.900          42.400          42.700          48.300  
E05  25681964.258    25681974.980    25681973.105    25681975.098   134959642.229   100781590.334   103410666.320   102096138.932          41.700          40.900          42.100          47.300  
E27  24443382.141    24443389.059    24443387.184    24443389.426   128450837.299    95921097.376    98423381.338    97172197.468          48.200          47.400          48.200          54.200  
C04  38656142.609    38656141.902   201292677.021   155652263.215          36.900          42.200  
C03  37633747.156    37633747.121   195968798.843   151535503.420          39.600          41.100  
C02  39114101.336    39114101.844   203677404.127   157496277.497          34.500          40.500  
C01  38189270.406    38189270.926   198861550.126   153772368.125          39.500          40.900  
C30  22164777.289                   115417808.937                          48.300                  
C29  22577462.414                   117566764.126                          47.800                  
C27  25651743.172                   133575340.202                          41.200                  
C20  24517697.828                   127670096.325                          45.100                  
C13  39096534.102    39096542.633   203585920.777   157425583.923          39.400          39.700  
> 2025 04 10 06 36 15.0000000  0 32
G17  20879445.039                    20879451.723   109722228.594                    85497865.293          46.900                          47.300  
G11  23611378.180                    23611388.828   124078671.638                    96684689.389          40.300                          43.600  
G14  23111793.102                    23111805.203   121453289.732                    94638952.097          41.800                          42.400  
G22  22207197.664    22207204.836                   116699610.388    90934788.154                          46.100          33.400                  
G03  22517678.703                    22517688.887   118331210.202                    92206151.261          43.100                          44.800  
G19  20046263.180    20046266.887                   105343817.274    82086115.262                          47.900          41.300                  
G06  21274034.766                    21274044.578   111795823.255                    87113641.108          47.500                          47.600  
G09  23981286.961                    23981302.566   126022498.159                    98199400.727          39.800                          42.300  
G04  23698645.227                    23698656.383   124537211.207                    97042021.459          38.500                          42.500  
G12  24361178.641                    24361188.762   128018872.695                    99755005.134          37.100                          37.100  
R01  21210541.148    21210539.867                                   113382499.700   113382480.717                                          44.400          43.200                                  
R02  21199225.313    21199223.992    21199233.586    21199233.289   113123130.429   113123119.398    87984650.216    87984657.227          48.800          47.200          46.800          46.800  
R18  21837512.547    21837512.059    21837520.828    21837520.359   116570131.180   116570114.177    90665645.229    90665649.233          44.800          43.400          45.200          46.400  
R17  19898140.883    19898139.949    19898146.871    19898146.430   106478964.332   106478953.343    82816970.154    82816974.157          51.200          49.800          48.600          49.500  
R16  21686411.547    21686409.684    21686418.473    21686418.137   115844918.754   115844897.764    90101592.189    90101599.193          48.600          46.100          46.200          47.600  
R15  21685254.938    21685254.820    21685265.227    21685264.594   115879414.086   115879400.095    90128423.808    90128428.812          46.600          45.300          45.900          46.500  
R24  21864920.500    21864920.035    21864928.488    21864928.441   116921551.138   116921537.155    90938971.595    90938977.600          46.000          44.400          45.000          46.400  
E13  26341807.359    26341816.723    26341814.098    26341816.758   138427130.982   103370910.973   106067542.502   104719202.846          44.000          43.100          44.000          49.800  
E30  26231048.555    26231058.949    26231056.789    26231059.254   137845081.842   102936299.155   105621584.332   104278946.849          44.900          44.800          45.800          51.500  
E15  23628328.055    23628335.203    23628333.375    23628335.563   124167701.650    92722620.949    95141471.172    93932037.166          48.400          47.900          49.000          55.700  
E21  26800898.313    26800907.297    26800904.391    26800906.688   140839671.060   105172513.458   107916134.385   106544286.027          43.200          42.800          42.600          48.500  
E05  25679576.727    25679587.949    25679585.652    25679587.906   134947097.664   100772222.666   103401054.292   102086649.087          41.900          41.700          41.900          47.500  
E27  24442732.445    24442739.504    24442737.816    24442739.918   128447424.126    95918548.568    98420766.038    97169615.409          47.600          47.100          48.000          54.400  
C04  38654790.992    38654791.543   201285641.057   155646822.567          36.600          41.100  
C03  37632419.578    37632419.508   195961884.823   151530157.068          39.500          41.700  
C02  39112759.258    39112758.973   203670413.202   157490871.667          34.500          40.800  
C01  38187950.023    38187950.086   198854673.791   153767050.911          39.400          41.100  
C30  22164417.570                   115415935.312                          48.400                  
C29  22574632.961                   117552031.977                          47.800                  
C27  25652864.367                   133581179.304                          40.200                  
C20  24513397.930                   127647706.246                          45.400                  
C13  39094047.477    39094055.973   203572971.434   157415570.704          39.900          39.500  
> 2025 04 10 06 36 20.0000000  0 32
G17  20879071.766                    20879078.691   109720268.648                    85496338.050          46.700                          47.200  
G11  23607614.086                    23607624.449   124058892.476                    96669277.103          40.900                          44.200  
G14  23113906.672                    23113918.758   121464394.127                    94647604.826          42.400                          43.000  
G22  22208317.297    22208325.023                   116705495.414    90939373.879                          45.100          32.700                  
G03  22519245.383                    22519255.176   118339442.724                    92212566.204          42.900                          45.500  
G19  20044135.820    20044139.555                   105332638.754    82077404.732                          47.200          41.300                  
G06  21271504.797                    21271514.641   111782529.127                    87103282.051          48.000                          47.900  
G09  23977144.031                    23977160.770   126000732.020                    98182440.175          39.200                          42.600  
G04  23695502.758                    23695513.930   124520697.370                    97029153.569          39.700                          42.700  
G12  24357128.188                    24357135.438   127997572.671                    99738407.724          39.000                          36.300  
R01  21210153.680    21210152.750                                   113380427.610   113380408.619                                          43.700          43.300                                  
R02  21195252.414    21195250.273    21195260.363    21195259.789   113101929.632   113101918.610    87968160.720    87968167.738          48.700          46.900          46.300          46.500  
R18  21833990.070    21833987.941    21833997.773    21833996.852   116551319.750   116551302.746    90651014.136    90651018.146          44.900          43.300          45.500          46.000  
R17  19896606.156    19896605.457    19896612.480    19896612.426   106470754.749   106470743.746    82810584.919    82810588.923          51.000          49.600          48.900          49.500  
R16  21684663.875    21684664.711    21684673.832    21684673.301   115835594.383   115835573.407    90094339.911    90094346.915          46.700          45.700          46.000          46.700  
R15  21686896.820    21686896.230    21686906.465    21686905.836   115888185.518   115888171.537    90135245.999    90135251.002          46.300          45.500          45.400          46.600  
R24  21865840.813    21865839.762    21865848.355    21865848.082   116926467.440   116926453.457    90942795.375    90942801.381          46.800          44.500          44.900          46.600  
E13  26338664.383    26338673.391    26338671.188    26338673.605   138410613.290   103358576.351   106054886.095   104706707.328          44.000          43.300          44.300          49.700  
E30  26232494.445    26232504.871    26232502.527    26232505.250   137852680.163   102941973.207   105627406.403   104284694.912          44.000          45.100          45.800          51.400  
E15  23626930.922    23626938.266    23626936.391    23626938.633   124160361.152    92717139.405    95135846.633    93926484.125          49.000          48.400          48.900          55.700  
E21  26797728.289    26797737.520    26797735.035    26797737.094   140823014.504   105160075.126   107903371.583   106531685.464          43.200          42.400          42.500          48.200  
E05  25677191.023    25677203.227    25677200.180    25677202.629   134934562.344   100762861.896   103391449.306   102077166.208          41.500          42.200          41.800          47.500  
E27  24442085.102    24442092.152    24442090.324    24442092.586   128444022.024    95916008.026    98418159.228    97167041.737          48.900          47.300          48.400          54.400  
C04  38653439.875    38653439.480   201278604.393   155641381.369          36.500          40.900  
C03  37631091.555    37631091.488   195954970.104   151524810.159          39.700          41.600  
C02  39111416.273    39111416.543   203663421.404   157485465.173          34.800          40.500  
C01  38186629.313    38186629.793   198847796.765   153761733.162          39.400          40.800  
C30  22164058.719                   115414067.167                          48.500                  
C29  22571804.523                   117537303.453                          47.700                  
C27  25653986.508                   133587019.844                          40.000                  
C20  24509099.727                   127625320.928                          46.300                  
C13  39091560.969    39091569.508   203560024.165   157405559.079          39.700          40.100  
> 2025 04 10 06 36 25.0000000  0 32
G17  20878700.641                    20878707.547   109718319.261                    85494819.032          46.900                          47.400  
G11  23603851.523                    23603861.938   124039118.417                    96653868.755          40.800                          43.900  
G14  23116020.914                    23116032.578   121475503.732                    94656261.616          42.700                          43.900  
G22  22209438.953    22209446.402                   116711390.952    90943967.789                          44.800          33.300                  
G03  22520812.938                    22520823.988   118347685.552                    92218989.166          42.200                          45.100  
G19  20042010.664    20042014.789                   105321472.476    82068703.726                          47.500          41.700                  
G06  21268977.000                    21268986.391   111769243.358                    87092929.524          48.100                          47.600  
G09  23973003.789                    23973019.371   125978970.085                    98165482.906          39.500                          42.600  
G04  23692362.078                    23692373.441   124504194.365                    97016294.109          39.900                          42.500  
G12  24353075.547                    24353085.027   127976283.959                    99721819.098          38.000                          36.900  
R01  21209770.523    21209769.359                                   113378378.663   113378359.665                                          44.500          43.100                                  
R02  21191282.375    21191281.055    21191290.094    21191290.223   113080745.376   113080734.382    87951684.092    87951691.096          48.100          46.700          46.600          46.700  
R18  21830465.508    21830465.254    21830474.410    21830473.590   116532512.476   116532495.474    90636386.257    90636390.254          45.500          43.900          45.500          46.700  
R17  19895074.156    19895073.340    19895080.512    19895080.441   106462553.237   106462542.249    82804205.976    82804209.972          51.000          49.800          48.900          49.800  
R16  21682923.828    21682923.488    21682932.133    21682931.945   115826293.123   115826272.116    90087105.580    90087112.583          46.200          45.500          46.100          46.500  
R15  21688540.969    21688541.086    21688550.168    21688550.008   115896971.009   115896957.029    90142079.149    90142084.153          47.100          45.500          44.500          45.000  
R24  21866760.023    21866759.441    21866768.129    21866768.191   116931388.710   116931374.709    90946623.020    90946629.023          46.100          44.600          45.300          46.400  
E13  26335521.258    26335530.691    26335529.145    26335531.273   138394099.729   103346244.780   106042232.840   104694214.918          44.000          42.200          43.800          49.200  
E30  26233941.055    26233951.473    26233949.363    26233951.930   137860284.077   102947651.424   105633232.755   104290447.200          44.700          44.300          45.400          51.200  
E15  23625535.148    23625542.441    23625540.754    23625542.969   124153026.341    92711662.109    95130226.447    93920935.384          48.800          47.800          48.600          55.700  
E21  26794560.289    26794569.910    26794566.859    26794569.117   140806367.146   105147643.665   107890615.811   106519091.848          43.100          42.400          42.200          48.200  
E05  25674808.047    25674819.594    25674817.156    25674819.215   134922037.740   100753509.114   103381852.553   102067691.442          41.400          41.600          42.200          47.700  
E27  24441439.945    24441447.121    24441445.434    24441447.609   128440632.469    95913476.854    98415562.018    97164477.546          48.000          45.900          47.300          54.200  
C04  38652088.742    38652088.398   201271568.538   155635940.810          36.500          40.600  
C03  37629763.891    37629764.066   195948056.145   151519463.848          39.200          41.800  
C02  39110073.289    39110073.574   203656430.258   157480059.176          34.600          40.200  
C01  38185308.859    38185309.215   198840920.468   153756415.969          39.900          40.900  
C30  22163701.469                   115412205.934                          49.100                  
C29  22568977.367                   117522579.947                          48.300                  
C27  25655109.117                   133592863.278                          40.600                  
C20  24504801.977                   127602941.789                          46.000                  
C13  39089075.250    39089083.336   203547080.378   157395550.131          40.200          40.000  
> 2025 04 10 06 36 30.0000000  0 32
G17  20878331.828                    20878338.484   109716379.275                    85493307.368          46.800                          47.100  
G11  23600090.000                    23600099.773   124019348.308                    96638463.521          41.300                          43.900  
G14  23118135.305                    23118147.352   121486617.406                    94664921.572          40.600                          42.400  
G22  22210562.219    22210570.242                   116717295.962    90948569.085                          45.200          32.900                  
G03  22522383.781                    22522393.715   118355937.401                    92225419.180          42.200                          45.100  
G19  20039888.117    20039891.859                   105310317.285    82060011.376                          47.500          41.500                  
G06  21266449.141                    21266459.422   111755964.930                    87082582.700          47.400                          47.600  
G09  23968862.023                    23968879.422   125957211.267                    98148528.088          38.300                          42.500  
G04  23689223.633                    23689235.590   124487701.126                    97003442.282          39.400                          42.600  
G12  24349028.102                    24349035.266   127955005.425                    99705238.443          39.300                          37.700  
R01  21209391.602    21209390.320                                   113376351.658   113376332.675                                          44.900          43.100                                  
R02  21187314.867    21187314.367    21187323.770    21187323.813   113059576.855   113059565.855    87935219.706    87935226.709          48.200          46.700          45.900          47.200  
R18  21826942.945    21826942.105    21826951.445    21826950.559   116513708.261   116513691.241    90621760.745    90621764.742          45.800          44.300          45.500          46.300  
R17  19893542.500    19893541.566    19893548.500    19893548.465   106454358.801   106454347.806    82797832.526    82797836.522          50.900          49.600          48.800          49.300  
R16  21681188.203    21681186.574    21681195.141    21681194.789   115817013.804   115816992.819    90079888.339    90079895.356          47.100          45.600          46.000          46.700  
R15  21690186.586    21690186.113    21690195.805    21690195.871   115905769.682   115905755.691    90148922.560    90148927.557          47.300          45.000          44.600          45.300  
R24  21867680.211    21867679.629    21867689.711    21867689.293   116936313.734   116936299.757    90950453.593    90950459.596          45.800          43.900          44.700          46.400  
E13  26332378.492    26332388.918    26332387.277    26332389.340   138377589.189   103333915.492   106029581.916   104681724.815          43.500          43.000          44.500          49.500  
E30  26235388.930    26235399.363    26235397.438    26235399.836   137867892.365   102953332.925   105639062.461   104296202.802          44.400          44.400          46.400          51.400  
E15  23624140.656    23624147.727    23624145.945    23624148.043   124145696.116    92706188.247    95124609.788    93915390.125          48.800          48.000          49.300          55.600  
E21  26791393.859    26791403.391    26791400.434    26791402.707   140789727.959   105135218.312   107877866.316   106506504.420          42.900          42.500          42.300          48.300  
E05  25672426.266    25672438.148    25672436.039    25672437.664   134909522.694   100744163.491   103372263.133   102058223.920          41.200          42.300          42.600          48.100  
E27  24440797.266    24440804.293    24440802.555    24440804.707   128437254.373    95910954.258    98412973.618    97161922.046          47.300          47.200          48.700          54.400  
C04  38650737.430    38650737.219   201264532.357   155630499.977          36.600          41.700  
C03  37628435.813    37628436.082   195941141.782   151514117.234          38.800          41.700  
C02  39108730.406    39108730.902   203649438.623   157474652.800          34.800          40.200  
C01  38183988.438    38183988.156   198834043.818   153751098.509          39.600          41.100  
C30  22163345.039                   115410350.525                          49.200                  
C29  22566150.266                   117507860.345                          47.900                  
C27  25656230.797                   133598708.473                          39.600                  
C20  24500504.906                   127580567.781                          45.800                  
C13  39086590.164    39086598.633   203534139.037   157385543.081          40.500          40.000  
> 2025 04 10 06 36 35.0000000  0 32
G17  20877964.500                    20877971.379   109714449.297                    85491803.489          47.100                          47.800  
G11  23596328.781                    23596338.832   123999582.739                    96623061.785          40.400                          44.300  
G14  23120251.547                    23120263.480   121497735.733                    94673585.153          41.700                          42.500  
G22  22211688.484    22211695.875                   116723210.985    90953178.169                          45.700          32.200                  
G03  22523956.094                    22523965.813   118364198.952                    92231856.721          42.000                          45.300  
G19  20037767.430    20037771.668                   105299173.849    82051328.182                          47.600          41.900                  
G06  21263924.422                    21263934.023   111742694.352                    87072241.998          47.300                          47.200  
G09  23964721.945                    23964738.438   125935456.190                    98131576.181          37.900                          41.300  
G04  23686085.820                    23686098.332   124471218.224                    96990598.457          38.600                          43.500  
G12  24344980.195                    24344989.500   127933737.602                    99688666.114          38.700                          38.700  
R01  21209015.703    21209015.125                                   113374347.078   113374328.080                                          44.600          43.400                                  
R02  21183350.742    21183349.539    21183360.109    21183359.961   113038424.405   113038413.391    87918767.806    87918774.810          47.700          46.200          47.200          47.900  
R18  21823420.563    21823419.371    21823428.918    21823428.012   116494907.588   116494890.612    90607138.024    90607142.021          45.500          43.900          45.200          45.700  
R17  19892012.789    19892011.383    19892018.980    19892018.461   106446171.907   106446160.926    82791464.952    82791468.955          50.900          49.500          48.800          48.900  
R16  21679454.078    21679453.387    21679461.895    21679461.691   115807757.188   115807736.165    90072688.711    90072695.729          47.500          45.900          45.600          46.900  
R15  21691835.641    21691835.523    21691845.367    21691845.484   115914582.016   115914568.006    90155776.588    90155781.590          46.800          44.600          45.700          45.900  
R24  21868602.594    21868601.777    21868611.508    21868611.719   116941243.376   116941229.413    90954287.725    90954293.720          45.100          44.200          45.300          45.900  
E13  26329237.250    26329247.613    26329245.926    26329248.113   138361082.199   103321588.866   106016933.728   104669237.405          43.000          43.200          44.300          49.600  
E30  26236837.461    26236848.129    26236846.109    26236848.578   137875505.666   102959018.155   105644896.007   104301962.187          44.300          44.200          45.500          51.300  
E15  23622746.688    23622753.820    23622751.941    23622754.160   124138371.095    92700718.253    95118997.104    93909848.783          48.700          48.500          49.300          55.700  
E21  26788229.320    26788238.613    26788235.754    26788237.926   140773097.504   105122799.477   107865123.499   106493923.594          43.300          42.200          41.700          47.800  
E05  25670046.641    25670058.539    25670056.941    25670058.137   134897017.825   100734825.466   103362681.510   102048764.093          41.300          41.400          43.100          47.800  
E27  24440156.383    24440163.727    24440161.852    24440164.176   128433888.276    95908440.608    98410394.397    97159375.609          47.300          47.400          48.600          54.300  
C04  38649386.133    38649386.141   201257496.459   155625059.381          36.700          41.200  
C03  37627107.578    37627108.113   195934227.646   151508770.790          38.800          41.700  
C02  39107388.633    39107388.832   203642447.097   157469246.516          35.000          41.100  
C01  38182667.414    38182667.930   198827167.370   153745781.211          39.400          41.300  
C30  22162990.164                   115408501.503                          49.400                  
C29  22563324.453                   117493145.271                          48.000                  
C27  25657354.195                   133604556.043                          40.300                  
C20  24496209.305                   127558199.453                          45.700                  
C13  39084105.258    39084114.109   203521200.535   157375538.223          41.100          39.900  
> 2025 04 10 06 36 40.0000000  0 32
G17  20877598.883                    20877606.055   109712528.937                    85490307.106          47.000                          47.600  
G11  23592569.078                    23592577.836   123979821.303                    96607663.272          41.600                          43.800  
G14  23122367.766                    23122379.617   121508858.298                    94682252.046          40.600                          42.100  
G22  22212815.789    22212823.254                   116729135.619    90957794.759                          45.800          33.100                  
G03  22525529.219                    22525540.250   118372469.738                    92238301.472          42.100                          45.300  
G19  20035649.148    20035653.086                   105288041.760    82042653.824                          47.200          41.500                  
G06  21261400.586                    21261410.281   111729431.257                    87061907.118          48.100                          47.600  
G09  23960583.367                    23960599.605   125913704.458                    98114626.882          37.100                          41.000  
G04  23682952.266                    23682964.188   124454745.275                    96977762.433          38.800                          43.000  
G12  24340935.727                    24340943.871   127912480.104                    99672101.862          39.800                          37.300  
R01  21208645.711    21208644.664                                   113372364.785   113372345.801                                          44.200          42.800                                  
R02  21179389.461    21179388.023    21179399.074    21179398.367   113017287.871   113017276.863    87902328.313    87902335.323          47.800          46.500          46.500          47.900  
R18  21819899.883    21819898.105    21819907.551    21819907.055   116476110.189   116476093.223    90592517.830    90592521.835          45.000          43.200          45.900          45.900  
R17  19890484.070    19890483.723    19890490.832    19890490.242   106437992.230   106437981.234    82785102.971    82785106.974          51.000          49.700          48.800          49.900  
R16  21677725.586    21677724.660    21677732.594    21677733.152   115798522.581   115798501.583    90065506.281    90065513.279          48.000          46.000          46.200          47.300  
R15  21693487.023    21693487.258    21693497.375    21693497.035   115923407.466   115923393.457    90162640.806    90162645.812          46.000          44.700          45.600          45.700  
R24  21869525.859    21869524.926    21869533.242    21869533.488   116946177.179   116946163.173    90958125.107    90958131.111          45.700          44.900          44.600          44.800  
E13  26326097.133    26326107.516    26326104.844    26326107.586   138344578.403   103309264.645   106004287.997   104656752.429          42.000          43.600          44.100          49.800  
E30  26238287.234    26238297.746    26238295.586    26238298.074   137883123.565   102964706.824   105650733.074   104307725.062          43.700          43.900          45.900          51.200  
E15  23621353.664    23621360.801    23621358.926    23621361.227   124131050.813    92695251.811    95113388.056    93904311.045          48.500          48.000          49.500          55.700  
E21  26785066.922    26785075.223    26785072.551    26785074.738   140756475.379   105110386.850   107852387.065   106481349.064          42.700          42.200          42.700          48.300  
E05  25667668.703    25667681.008    25667678.992    25667680.414   134884522.720   100725494.732   103353107.362   102039311.649          41.200          41.800          42.700          47.800  
E27  24439518.359    24439525.676    24439523.707    24439526.055   128430533.795    95905935.629    98407824.069    97156837.957          47.300          47.400          48.000          54.400  
C04  38648034.617    38648034.805   201250460.456   155619618.710          36.700          40.900  
C03  37625779.914    37625780.648   195927313.352   151503424.215          38.800          41.300  
C02  39106046.453    39106045.781   203635455.217   157463839.903          34.800          39.600  
C01  38181346.586    38181346.969   198820290.735   153740463.753          39.600          40.500  
C30  22162635.672                   115406658.492                          48.300                  
C29  22560499.727                   117478434.318                          48.200                  
C27  25658477.359                   133610405.537                          39.400                  
C20  24491914.352                   127535836.399                          45.000                  
C13  39081621.391    39081630.109   203508264.626   157365535.367          41.200          40.400  
> 2025 04 10 06 36 45.0000000  0 32
G17  20877235.266                    20877242.168   109710618.345                    85488818.315          47.200                          47.400  
G11  23588809.336                    23588818.262   123960064.198                    96592268.146          42.100                          44.100  
G14  23124485.438                    23124497.449   121519985.220                    94690922.337          41.500                          42.200  
G22  22213945.398    22213952.254                   116735070.008    90962418.938                          46.600          32.800                  
G03  22527105.352                    22527115.617   118380749.897                    92244753.543          42.200                          44.900  
G19  20033533.109    20033537.305                   105276921.191    82033988.432                          47.700          41.300                  
G06  21258877.750                    21258887.672   111716175.768                    87051578.160          47.600                          47.300  
G09  23956444.586                    23956460.945   125891956.143                    98097680.245          38.100                          41.200  
G04  23679819.313                    23679831.117   124438282.422                    96964934.276          39.500                          43.000  
G12  24336893.141                    24336900.391   127891233.127                    99655545.813          39.500                          38.300  
R01  21208278.547    21208277.617                                   113370404.692   113370385.693                                          44.500          42.500                                  
R02  21175431.781    21175431.047    21175441.652    21175441.117   112996167.220   112996156.205    87885901.171    87885908.175          48.100          46.000          46.700          48.000  
R18  21816378.672    21816377.715    21816386.824    21816385.676   116457316.156   116457299.168    90577900.267    90577904.278          44.900          43.500          45.500          46.100  
R17  19888957.195    19888955.438    19888963.637    19888963.410   106429819.946   106429808.951    82778746.756    82778750.753          51.400          49.000          48.600          49.200  
R16  21676001.305    21675999.676    21676007.949    21676008.215   115789310.354   115789289.371    90058341.209    90058348.199          47.800          45.900          46.100          47.300  
R15  21695141.070    21695140.953    21695151.832    21695151.445   115932246.462   115932232.443    90169515.541    90169520.545          45.700          44.100          45.600          45.900  
R24  21870448.727    21870448.145    21870457.125    21870457.473   116951115.070   116951101.076    90961965.699    90961971.704          46.300          45.300          44.800          46.100  
E13  26322957.383    26322967.492    26322964.488    26322967.359   138328077.953   103296942.899   105991644.814   104644269.966          42.600          43.100          44.000          49.400  
E30  26239737.875    26239748.559    26239746.262    26239748.781   137890746.224   102970399.046   105656573.790   104313491.527          44.300          44.200          45.400          51.100  
E15  23619961.453    23619968.539    23619966.664    23619968.941   124123735.473    92689789.062    95107782.796    93898777.037          49.200          47.900          49.300          55.500  
E21  26781905.789    26781914.039    26781911.133    26781913.566   140739861.733   105097980.563   107839657.130   106468780.955          42.500          42.300          42.700          48.500  
E05  25665293.047    25665305.301    25665302.535    25665304.684   134872037.640   100716171.463   103343540.888   102029866.785          41.300          41.300          43.100          47.900  
E27  24438882.195    24438889.406    24438887.293    24438889.672   128427191.086    95903439.443    98405262.767    97154309.212          47.400          47.300          48.800          54.300  
C04  38646683.898    38646683.781   201243424.430   155614177.994          36.400          41.400  
C03  37624452.234    37624452.480   195920399.029   151498077.637          39.200          41.600  
C02  39104703.203    39104703.383   203628463.231   157458433.304          34.000          40.700  
C01  38180026.406    38180026.629   198813414.071   153735146.285          39.500          40.800  
C30  22162283.125                   115404821.618                          48.500                  
C29  22557675.148                   117463727.633                          47.800                  
C27  25659601.453                   133616257.124                          38.700                  
C20  24487620.828                   127513478.836                          44.100                  
C13  39079137.445    39079146.738   203495331.385   157355534.592          40.500          40.100  
> 2025 04 10 06 36 50.0000000  0 32
G17  20876873.211                    20876880.945   109708717.461                    85487337.103          46.600                          48.100  
G11  23585050.430                    23585059.250   123940311.266                    96576876.263          43.200                          43.800  
G14  23126603.914                    23126615.684   121531116.421                    94699595.947          40.800                          43.200  
G22  22215076.609    22215083.719                   116741014.050    90967050.652                          46.100          33.200                  
G03  22528682.453                    22528693.152   118389039.389                    92251212.895          42.100                          45.200  
G19  20031419.273    20031423.406                   105265812.037    82025331.956                          48.200          41.700                  
G06  21256357.203                    21256367.039   111702927.819                    87041255.095          47.800                          47.200  
G09  23952307.477                    23952322.695   125870211.319                    98080736.338          39.000                          41.600  
G04  23676689.008                    23676700.527   124421829.624                    96952113.954          40.500                          43.000  
G12  24332849.969                    24332859.680   127869996.674                    99638997.905          39.300                          38.800  
R01  21207916.328    21207915.516                                   113368466.753   113368447.769                                          43.600          42.700                                  
R02  21171477.250    21171476.164    21171486.199    21171485.473   112975062.447   112975051.469    87869486.369    87869493.372          48.100          46.400          47.300          48.300  
R18  21812859.219    21812858.730    21812867.531    21812866.941   116438525.423   116438508.408    90563285.264    90563289.253          45.300          43.600          45.700          46.400  
R17  19887430.883    19887429.477    19887437.379    19887436.551   106421654.814   106421643.812    82772396.093    82772400.089          51.800          49.600          48.800          48.800  
R16  21674280.641    21674279.715    21674288.605    21674288.484   115780120.496   115780099.511    90051193.528    90051200.540          47.500          46.000          46.300          47.000  
R15  21696798.109    21696798.461    21696808.816    21696808.035   115941098.569   115941084.574    90176400.482    90176405.486          45.700          44.800          46.200          46.700  
R24  21871372.469    21871372.004    21871382.039    21871381.637   116956057.238   116956043.254    90965809.594    90965815.599          45.100          44.600          45.300          46.700  
E13  26319817.867    26319828.488    26319825.254    26319828.297   138311580.743   103284623.589   105979004.120   104631789.959          42.100          43.100          44.200          49.700  
E30  26241189.492    26241200.137    26241197.652    26241200.223   137898373.513   102976094.720   105662418.048   104319261.496          44.900          44.200          45.200          51.200  
E15  23618570.352    23618577.613    23618575.500    23618577.922   124116424.953    92684329.903    95102181.229    93893246.672          48.600          48.700          49.200          55.700  
E21  26778745.836    26778753.805    26778751.363    26778753.570   140723256.507   105085580.571   107826933.661   106456219.226          42.600          42.100          42.200          48.000  
E05  25662919.242    25662930.762    25662927.855    25662930.465   134859562.385   100706855.565   103333981.948   102020429.366          41.100          40.100          42.600          47.000  
E27  24438248.586    24438255.523    24438253.367    24438255.746   128423860.063    95900951.991    98402710.420    97151789.314          48.200          47.500          48.200          54.400  
C04  38645332.156    38645332.730   201236388.332   155608737.251          36.600          42.000  
C03  37623124.867    37623124.719   195913484.539   151492730.909          39.200          41.600  
C02  39103359.664    39103360.754   203621471.038   157453026.489          34.500          41.100  
C01  38178705.695    38178706.254   198806537.341   153729828.766          39.400          40.800  
C30  22161931.672                   115402990.808                          48.800                  
C29  22554851.781                   117449025.135                          47.300                  
C27  25660725.734                   133622110.731                          39.200                  
C20  24483328.000                   127491126.675                          44.100                  
C13  39076654.172    39076663.418   203482400.802   157345535.856          41.100          40.100  
> 2025 04 10 06 36 55.0000000  0 32
G17  20876514.055                    20876520.469   109706826.798                    85485863.854          46.800                          47.000  
G11  23581292.250                    23581301.531   123920563.043                    96561488.035          42.400                          43.700  
G14  23128722.336                    23128734.555   121542252.364                    94708273.267          41.300                          44.100  
G22  22216209.398    22216217.094                   116746968.235    90971690.261                          45.300          33.800                  
G03  22530261.656                    22530272.238   118397338.642                    92257679.822          41.500                          45.700  
G19  20029307.633    20029311.512                   105254714.772    82016684.741                          48.000          41.200                  
G06  21253837.445                    21253847.246   111689687.887                    87030938.281          47.400                          47.100  
G09  23948169.594                    23948185.754   125848470.441                    98063795.465          38.200                          42.200  
G04  23673560.148                    23673571.004   124405387.387                    96939301.828          41.000                          42.600  
G12  24328812.016                    24328819.738   127848771.166                    99622458.565          39.300                          38.100  
R01  21207557.273    21207557.398                                   113366551.468   113366532.448                                          43.400          42.600                                  
R02  21167524.656    21167523.805    21167533.496    21167533.156   112953974.273   112953963.274    87853084.484    87853091.480          48.300          46.600          47.100          48.000  
R18  21809339.781    21809338.473    21809347.461    21809347.039   116419738.447   116419721.442    90548673.184    90548677.188          45.500          43.700          45.500          46.700  
R17  19885906.734    19885905.449    19885912.941    19885912.543   106413497.513   106413486.517    82766051.525    82766055.527          51.400          48.900          48.600          49.100  
R16  21672564.711    21672563.316    21672571.656    21672571.477   115770953.229   115770932.213    90044063.439    90044070.450          47.500          45.700          45.900          46.400  
R15  21698457.164    21698457.398    21698467.711    21698466.828   115949964.446   115949950.458    90183296.151    90183301.147          45.700          44.700          45.900          46.100  
R24  21872297.734    21872297.855    21872307.719    21872307.078   116961004.018   116960990.019    90969657.047    90969663.044          45.000          43.600          45.900          46.700  
E13  26316679.016    26316689.859    26316686.766    26316689.563   138295087.274   103272307.052   105966366.287   104619312.778          42.600          43.500          44.300          49.900  
E30  26242641.641    26242652.668    26242650.324    26242652.727   137906005.881   102981794.199   105668266.217   104325035.317          44.400          44.300          46.100          51.200  
E15  23617180.234    23617187.477    23617185.738    23617187.875   124109119.741    92678874.717    95096583.729    93887720.331          48.600          47.600          48.500          55.500  
E21  26775587.164    26775595.633    26775593.055    26775595.227   140706660.161   105073187.211   107814216.980   106443664.202          43.500          42.700          41.600          48.000  
E05  25660547.797    25660558.840    25660556.023    25660558.633   134847097.459   100697547.365   103324430.920   102010999.752          41.500          39.800          42.000          46.800  
E27  24437616.984    24437624.055    24437622.086    24437624.313   128420541.188    95898473.591    98400167.372    97149278.588          48.200          46.500          48.300          54.400  
C04  38643981.086    38643981.441   201229352.648   155603296.811          36.700          41.400  
C03  37621796.719    37621797.121   195906570.463   151487384.504          39.600          41.600  
C02  39102017.938    39102017.410   203614479.061   157447619.853          34.800          40.500  
C01  38177385.594    38177385.441   198799660.913   153724511.498          39.600          41.000  
C30  22161581.609                   115401166.561                          49.000                  
C29  22552029.258                   117434327.315                          47.300                  
C27  25661850.734                   133627966.767                          38.700                  
C20  24479037.219                   127468780.383                          44.000                  
C13  39074171.477    39074180.848   203469473.334   157335539.551          40.600          39.800  
> 2025 04 10 06 37  0.0000000  0 32
G17  20876156.148                    20876163.004   109704946.127                    85484398.397          47.100                          46.800  
G11  23577535.211                    23577544.273   123900819.379                    96546103.380          42.300                          43.100  
G14  23130842.336                    23130855.031   121553392.863                    94716954.114          41.700                          44.100  
G22  22217344.172    22217351.633                   116752932.412    90976337.649                          45.200          33.700                  
G03  22531842.703                    22531853.344   118405647.467                    92264154.209          41.600                          45.400  
G19  20027197.813    20027201.383                   105243629.268    82008046.685                          47.800          41.200                  
G06  21251319.570                    21251329.668   111676455.815                    87020627.576          47.500                          47.600  
G09  23944032.586                    23944049.531   125826733.251                    98046857.501          37.700                          42.700  
G04  23670432.109                    23670444.285   124388955.518                    96926497.782          40.300                          42.700  
G12  24324773.313                    24324783.656   127827556.402                    99605927.575          39.600                          39.200  
R01  21207204.578    21207203.531                                   113364658.654   113364639.672                                          43.800          43.000                                  
R02  21163576.469    21163575.031    21163584.336    21163584.531   112932902.388   112932891.387    87836695.252    87836702.248          48.800          47.000          46.500          47.000  
R18  21805820.406    21805820.387    21805828.898    21805828.652   116400955.110   116400938.095    90534063.932    90534067.929          43.800          43.200          44.800          46.600  
R17  19884383.609    19884382.559    19884389.605    19884389.473   106405347.692   106405336.697    82759712.775    82759716.778          51.700          49.800          48.300          49.000  
R16  21670852.914    21670851.520    21670860.332    21670859.938   115761808.608   115761787.596    90036950.953    90036957.965          47.700          46.100          46.400          47.000  
R15  21700119.734    21700118.676    21700129.598    21700128.844   115958843.928   115958829.932    90190202.392    90190207.390          46.700          45.600          45.600          46.700  
R24  21873223.969    21873223.973    21873233.738    21873233.316   116965955.101   116965941.119    90973507.869    90973513.866          45.700          44.900          45.900          46.800  
E13  26313541.328    26313551.773    26313549.008    26313551.492   138278597.348   103259993.158   105953731.153   104606838.265          43.100          43.400          43.900          49.700  
E30  26244095.195    26244105.688    26244103.438    26244105.957   137913643.236   102987497.391   105674118.192   104330812.901          44.300          44.200          46.100          51.200  
E15  23615791.008    23615798.238    23615796.598    23615798.773   124101819.679    92673423.366    95090990.171    93882197.875          49.200          48.300          49.100          55.600  
E21  26772430.797    26772438.906    26772436.703    26772438.578   140690072.592   105060800.386   107801507.013   106431115.809          43.600          42.300          42.700          47.900  
E05  25658177.055    25658188.379    25658186.082    25658188.500   134834642.738   100688246.779   103314887.723   102001577.861          42.100          40.600          42.400          47.100  
E27  24436987.430    24436994.875    24436992.813    24436995.148   128417234.293    95896004.157    98397633.518    97146776.944          47.800          46.900          48.600          54.300  
C04  38642630.320    38642630.434   201222317.264   155597856.609          36.000          41.300  
C03  37620469.156    37620469.430   195899656.552   151482038.225          39.600          41.800  
C02  39100675.047    39100674.801   203607487.126   157442213.266          35.200          40.500  
C01  38176064.555    38176065.051   198792784.697   153719194.359          39.500          40.900  
C30  22161232.406                   115399348.684                          49.200                  
C29  22549207.305                   117419634.009                          47.900                  
C27  25662974.383                   133633825.236                          37.100                  
C20  24474746.961                   127446439.820                          44.100                  
C13  39071690.117    39071698.508   203456548.853   157325545.531          40.800          40.500  
> 2025 04 10 06 37  5.0000000  0 32
G17  20875800.039                    20875806.703   109703075.447                    85482940.720          47.300                          47.900  
G11  23573778.977                    23573787.996   123881080.146                    96530722.178          42.900                          43.200  
G14  23132963.750                    23132975.785   121564537.894                    94725638.506          41.400                          43.700  
G22  22218481.023    22218488.762                   116758906.485    90980992.758                          45.300          33.100                  
G03  22533425.211                    22533436.367   118413965.821                    92270636.021          41.600                          45.300  
G19  20025090.719    20025094.672                   105232555.487    81999417.768                          47.700          42.000                  
G06  21248803.602                    21248812.977   111663231.565                    87010322.960          48.100                          47.500  
G09  23939895.266                    23939913.387   125804999.839                    98029922.472          36.700                          43.000  
G04  23667307.297                    23667319.051   124372534.020                    96913701.850          39.500                          42.100  
G12  24320741.227                    24320748.012   127806352.444                    99589405.009          40.300                          39.500  
R01  21206853.555    21206851.805                                   113362788.298   113362769.314                                          43.900          42.900                                  
R02  21159630.539    21159629.219    21159639.043    21159639.352   112911846.698   112911835.683    87820318.604    87820325.606          48.500          46.700          46.400          47.200  
R18  21802302.328    21802302.309    21802310.816    21802310.344   116382175.362   116382158.358    90519457.462    90519461.468          44.400          43.900          45.300          45.200  
R17  19882861.891    19882861.426    19882868.457    19882868.117   106397205.456   106397194.453    82753379.927    82753383.938          51.800          49.700          49.000          49.200  
R16  21669144.625    21669144.402    21669152.945    21669152.695   115752686.504   115752665.496    90029855.983    90029862.995          47.300          46.200          46.400          47.800  
R15  21701784.344    21701783.285    21701793.836    21701792.938   115967736.906   115967722.903    90197119.115    90197124.119          46.400          45.400          45.500          46.700  
R24  21874151.672    21874151.324    21874160.293    21874160.176   116970910.658   116970896.667    90977362.171    90977368.175          46.900          45.500          45.700          46.100  
E13  26310404.805    26310414.273    26310412.305    26310414.449   138262110.935   103247681.889   105941098.723   104594366.410          42.700          43.300          44.900          49.800  
E30  26245549.914    26245559.852    26245557.883    26245560.426   137921285.461   102993204.230   105679973.900   104336594.178          44.500          44.000          46.200          51.100  
E15  23614403.000    23614409.930    23614408.242    23614410.371   124094524.705    92667975.825    95085400.518    93876679.279          49.100          48.200          48.900          55.600  
E21  26769275.945    26769284.105    26769281.949    26769283.648   140673493.732   105048420.070   107788803.727   106418574.008          42.900          41.900          42.600          47.800  
E05  25655809.203    25655820.063    25655818.141    25655820.445   134822198.184   100678953.795   103305352.311   101992163.662          42.800          40.600          41.200          46.700  
E27  24436360.563    24436367.617    24436365.648    24436367.906   128413939.363    95893543.652    98395108.830    97144284.348          48.600          47.000          48.600          54.400  
C04  38641279.805    38641279.434   201215282.044   155592416.528          35.900          41.900  
C03  37619142.258    37619141.445   195892742.794   151476692.074          40.000          41.700  
C02  39099331.305    39099331.832   203600495.277   157436806.715          34.800          40.600  
C01  38174743.773    38174744.586   198785908.655   153713877.373          39.400          41.300  
C30  22160884.359                   115397537.159                          49.100                  
C29  22546386.266                   117404945.168                          47.000                  
C27  25664100.313                   133639685.977                          35.600                  
C20  24470457.414                   127424104.987                          44.100                  
C13  39069208.023    39069216.762   203443627.203   157315553.703          41.300          39.200  
> 2025 04 10 06 37 10.0000000  0 32
G17  20875446.234                    20875452.926   109701215.034                    85481491.045          47.000                          47.300  
G11  23570023.836                    23570033.063   123861345.694                    96515344.684          42.600                          43.000  
G14  23135085.555                    23135097.492   121575687.647                    94734326.592          42.200                          43.900  
G22  22219619.859    22219627.250                   116764890.695    90985655.767                          45.800          32.800                  
G03  22535010.523                    22535021.086   118422293.924                    92277125.466          41.100                          44.500  
G19  20022985.836    20022989.563                   105221493.652    81990798.151                          47.900          41.800                  
G06  21246288.188                    21246297.953   111650015.356                    87000024.601          47.400                          46.900  
G09  23935761.695                    23935778.375   125783270.404                    98012990.554          36.500                          42.400  
G04  23664184.227                    23664196.406   124356123.101                    96900914.150          39.600                          41.800  
G12  24316704.695                    24316714.715   127785159.484                    99572891.052          38.400                          40.300  
R01  21206508.219    21206506.703                                   113360940.575   113360921.591                                          44.100          43.000                                  
R02  21155687.500    21155685.594    21155695.246    21155695.191   112890807.564   112890796.549    87803954.852    87803961.854          48.300          46.900          46.600          47.400  
R18  21798786.086    21798783.840    21798793.195    21798792.832   116363399.412   116363382.420    90504853.965    90504857.962          45.200          43.300          45.500          47.000  
R17  19881341.898    19881341.082    19881348.156    19881347.859   106389071.060   106389060.063    82747053.174    82747057.185          51.400          49.500          48.600          49.100  
R16  21667441.453    21667441.113    21667449.813    21667449.359   115743587.049   115743566.052    90022778.643    90022785.646          46.900          46.400          46.400          47.300  
R15  21703450.648    21703451.000    21703460.180    21703460.016   115976643.516   115976629.490    90204046.457    90204051.455          46.800          45.900          45.500          45.600  
R24  21875080.031    21875078.039    21875086.918    21875087.191   116975870.976   116975856.975    90981220.198    90981226.202          46.800          45.300          45.000          46.300  
E13  26307267.672    26307277.746    26307275.637    26307277.664   138245628.315   103235373.449   105928469.190   104581897.425          43.500          42.800          44.600          49.800  
E30  26247005.289    26247014.723    26247012.941    26247015.438   137928932.852   102998914.926   105685833.581   104342379.363          44.700          43.600          45.600          51.000  
E15  23613015.609    23613022.949    23613021.074    23613023.223   124087235.077    92662532.269    95079814.957    93871164.722          49.100          47.900          49.200          55.600  
E21  26766122.969    26766130.590    26766128.809    26766130.379   140656923.807   105036046.425   107776107.289   106406038.967          43.200          41.300          42.700          47.700  
E05  25653443.047    25653453.793    25653451.871    25653454.520   134809764.054   100669668.570   103295824.870   101982757.327          42.700          40.000          41.200          46.500  
E27  24435735.781    24435742.910    24435741.176    24435743.262   128410656.632    95891092.261    98392593.487    97141800.981          48.500          47.500          48.500          54.400  
C04  38639927.633    38639928.180   201208247.255   155586976.780          36.100          41.800  
C03  37617813.766    37617813.891   195885829.499   151471346.269          39.600          41.400  
C02  39097989.414    39097989.105   203593503.725   157431400.398          34.700          40.400  
C01  38173423.766    38173424.164   198779033.053   153708560.715          39.600          40.700  
C30  22160538.148                   115395732.223                          48.800                  
C29  22543566.555                   117390261.045                          47.000                  
C27  25665225.969                   133645549.214                          34.900                  
C20  24466169.438                   127401776.108                          43.800                  
C13  39066728.031    39066736.199   203430708.720   157305564.326          41.400          40.300  
> 2025 04 10 06 37 15.0000000  0 32
G17  20875093.773                    20875100.582   109699363.607                    85480048.373          46.900                          47.300  
G11  23566268.250                    23566278.133   123841614.719                    96499969.911          41.300                          44.000  
G14  23137208.313                    23137219.680   121586840.887                    94743017.363          42.200                          43.800  
G22  22220760.539    22220768.008                   116770883.799    90990325.710                          45.400          33.100                  
G03  22536596.797                    22536607.336   118430630.546                    92283621.516          41.300                          44.700  
G19  20020882.828    20020886.918                   105210442.581    81982186.938                          47.900          42.200                  
G06  21243774.500                    21243784.363   111636805.973                    86989731.585          47.500                          47.200  
G09  23931626.852                    23931643.211   125761543.720                    97996060.786          36.400                          42.600  
G04  23661063.930                    23661075.156   124339721.574                    96888133.763          39.500                          41.400  
G12  24312676.766                    24312684.281   127763976.328                    99556384.663          40.100                          40.300  
R01  21206166.398    21206165.586                                   113359114.386   113359095.388                                          43.800          43.000                                  
R02  21151747.156    21151746.422    21151756.195    21151756.207   112869783.803   112869772.811    87787603.059    87787610.062          48.200          46.900          46.800          47.600  
R18  21795269.258    21795267.012    21795276.457    21795276.254   116344626.027   116344609.030    90490252.437    90490256.433          45.700          44.100          45.100          47.200  
R17  19879823.141    19879822.207    19879829.266    19879829.090   106380943.155   106380932.160    82740731.462    82740735.465          51.200          49.500          48.200          49.100  
R16  21665742.656    21665741.027    21665750.594    21665750.223   115734509.184   115734488.205    90015718.069    90015725.073          48.200          46.400          47.500          47.600  
R15  21705118.750    21705120.039    21705129.082    21705128.988   115985562.508   115985548.521    90210983.440    90210988.444          45.700          45.400          44.700          44.900  
R24  21876006.750    21876005.699    21876014.652    21876014.750   116980834.573   116980820.581    90985080.781    90985086.787          46.500          44.900          44.900          46.000  
E13  26304131.609    26304141.781    26304139.672    26304141.762   138229148.253   103223066.915   105915841.621   104569430.373          43.800          43.600          44.700          50.000  
E30  26248461.578    26248470.980    26248469.152    26248471.602   137936584.093   103004628.486   105691696.188   104348167.444          44.600          44.000          45.600          51.000  
E15  23611629.367    23611636.348    23611634.520    23611636.785   124079949.563    92657091.788    95074232.552    93865653.275          48.600          48.700          49.600          55.600  
E21  26762971.203    26762979.141    26762977.637    26762979.117   140640361.645   105023678.567   107763416.804   106393509.795          43.600          41.100          43.100          47.700  
E05  25651078.164    25651089.438    25651086.531    25651090.000   134797339.152   100660390.234   103286304.498   101973357.977          42.100          40.800          42.200          47.100  
E27  24435113.461    24435120.344    24435118.609    24435120.742   128407384.829    95888649.023    98390086.512    97139325.876          48.200          47.500          48.400          54.300  
C04  38638577.031    38638577.160   201201211.745   155581536.483          36.300          41.600  
C03  37616486.328    37616486.090   195878915.302   151465999.783          39.500          41.200  
C02  39096646.352    39096646.777   203586511.130   157425993.286          35.100          40.300  
C01  38172103.242    38172103.594   198772156.582   153703243.402          39.600          40.900  
C30  22160192.430                   115393932.655                          48.200                  
C29  22540747.508                   117375580.435                          47.300                  
C27  25666352.078                   133651413.841                          33.700                  
C20  24461882.438                   127379451.957                          44.300                  
C13  39064247.063    39064255.070   203417792.190   157295576.470          41.600          40.000  
> 2025 04 10 06 37 20.0000000  0 32
G17  20874743.234                    20874749.906   109697522.156                    85478613.465          46.700                          47.400  
G11  23562514.820                    23562523.500   123821888.222                    96484598.633          41.900                          43.300  
G14  23139331.320                    23139343.344   121597998.570                    94751711.614          42.100                          43.700  
G22  22221902.719    22221909.887                   116776886.735    90995003.313                          45.700          33.000                  
G03  22538185.844                    22538196.027   118438976.678                    92290124.979          42.100                          45.200  
G19  20018781.734    20018785.832                   105199403.239    81973584.852                          47.400          42.200                  
G06  21241262.695                    21241271.824   111623604.382                    86979444.647          48.100                          47.200  
G09  23927493.109                    23927509.824   125739820.942                    97979134.023          36.000                          41.800  
G04  23657945.148                    23657956.309   124323330.399                    96875361.479          40.400                          43.200  
G12  24308644.523                    24308654.926   127742803.967                    99539886.757          38.800                          39.800  
R01  21205829.453    21205828.406                                   113357310.525   113357291.534                                          44.800          42.700                                  
R02  21147810.352    21147809.383    21147819.551    21147819.660   112848776.103   112848765.118    87771263.761    87771270.764          47.800          47.000          46.600          48.200  
R18  21791751.398    21791750.793    21791759.988    21791759.395   116325856.155   116325839.159    90475653.654    90475657.644          45.800          43.600          45.100          46.700  
R17  19878306.141    19878305.090    19878312.051    19878311.879   106372822.743   106372811.746    82734415.586    82734419.581          51.400          49.900          48.300          49.300  
R16  21664047.039    21664045.879    21664054.691    21664054.703   115725453.910   115725432.904    90008675.074    90008682.070          47.500          45.800          46.700          47.200  
R15  21706791.547    21706791.313    21706800.469    21706800.391   115994494.844   115994480.854    90217930.802    90217935.791          46.100          45.200          44.700          44.300  
R24  21876936.883    21876935.598    21876945.035    21876944.582   116985802.669   116985788.676    90988944.821    90988950.825          46.000          44.500          45.300          46.300  
E13  26300995.547    26301006.484    26301004.512    26301006.531   138212671.618   103210762.947   105903216.673   104556965.919          42.600          43.800          44.300          49.900  
E30  26249918.320    26249927.668    26249926.168    26249928.516   137944240.178   103010345.691   105697562.529   104353959.220          44.900          44.300          45.400          51.000  
E15  23610243.891    23610251.027    23610249.152    23610251.473   124072669.091    92651655.067    95068654.003    93860145.643          48.500          48.300          48.900          55.600  
E21  26759821.188    26759828.379    26759827.629    26759828.840   140623808.186   105011317.224   107750732.981   106380987.205          43.900          40.900          43.100          47.600  
E05  25648715.891    25648727.566    25648724.285    25648727.621   134784924.329   100651119.441   103276791.864   101963966.261          41.900          41.400          42.000          47.100  
E27  24434493.273    24434499.891    24434498.152    24434500.398   128404124.944    95886214.689    98387588.673    97136859.792          47.800          46.900          47.700          54.300  
C04  38637225.898    38637226.461   201194176.367   155576096.274          36.100          41.600  
C03  37615158.500    37615158.863   195872001.271   151460653.422          39.400          41.600  
C02  39095303.945    39095303.969   203579518.575   157420586.198          34.800          40.500  
C01  38170782.680    38170782.977   198765280.253   153697926.188          39.200          41.600  
C30  22159847.945                   115392139.373                          49.100                  
C29  22537929.031                   117360904.254                          47.500                  
C27  25667479.758                   133657280.631                          35.000                  
C20  24457595.750                   127357133.504                          43.800                  
C13  39061767.453    39061775.793   203404878.506   157285590.804          40.800          39.900  
> 2025 04 10 06 37 25.0000000  0 32
G17  20874394.813                    20874401.824   109695691.271                    85477186.789          47.200                          48.100  
G11  23558761.711                    23558771.375   123802166.820                    96469231.301          41.500                          43.600  
G14  23141455.672                    23141467.496   121609161.323                    94760409.814          41.900                          43.900  
G22  22223047.203    22223054.277                   116782900.120    90999689.043                          45.800          32.800                  
G03  22539776.727                    22539786.320   118447332.829                    92296636.238          42.100                          44.700  
G19  20016683.320    20016687.672                   105188376.256    81964992.391                          47.500          42.000                  
G06  21238751.828                    21238761.848   111610411.173                    86969164.237          47.500                          47.300  
G09  23923361.281                    23923377.023   125718102.500                    97962210.642          36.800                          42.200  
G04  23654828.469                    23654839.313   124306950.260                    96862597.751          40.000                          42.600  
G12  24304620.594                    24304628.367   127721643.059                    99523397.734          40.300                          40.200  
R01  21205496.367    21205495.320                                   113355529.793   113355510.779                                          44.100          42.400                                  
R02  21143878.008    21143876.219    21143886.266    21143885.957   112827785.429   112827774.421    87754937.702    87754944.698          48.900          46.800          47.300          47.800  
R18  21788235.367    21788235.938    21788244.957    21788244.047   116307090.465   116307073.470    90461058.143    90461062.132          45.700          44.400          46.400          46.700  
R17  19876790.094    19876788.688    19876795.773    19876795.426   106364710.493   106364699.499    82728106.063    82728110.052          51.400          50.200          48.200          48.400  
R16  21662356.703    21662355.074    21662363.352    21662363.367   115716421.863   115716400.855    90001650.142    90001657.140          47.100          45.800          46.400          46.800  
R15  21708464.563    21708464.090    21708474.352    21708474.258   116003441.374   116003427.386    90224889.184    90224894.187          46.400          44.400          45.100          45.600  
R24  21877865.711    21877866.066    21877875.582    21877874.957   116990775.720   116990761.740    90992812.735    90992818.739          46.600          45.200          45.300          46.600  
E13  26297861.266    26297871.758    26297868.898    26297871.637   138196199.120   103198462.062   105890594.896   104544504.583          42.600          42.900          44.900          49.800  
E30  26251376.469    26251385.754    26251383.785    26251386.395   137951901.715   103016066.936   105703433.025   104359755.087          44.700          44.500          45.800          51.000  
E15  23608859.422    23608866.734    23608864.953    23608867.180   124065394.318    92646222.612    95063079.834    93854642.331          48.500          48.100          49.000          55.600  
E21  26756672.625    26756679.855    26756679.387    26756680.543   140607264.061   104998962.845   107738056.316   106368471.690          42.800          40.700          43.600          48.000  
E05  25646355.781    25646367.141    25646364.422    25646367.270   134772520.302   100641856.727   103267287.504   101954582.725          41.900          42.300          42.700          47.700  
E27  24433875.086    24433882.184    24433880.402    24433882.535   128400877.606    95883789.726    98385100.451    97134403.192          48.100          47.100          48.500          54.400  
C04  38635874.828    38635875.539   201187141.813   155570656.708          36.700          41.100  
C03  37613830.750    37613830.773   195865088.006   151455307.653          39.200          41.400  
C02  39093960.813    39093961.043   203572526.752   157415179.693          34.900          40.500  
C01  38169462.539    38169462.570   198758404.662   153692609.550          39.600          40.900  
C30  22159504.672                   115390353.061                          49.500                  
C29  22535111.367                   117346233.155                          47.600                  
C27  25668607.203                   133663150.284                          37.100                  
C20  24453311.383                   127334821.385                          44.100                  
C13  39059287.258    39059295.941   203391968.339   157275607.850          40.200          39.600  
> 2025 04 10 06 37 30.0000000  0 32
G17  20874048.344                    20874055.590   109693869.839                    85475767.489          47.100                          47.700  
G11  23555010.117                    23555018.879   123782449.398                    96453867.086          42.600                          44.200  
G14  23143580.156                    23143592.641   121620327.979                    94769111.055          41.800                          43.800  
G22  22224193.445    22224199.859                   116788922.884    91004382.093                          46.400          33.300                  
G03  22541368.461                    22541378.266   118455697.896                    92303154.467          42.800                          45.200  
G19  20014587.430    20014590.988                   105177360.519    81956408.702                          48.100          42.300                  
G06  21236242.609                    21236252.031   111597225.286                    86958889.519          47.600                          46.900  
G09  23919229.523                    23919244.543   125696387.298                    97945289.801          37.500                          42.100  
G04  23651712.320                    23651723.918   124290580.007                    96849841.731          39.900                          42.000  
G12  24300593.508                    24300603.414   127700492.425                    99506916.732          41.100                          38.300  
R01  21205167.602    21205166.320                                   113353770.858   113353751.867                                          43.700          43.000                                  
R02  21139947.203    21139945.414    21139955.281    21139954.902   112806810.519   112806799.512    87738623.899    87738630.909          49.500          47.000          46.800          48.000  
R18  21784722.648    21784720.520    21784729.711    21784728.645   116288327.911   116288310.908    90446465.038    90446469.050          46.200          43.300          45.800          45.900  
R17  19875275.234    19875273.828    19875281.391    19875281.105   106356605.222   106356594.225    82721801.968    82721805.972          51.800          49.300          48.600          49.100  
R16  21660668.844    21660668.621    21660676.727    21660677.320   115707411.764   115707390.778    89994642.286    89994649.290          47.600          46.600          45.500          46.500  
R15  21710141.375    21710140.551    21710151.055    21710150.691   116012400.664   116012386.675    90231857.496    90231862.492          46.000          44.300          45.600          45.400  
R24  21878797.789    21878796.387    21878806.223    21878805.738   116995752.650   116995738.663    90996683.659    90996689.648          47.300          45.400          45.800          47.000  
E13  26294726.898    26294737.523    26294734.664    26294737.559   138179729.633   103186163.437   105877975.425   104532045.539          41.900          43.500          45.300          50.300  
E30  26252835.258    26252845.031    26252843.063    26252845.273   137959567.607   103021791.459   105709306.879   104365554.278          45.300          44.800          46.100          51.200  
E15  23607475.930    23607483.078    23607481.344    23607483.527   124058124.097    92640793.563    95057509.143    93849142.463          48.000          48.200          49.600          55.500  
E21  26753525.766    26753533.426    26753532.578    26753534.156   140590728.132   104986614.590   107725385.963   106355962.383          42.600          40.800          43.600          48.200  
E05  25643996.781    25644008.137    25644006.215    25644008.520   134760125.975   100632601.248   103257790.581   101945206.525          42.100          41.800          43.000          47.900  
E27  24433259.383    24433266.547    24433264.344    24433266.707   128397641.697    95881373.287    98382620.978    97131955.240          48.200          47.300          49.100          54.400  
C04  38634524.000    38634524.645   201180106.955   155565216.909          36.200          41.500  
C03  37612503.406    37612503.367   195858174.350   151449961.576          39.400          41.500  
C02  39092617.930    39092618.055   203565534.329   157409772.702          33.700          40.300  
C01  38168142.156    38168142.016   198751528.755   153687292.652          40.000          40.400  
C30  22159162.820                   115388572.571                          49.200                  
C29  22532295.031                   117331566.043                          48.100                  
C27  25669735.141                   133669021.703                          35.800                  
C20  24449027.164                   127312514.527                          43.800                  
C13  39056808.555    39056816.906   203379060.486   157265626.704          40.700          39.200  
> 2025 04 10 06 37 35.0000000  0 32
G17  20873703.195                    20873710.254   109692058.586                    85474356.126          46.700                          47.300  
G11  23551258.922                    23551268.012   123762736.685                    96438506.560          42.500                          44.500  
G14  23145706.148                    23145718.465   121631499.271                    94777815.893          41.500                          44.800  
G22  22225341.477    22225347.980                   116794955.647    91009082.934                          46.000          32.800                  
G03  22542961.242                    22542971.430   118464072.666                    92309680.244          42.200                          45.400  
G19  20012493.648    20012497.207                   105166356.728    81947834.315                          48.100          41.600                  
G06  21233734.977                    21233744.383   111584047.352                    86948621.000          47.500                          47.400  
G09  23915096.375                    23915112.480   125674676.200                    97928372.162          36.600                          41.300  
G04  23648599.375                    23648610.934   124274220.293                    96837093.936          39.000                          42.600  
G12  24296573.977                    24296580.953   127679352.822                    99490444.370          41.300                          38.800  
R01  21204843.367    21204842.086                                   113352034.485   113352015.494                                          44.900          42.600                                  
R02  21136018.727    21136017.758    21136027.602    21136027.246   112785852.300   112785841.300    87722323.083    87722330.087          49.000          47.100          46.400          47.800  
R18  21781208.852    21781206.957    21781216.035    21781215.273   116269569.031   116269552.007    90431874.819    90431878.814          46.900          44.800          46.100          47.200  
R17  19873761.844    19873760.676    19873767.852    19873767.652   106348507.791   106348496.789    82715503.965    82715507.967          51.200          49.300          48.300          49.300  
R16  21658986.406    21658986.535    21658994.668    21658994.391   115698424.264   115698403.287    89987652.006    89987659.011          46.200          45.900          46.900          46.900  
R15  21711819.945    21711820.531    21711830.543    21711830.133   116021373.494   116021359.528    90238836.357    90238841.361          45.700          44.900          44.900          45.600  
R24  21879728.023    21879727.090    21879737.539    21879736.957   117000734.159   117000720.195    91000558.160    91000564.143          46.700          44.900          45.300          46.300  
E13  26291593.945    26291604.195    26291601.758    26291604.328   138163263.860   103173867.608   105865358.837   104519589.328          42.200          43.700          44.400          50.200  
E30  26254294.836    26254304.535    26254302.707    26254304.789   137967238.521   103027519.709   105715184.563   104371357.243          44.600          44.200          45.600          51.000  
E15  23606093.648    23606100.590    23606098.805    23606101.047   124050859.146    92635368.427    95051942.487    93843646.563          48.900          47.800          49.000          55.300  
E21  26750380.727    26750388.211    26750387.508    26750389.219   140574201.135   104974273.010   107712722.427   106343459.824          42.100          41.500          43.900          48.400  
E05  25641640.008    25641651.969    25641649.480    25641652.160   134747741.967   100623353.459   103248301.553   101935838.115          42.100          41.900          42.700          47.700  
E27  24432645.633    24432652.918    24432650.902    24432653.230   128394417.884    95878965.896    98380150.779    97129516.444          48.100          47.600          49.100          54.300  
C04  38633173.789    38633173.547   201173072.444   155559777.395          36.700          41.300  
C03  37611175.141    37611175.512   195851261.048   151444615.765          39.600          41.600  
C02  39091275.180    39091275.859   203558542.206   157404365.965          35.200          40.400  
C01  38166821.273    38166821.895   198744653.148   153681976.014          39.600          41.400  
C30  22158822.297                   115386798.608                          48.800                  
C29  22529479.195                   117316903.623                          47.900                  
C27  25670862.648                   133674895.567                          35.500                  
C20  24444744.688                   127290213.606                          44.200                  
C13  39054330.563    39054338.879   203366155.715   157255647.916          40.800          39.300  
> 2025 04 10 06 37 40.0000000  0 32
G17  20873360.266                    20873367.418   109690256.287                    85472951.735          46.200                          47.800  
G11  23547507.977                    23547517.586   123743027.354                    96423148.645          43.400                          44.700  
G14  23147832.227                    23147844.973   121642673.869                    94786523.333          41.600                          44.800  
G22  22226491.234    22226498.188                   116800997.163    91013790.590                          46.300          33.000                  
G03  22544556.789                    22544567.027   118472455.721                    92316212.484          42.300                          45.600  
G19  20010401.820    20010405.398                   105155363.594    81939268.229                          48.000          41.600                  
G06  21231228.016                    21231238.094   111570876.129                    86938357.712          47.100                          48.400  
G09  23910966.273                    23910981.324   125652967.735                    97911456.576          37.900                          40.900  
G04  23645487.625                    23645499.547   124257870.081                    96824353.542          38.900                          42.600  
G12  24292550.164                    24292560.613   127658222.953                    99473979.534          40.300                          39.400  
R01  21204522.336    21204519.883                                   113350319.422   113350300.430                                          44.900          42.300                                  
R02  21132094.047    21132092.844    21132102.281    21132102.387   112764909.138   112764898.145    87706033.979    87706040.976          49.500          47.500          46.400          47.500  
R18  21777693.352    21777692.863    21777701.605    21777700.789   116250812.623   116250795.592    90417286.504    90417290.522          46.700          44.500          45.900          45.900  
R17  19872250.109    19872249.059    19872255.961    19872255.703   106340416.742   106340405.753    82709210.925    82709214.929          51.700          49.900          48.800          48.800  
R16  21657307.977    21657308.691    21657316.406    21657316.363   115689458.241   115689437.236    89980678.430    89980685.441          46.400          46.000          46.700          47.400  
R15  21713502.383    21713502.148    21713512.066    21713511.656   116030358.571   116030344.606    90245824.719    90245829.729          46.600          45.700          45.200          45.500  
R24  21880659.836    21880658.785    21880668.898    21880668.504   117005719.025   117005705.041    91004435.253    91004441.242          45.800          44.500          45.200          44.900  
E13  26288461.266    26288471.121    26288468.965    26288471.375   138146800.463   103161573.525   105852744.035   104507134.886          43.100          44.100          44.900          50.300  
E30  26255755.281    26255765.145    26255763.270    26255765.277   137974913.182   103033250.768   105721065.128   104377163.058          45.600          43.600          45.500          50.900  
E15  23604711.906    23604718.910    23604717.129    23604719.367   124043598.174    92629946.272    95046378.889    93838153.690          49.000          48.000          48.900          55.400  
E21  26747237.031    26747244.742    26747243.711    26747245.656   140557681.800   104961937.162   107700064.776   106330963.072          40.100          40.500          43.900          48.200  
E05  25639285.898    25639296.895    25639294.410    25639297.176   134735367.088   100614112.518   103238819.528   101926476.629          42.300          42.100          42.100          47.700  
E27  24432034.094    24432041.770    24432039.520    24432041.832   128391204.927    95876566.593    98377688.893    97127085.851          48.000          47.200          48.800          54.300  
C04  38631822.336    38631822.297   201166037.096   155554337.200          36.700          42.100  
C03  37609847.164    37609847.543   195844346.798   151439269.222          39.100          41.900  
C02  39089932.250    39089932.543   203551549.018   157398958.386          35.100          40.200  
C01  38165500.891    38165501.059   198737776.604   153676658.636          39.700          40.900  
C30  22158482.453                   115385029.878                          48.600                  
C29  22526663.836                   117302244.572                          47.000                  
C27  25671989.836                   133680770.710                          35.800                  
C20  24440463.188                   127267917.402                          44.600                  
C13  39051853.078    39051860.902   203353252.795   157245670.586          40.300          39.500  
> 2025 04 10 06 37 45.0000000  0 32
G17  20873019.422                    20873026.246   109688464.510                    85471555.532          46.200                          47.400  
G11  23543758.914                    23543767.215   123723323.025                    96407794.652          42.400                          44.300  
G14  23149960.016                    23149972.625   121653853.364                    94795234.559          42.300                          45.200  
G22  22227642.422    22227649.426                   116807049.006    91018506.301                          46.200          33.500                  
G03  22546154.063                    22546164.031   118480848.744                    92322752.498          41.800                          45.700  
G19  20008312.039    20008315.938                   105144382.753    81930711.734                          48.300          42.300                  
G06  21228723.898                    21228733.754   111557713.236                    86928100.913          47.800                          47.500  
G09  23906836.445                    23906851.355   125631263.656                    97894544.405          37.900                          40.800  
G04  23642378.813                    23642389.402   124241530.752                    96811621.629          39.900                          42.600  
G12  24288532.984                    24288541.184   127637104.560                    99457523.594          41.900                          38.400  
R01  21204205.070    21204203.789                                   113348627.275   113348608.277                                          44.200          42.700                                  
R02  21128172.477    21128171.391    21128181.250    21128180.676   112743982.873   112743971.881    87689758.012    87689765.015          48.200          46.800          47.100          48.200  
R18  21774181.086    21774179.426    21774188.656    21774188.043   116232060.390   116232043.378    90402701.448    90402705.459          46.000          44.700          45.400          46.300  
R17  19870739.336    19870738.285    19870745.160    19870744.875   106332333.698   106332322.710    82702924.119    82702928.123          51.400          49.500          48.800          48.800  
R16  21655634.258    21655633.801    21655641.984    21655641.887   115680515.334   115680494.327    89973722.832    89973729.838          46.800          46.300          45.900          46.200  
R15  21715187.359    21715187.242    21715196.480    21715195.777   116039357.555   116039343.558    90252823.871    90252828.875          47.600          46.500          45.100          45.800  
R24  21881592.844    21881592.379    21881602.223    21881601.750   117010708.848   117010694.872    91008316.198    91008322.196          45.700          44.000          44.800          45.500  
E13  26285329.078    26285338.941    26285336.973    26285339.168   138130341.079   103149282.461   105840132.331   104494683.504          42.300          42.800          43.700          49.500  
E30  26257216.086    26257226.980    26257224.824    26257226.867   137982593.168   103038985.802   105726949.775   104382972.896          44.800          44.200          46.100          51.200  
E15  23603331.234    23603338.168    23603336.477    23603338.660   124036342.776    92624528.286    95040819.564    93832665.037          49.100          48.100          49.200          55.500  
E21  26744095.328    26744103.020    26744101.707    26744103.961   140541171.784   104949608.249   107687414.242   106318473.352          41.000          40.700          43.600          48.300  
E05  25636932.898    25636943.688    25636941.438    25636944.184   134723002.953   100604879.569   103229345.716   101917123.250          42.700          41.600          42.600          47.600  
E27  24431425.008    24431432.516    24431430.590    24431432.914   128388004.396    95874176.585    98375236.542    97124664.671          48.100          47.200          48.500          54.500  
C04  38630471.102    38630471.180   201159002.442   155548897.558          36.800          42.000  
C03  37608519.883    37608520.168   195837433.252   151433923.236          39.400          42.000  
C02  39088589.750    39088589.719   203544556.405   157393551.271          35.400          40.900  
C01  38164180.375    38164180.809   198730900.766   153671341.810          39.200          40.800  
C30  22158144.219                   115383268.033                          48.800                  
C29  22523850.070                   117287590.535                          47.000                  
C27  25673119.406                   133686648.521                          34.300                  
C20  24436182.320                   127245627.462                          45.200                  
C13  39049375.570    39049383.953   203340353.224   157235695.843          40.900          39.300  
> 2025 04 10 06 37 50.0000000  0 32
G17  20872680.648                    20872687.770   109686683.021                    85470167.361          46.500                          47.300  
G11  23540009.750                    23540019.059   123703623.511                    96392444.400          42.000                          44.500  
G14  23152088.539                    23152100.688   121665037.610                    94803949.506          41.700                          44.900  
G22  22228795.953    22228803.480                   116813111.003    91023229.930                          45.500          32.900                  
G03  22547753.078                    22547763.137   118489251.459                    92329300.052          41.500                          45.100  
G19  20006224.781    20006228.434                   105133414.013    81922164.664                          48.300          41.500                  
G06  21226220.625                    21226230.309   111544558.449                    86917850.431          47.900                          47.300  
G09  23902707.031                    23902722.055   125609563.838                    97877635.529          38.800                          40.700  
G04  23639270.688                    23639282.578   124225202.226                    96798898.131          39.800                          42.700  
G12  24284514.344                    24284524.891   127615997.312                    99441076.427          40.900                          39.800  
R01  21203892.898    21203891.617                                   113346957.771   113346938.795                                          43.100          42.400                                  
R02  21124253.586    21124252.734    21124263.332    21124262.371   112723073.618   112723062.625    87673495.282    87673502.293          48.300          47.000          47.100          48.200  
R18  21770668.094    21770667.371    21770676.785    21770676.180   116213312.044   116213295.049    90388119.423    90388123.420          45.200          43.700          45.800          47.600  
R17  19869229.930    19869229.816    19869236.512    19869236.191   106324258.615   106324247.613    82696643.485    82696647.495          51.400          50.300          48.600          49.500  
R16  21653964.781    21653964.441    21653972.766    21653972.523   115671595.178   115671574.193    89966784.943    89966791.948          47.300          46.000          45.900          46.500  
R15  21716874.383    21716873.559    21716883.230    21716882.766   116048369.976   116048355.971    90259833.524    90259838.522          47.200          45.800          45.300          44.900  
R24  21882528.875    21882527.590    21882536.777    21882536.625   117015703.370   117015689.385    91012200.816    91012206.813          46.800          44.600          45.500          46.300  
E13  26282197.469    26282207.340    26282205.840    26282207.820   138113885.552   103136994.236   105827523.557   104482235.001          42.800          42.900          44.300          49.900  
E30  26258678.664    26258689.586    26258687.379    26258689.332   137990278.316   103044724.688   105732838.371   104388786.636          44.600          44.500          46.000          51.200  
E15  23601951.711    23601958.617    23601956.977    23601959.133   124029092.788    92619114.326    95035264.373    93827180.456          49.100          48.000          49.300          55.400  
E21  26740955.297    26740963.051    26740961.785    26740964.008   140524670.821   104937286.094   107674770.650   106305990.479          41.200          41.300          44.200          48.500  
E05  25634582.047    25634593.617    25634590.758    25634593.398   134710649.354   100595654.493   103219879.985   101907777.846          43.000          41.400          42.300          47.500  
E27  24430818.570    24430825.605    24430823.730    24430826.086   128384816.111    95871795.722    98372793.564    97122252.753          47.700          47.100          48.900          54.500  
C04  38629120.625    38629120.688   201151968.339   155543458.348          36.400          42.200  
C03  37607192.641    37607192.281   195830520.157   151428577.597          39.200          41.800  
C02  39087246.352    39087246.723   203537564.108   157388144.375          34.800          41.000  
C01  38162859.820    38162860.133   198724025.372   153666025.314          39.400          40.800  
C30  22157807.539                   115381512.866                          49.200                  
C29  22521036.891                   117272941.336                          47.200                  
C27  25674248.414                   133692529.130                          33.700                  
C20  24431902.875                   127223343.691                          45.300                  
C13  39046899.258    39046907.371   203327456.979   157225723.661          40.600          38.800  
> 2025 04 10 06 37 55.0000000  0 32
G17  20872343.523                    20872350.000   109684911.344                    85468786.827          46.700                          47.500  
G11  23536262.625                    23536271.324   123683928.324                    96377097.505          42.300                          43.400  
G14  23154217.117                    23154230.254   121676225.995                    94812667.667          42.300                          45.200  
G22  22229951.266    22229958.777                   116819182.548    91027960.979                          44.900          33.000                  
G03  22549353.945                    22549363.898   118497663.412                    92335854.813          42.000                          44.500  
G19  20004139.523    20004143.305                   105122456.874    81913626.639                          48.100          41.700                  
G06  21223718.172                    21223728.301   111531411.246                    86907605.865          47.300                          47.500  
G09  23898578.773                    23898593.496   125587867.696                    97860729.527          38.700                          40.600  
G04  23636165.023                    23636177.320   124208883.956                    96786182.608          37.800                          41.900  
G12  24280501.727                    24280510.191   127594900.751                    99424637.506          41.100                          38.400  
R01  21203584.633    21203583.117                                   113345310.462   113345291.471                                          44.200          42.700                                  
R02  21120338.766    21120336.977    21120347.023    21120346.918   112702180.471   112702169.464    87657245.077    87657252.080          48.200          46.400          46.800          47.800  
R18  21767156.883    21767155.926    21767164.797    21767164.031   116194567.102   116194550.092    90373540.041    90373544.046          46.000          44.500          45.700          46.400  
R17  19867722.133    19867721.668    19867729.012    19867728.836   106316190.855   106316179.861    82690368.580    82690372.591          51.200          49.600          48.000          49.100  
R16  21652299.141    21652298.332    21652306.922    21652307.023   115662697.365   115662676.337    89959864.415    89959871.427          47.000          45.400          46.200          47.300  
R15  21718561.563    21718561.797    21718572.145    21718571.063   116057395.479   116057381.476    90266853.365    90266858.360          47.500          45.600          45.600          45.400  
R24  21883463.820    21883461.242    21883471.301    21883471.246   117020702.139   117020688.159    91016088.750    91016094.754          46.100          44.500          45.000          46.000  
E13  26279066.961    26279076.785    26279075.238    26279077.207   138097433.331   103124708.507   105814917.323   104469789.023          43.000          42.400          44.100          49.400  
E30  26260142.023    26260153.000    26260150.465    26260152.574   137997968.039   103050466.993   105738730.489   104394603.849          45.100          45.000          45.700          51.200  
E15  23600572.797    23600580.109    23600578.141    23600580.477   124021847.675    92613704.020    95029712.928    93821699.579          48.800          48.400          48.800          55.500  
E21  26737817.070    26737824.555    26737823.102    26737825.668   140508178.478   104924970.392   107662133.669   106293514.140          40.600          40.900          43.600          48.200  
E05  25632233.914    25632244.660    25632241.707    25632244.602   134698305.755   100586436.905   103210421.924   101898440.024          42.800          41.300          42.400          47.300  
E27  24430214.172    24430221.348    24430219.520    24430221.660   128381639.562    95869423.617    98370359.584    97119849.708          47.800          47.300          48.600          54.400  
C04  38627769.313    38627769.848   201144934.222   155538019.123          36.300          41.800  
C03  37605864.109    37605864.348   195823607.023   151423231.922          39.000          41.200  
C02  39085903.523    39085903.813   203530571.670   157382737.375          35.000          40.600  
C01  38161539.500    38161540.102   198717149.975   153660708.823          39.200          41.700  
C30  22157471.398                   115379763.826                          49.100                  
C29  22518224.492                   117258296.435                          47.000                  
C27  25675377.719                   133698411.750                          33.500                  
C20  24427625.039                   127201065.493                          44.900                  
C13  39044422.719    39044431.246   203314563.382   157215753.522          40.800          39.600  
> 2025 04 10 06 38  0.0000000  0 32
G17  20872008.227                    20872015.258   109683149.488                    85467413.960          46.700                          47.100  
G11  23532515.289                    23532523.992   123664237.519                    96361754.048          43.200                          44.200  
G14  23156347.398                    23156359.805   121687418.585                    94821389.119          41.900                          44.500  
G22  22231108.180    22231115.957                   116825263.777    91032699.595                          45.400          33.400                  
G03  22550955.922                    22550966.055   118506084.618                    92342416.780          40.900                          44.700  
G19  20002056.445    20002060.574                   105111511.413    81905097.701                          47.400          41.600                  
G06  21221218.086                    21221227.598   111518271.749                    86897367.299          47.300                          47.400  
G09  23894450.367                    23894465.820   125566175.304                    97843826.440          38.600                          40.500  
G04  23633062.664                    23633073.988   124192575.990                    96773475.145          39.400                          42.800  
G12  24276488.281                    24276496.898   127573814.979                    99408207.092          40.900                          39.200  
R01  21203279.539    21203279.781                                   113343685.261   113343666.255                                          44.200          42.500                                  
R02  21116426.680    21116425.008    21116434.594    21116434.219   112681303.642   112681292.642    87641007.562    87641014.558          48.100          46.500          46.500          46.200  
R18  21763646.547    21763645.238    21763653.781    21763653.043   116175825.536   116175808.533    90358963.271    90358967.273          46.300          44.000          45.600          46.400  
R17  19866216.109    19866215.410    19866222.406    19866222.336   106308130.471   106308119.482    82684099.389    82684103.385          50.700          49.100          48.600          49.000  
R16  21650637.984    21650636.121    21650645.340    21650645.164   115653821.990   115653800.971    89952961.346    89952968.343          47.400          45.000          46.100          46.300  
R15  21720252.875    21720251.934    21720263.473    21720262.750   116066434.085   116066420.110    90273883.386    90273888.389          46.100          45.400          45.900          46.000  
R24  21884397.516    21884395.875    21884405.785    21884405.738   117025705.163   117025691.193    91019979.977    91019985.973          46.600          44.500          45.100          45.700  
E13  26275936.648    26275946.777    26275944.715    26275947.152   138080984.540   103112425.329   105802313.716   104457345.628          42.600          43.500          44.200          49.800  
E30  26261606.250    26261617.375    26261614.516    26261616.742   138005662.435   103056212.779   105744626.163   104400424.578          44.800          44.700          45.700          51.000  
E15  23599195.000    23599202.258    23599200.473    23599202.656   124014607.482    92608297.372    95024165.240    93816222.410          48.600          48.600          49.500          55.600  
E21  26734680.336    26734687.938    26734686.625    26734689.168   140491694.733   104912661.089   107649503.259   106281044.276          41.000          42.400          44.700          49.300  
E05  25629885.406    25629897.293    25629894.430    25629897.504   134685972.216   100577226.799   103200971.549   101889109.784          42.100          41.600          42.100          47.300  
E27  24429611.977    24429618.852    24429617.164    24429619.340   128378474.787    95867060.305    98367934.614    97117455.567          47.800          47.500          48.600          54.400  
C04  38626419.031    38626419.051   201137900.192   155532579.965          36.400          41.900  
C03  37604536.625    37604536.938   195816693.896   151417886.269          39.100          41.700  
C02  39084560.922    39084560.949   203523579.118   157377330.291          34.100          40.600  
C01  38160220.102    38160219.734   198710274.535   153655392.313          39.700          41.000  
C30  22157136.898                   115378020.997                          48.800                  
C29  22515412.773                   117243655.893                          48.200                  
C27  25676508.383                   133704296.424                          34.700                  
C20  24423347.742                   127178792.991                          45.000                  
C13  39041946.617    39041955.457   203301672.505   157205785.507          40.600          39.200  
> 2025 04 10 06 38  5.0000000  0 32
G17  20871674.828                    20871681.816   109681397.518                    85466048.781          46.800                          47.800  
G11  23528769.258                    23528778.043   123644551.095                    96346413.958          43.300                          44.200  
G14  23158478.336                    23158490.395   121698615.440                    94830113.893          42.100                          44.400  
G22  22232267.813    22232275.129                   116831354.658    91037445.726                          45.300          32.700                  
G03  22552559.438                    22552570.469   118514515.032                    92348985.921          41.700                          44.200  
G19  19999975.969    19999979.918                   105100577.587    81896577.833                          47.500          41.300                  
G06  21218719.398                    21218729.055   111505139.917                    86887134.697          47.700                          47.800  
G09  23890322.266                    23890338.203   125544486.713                    97826926.306          37.700                          41.000  
G04  23629962.023                    23629973.094   124176278.511                    96760775.831          40.400                          43.000  
G12  24272478.516                    24272487.344   127552740.042                    99391785.024          41.200                          39.600  
R01  21202981.461    21202979.945                                   113342082.311   113342063.319                                          43.600          42.600                                  
R02  21112517.555    21112516.352    21112525.391    21112525.789   112660443.211   112660432.203    87624782.786    87624789.789          48.900          46.800          46.600          47.000  
R18  21760136.344    21760134.801    21760144.555    21760143.652   116157087.503   116157070.499    90344389.217    90344393.223          46.100          44.000          46.200          47.200  
R17  19864711.867    19864710.582    19864717.445    19864717.504   106300077.606   106300066.625    82677836.041    82677840.043          51.600          49.500          49.300          49.000  
R16  21648980.547    21648978.566    21648987.891    21648987.742   115644969.098   115644948.113    89946075.769    89946082.786          48.800          46.000          46.400          46.300  
R15  21721946.805    21721946.098    21721956.930    21721956.133   116075485.954   116075471.966    90280923.728    90280928.724          46.300          45.000          45.300          45.400  
R24  21885333.125    21885333.598    21885342.582    21885343.336   117030712.500   117030698.510    91023874.563    91023880.575          45.600          44.200          45.300          45.800  
E13  26272807.102    26272816.914    26272814.945    26272817.711   138064539.144   103100144.674   105789712.697   104444904.791          42.400          43.700          45.400          50.300  
E30  26263071.430    26263082.469    26263079.516    26263081.996   138013361.547   103061962.083   105750525.459   104406248.884          44.700          44.900          45.700          51.300  
E15  23597818.086    23597825.469    23597823.594    23597825.906   124007372.226    92602894.433    95018621.348    93810748.995          48.700          48.300          49.200          55.500  
E21  26731545.305    26731552.652    26731551.480    26731553.844   140475219.712   104900358.350   107636879.582   106268581.072          41.900          41.600          43.800          48.800  
E05  25627541.180    25627552.164    25627549.352    25627552.387   134673648.809   100568024.253   103191528.947   101879787.213          43.200          41.400          42.400          47.600  
E27  24429012.047    24429018.871    24429017.090    24429019.352   128375321.836    95864705.824    98365518.716    97115070.374          47.900          47.400          48.300          54.100  
C04  38625067.898    38625068.375   201130866.179   155527140.837          36.600          41.400  
C03  37603209.703    37603209.258   195809780.822   151412540.646          39.400          41.700  
C02  39083218.773    39083218.113   203516586.467   157371923.121          34.900          41.200  
C01  38158898.633    38158899.246   198703399.227   153650075.895          39.700          41.000  
C30  22156803.211                   115376284.402                          48.800                  
C29  22512601.734                   117229019.752                          47.400                  
C27  25677638.461                   133710183.228                          32.500                  
C20  24419071.570                   127156526.230                          45.100                  
C13  39039471.602    39039480.492   203288784.479   157195819.673          38.900          39.000  
> 2025 04 10 06 38 10.0000000  0 32
G17  20871343.609                    20871350.445   109679656.471                    85464692.104          46.900                          47.000  
G11  23525023.352                    23525033.129   123624869.998                    96331078.071          43.100                          44.200  
G14  23160609.891                    23160622.102   121709817.500                    94838842.691          42.200                          43.700  
G22  22233429.297    22233436.063                   116837456.144    91042200.112                          46.300          33.200                  
G03  22554165.867                    22554176.801   118522955.688                    92355563.040          40.400                          43.900  
G19  19997898.031    19997901.887                   105089656.478    81888067.881                          48.100          42.400                  
G06  21216221.844                    21216231.598   111492016.758                    86876908.863          47.700                          47.200  
G09  23886196.516                    23886211.637   125522802.873                    97810029.904          37.600                          39.600  
G04  23626862.492                    23626874.188   124159992.337                    96748085.336          40.000                          42.500  
G12  24268469.836                    24268479.059   127531676.880                    99375372.183          40.900                          39.600  
R01  21202685.563    21202683.930                                   113340502.826   113340483.826                                          44.400          43.600                                  
R02  21108610.602    21108610.102    21108619.609    21108620.027   112639600.133   112639589.133    87608571.505    87608578.515          47.500          46.900          46.200          46.800  
R18  21756626.313    21756625.004    21756635.207    21756634.207   116138353.857   116138336.855    90329818.614    90329822.618          45.900          44.100          46.500          48.000  
R17  19863207.852    19863206.918    19863214.176    19863213.816   106292033.113   106292022.125    82671579.217    82671583.205          51.100          49.300          49.000          48.800  
R16  21647327.070    21647327.199    21647335.699    21647335.563   115636139.571   115636118.575    89939208.348    89939215.359          47.900          45.700          46.700          47.200  
R15  21723644.172    21723643.582    21723653.316    21723653.242   116084551.895   116084537.892    90287974.987    90287979.999          46.000          45.300          44.700          45.300  
R24  21886271.617    21886270.801    21886279.926    21886280.574   117035725.143   117035711.151    91027773.263    91027779.266          46.900          45.100          44.400          46.100  
E13  26269678.875    26269688.598    26269686.066    26269689.195   138048098.075   103087867.267   105777115.016   104432467.247          43.100          43.400          45.300          50.200  
E30  26264537.258    26264548.867    26264545.676    26264548.199   138021066.282   103067715.594   105756429.067   104412077.442          43.700          45.100          45.200          51.200  
E15  23596442.523    23596449.656    23596447.781    23596450.098   124000142.913    92597495.915    95013082.004    93805280.067          49.100          48.000          49.000          55.500  
E21  26728412.055    26728419.766    26728418.074    26728420.695   140458754.343   104888062.772   107624263.247   106256125.119          41.500          41.600          43.800          48.900  
E05  25625198.477    25625209.164    25625206.305    25625209.207   134661336.526   100558830.052   103182094.874   101870473.073          42.500          41.400          42.700          47.300  
E27  24428414.414    24428421.512    24428419.543    24428421.789   128372181.671    95862360.892    98363112.607    97112694.855          48.200          47.300          48.200          54.000  
C04  38623717.984    38623717.816   201123833.344   155521702.603          36.100          40.500  
C03  37601882.336    37601882.035   195802868.785   151407195.803          39.600          42.200  
C02  39081875.320    39081875.949   203509594.727   157366516.686          34.600          42.100  
C01  38157578.938    38157579.223   198696524.825   153644760.170          39.600          41.100  
C30  22156471.055                   115374555.033                          48.700                  
C29  22509792.094                   117214388.978                          47.300                  
C27  25678769.070                   133716073.246                          31.900                  
C20  24414796.594                   127134266.172                          45.000                  
C13  39036997.906    39037006.289   203275900.255   157185856.798          39.700          39.800  
> 2025 04 10 06 38 15.0000000  0 31
G17  20871014.180                    20871020.945   109677925.021                    85463342.915          46.500                          47.500  
G11  23521278.930                    23521288.691   123605193.055                    96315745.410          42.600                          43.700  
G14  23162742.500                    23162754.957   121721023.407                    94847574.513          43.000                          45.100  
G22  22234592.109    22234599.176                   116843566.995    91046961.786                          45.400          32.400                  
G03  22555773.992                    22555784.258   118531405.251                    92362147.102          40.600                          44.100  
G19  19995821.703    19995825.875                   105078746.789    81879566.824                          47.600          41.700                  
G06  21213726.188                    21213736.027   111478901.013                    86866688.811          47.200                          47.300  
G09  23882070.734                    23882085.680   125501122.695                    97793136.341          38.100                          39.400  
G04  23623764.250                    23623776.488   124143716.334                    96735402.768          38.100                          43.100  
G12  24264463.602                    24264472.305   127510624.262                    99358967.565          41.100                          39.200  
R01  21202393.984    21202393.055                                   113338945.169   113338926.179                                          45.000          43.300                                  
R02  21104708.641    21104707.086    21104716.340    21104716.512   112618772.978   112618761.969    87592372.643    87592379.653          48.600          46.500          46.500          47.600  
R18  21753117.820    21753116.277    21753125.637    21753124.117   116119623.432   116119606.407    90315250.529    90315254.549          45.900          43.800          45.900          46.800  
R17  19861706.195    19861705.379    19861712.512    19861712.246   106283995.810   106283984.808    82665327.973    82665331.961          51.200          49.800          48.300          48.600  
R16  21645678.141    21645677.684    21645685.934    21645686.320   115627332.188   115627311.168    89932358.152    89932365.143          47.800          46.100          46.700          47.500  
R15  21725343.242    21725342.887    21725351.996    21725351.867   116093630.559   116093616.550    90295036.156    90295041.175          47.000          45.100          45.500          46.000  
R24  21887209.727    21887208.559    21887218.813    21887218.898   117040741.805   117040727.825    91031675.103    91031681.099          46.300          44.700          45.500          46.100  
E13  26266550.773    26266560.344    26266557.625    26266560.918   138031660.150   103075592.214   105764519.733   104420032.078          43.300          43.700          44.500          49.700  
E30  26266004.258    26266015.801    26266012.656    26266015.266   138028775.429   103073472.383   105762336.041   104417909.318          43.900          45.300          45.800          51.600  
E15  23595067.758    23595074.906    23595073.313    23595075.379   123992918.256    92592100.888    95007546.235    93799814.667          48.400          48.200          49.600          55.600  
E21  26725280.398    26725288.258    26725286.430    26725288.957   140442297.337   104875773.473   107611653.361   106243675.526          42.300          43.000          44.200          49.400  
E05  25622856.695    25622868.289    25622865.898    25622868.102   134649034.057   100549643.162   103172668.323   101861166.352          42.700          40.800          42.700          47.400  
E27  24427819.125    24427826.148    24427824.461    24427826.602   128369053.031    95860024.550    98360715.328    97110328.047          47.800          47.600          48.400          54.400  
C04  38622367.063    38622366.992   201116800.248   155516264.140          37.000          41.400  
C03  37600554.664    37600554.586   195795956.473   151401850.777          39.200          41.200  
C01  38156258.992    38156259.203   198689650.241   153639444.313          39.900          41.900  
C30  22156140.211                   115372831.617                          48.600                  
C29  22506983.555                   117199762.322                          47.500                  
C27  25679899.578                   133721965.164                          28.600                  
C20  24410522.492                   127112011.540                          45.700                  
C13  39034523.945    39034532.359   203263018.475   157175895.815          40.700          38.400  
> 2025 04 10 06 38 20.0000000  0 32
G17  20870686.844                    20870693.434   109676203.204                    85462001.244          46.700                          47.300  
G11  23517535.578                    23517544.773   123585520.310                    96300416.009          43.000                          43.200  
G14  23164875.672                    23164888.145   121732233.357                    94856309.495          41.900                          44.500  
G22  22235756.781    22235763.926                   116849687.224    91051730.788                          46.000          33.300                  
G03  22557383.570                    22557394.723   118539863.893                    92368738.258          41.800                          44.100  
G19  19993748.055    19993752.129                   105067848.637    81871074.754                          48.000          42.200                  
G06  21211231.734                    21211241.078   111465792.719                    86856474.563          47.700                          47.800  
G09  23877945.258                    23877960.762   125479446.025                    97776245.541          37.600                          39.500  
G04  23620669.320                    23620681.395   124127450.554                    96722728.184          37.000                          43.300  
G12  24260460.172                    24260468.688   127489582.277                    99342571.210          42.000                          40.400  
R01  21202106.938    21202106.125                                   113337409.471   113337390.501                                          45.400          43.300                                  
R02  21100808.039    21100806.836    21100816.715    21100816.828   112597962.189   112597951.182    87576186.491    87576193.501          48.400          46.200          46.400          47.900  
R18  21749608.773    21749608.051    21749617.074    21749616.582   116100896.253   116100879.248    90300684.955    90300688.968          44.300          43.200          45.500          46.800  
R17  19860205.922    19860204.281    19860211.559    19860211.160   106275965.736   106275954.740    82659082.350    82659086.359          51.500          49.700          48.300          48.800  
R16  21644034.086    21644033.277    21644041.379    21644041.176   115618547.017   115618526.018    89925525.245    89925532.257          47.000          46.200          45.600          46.700  
R15  21727045.117    21727044.293    21727054.156    21727053.613   116102721.942   116102707.947    90302107.234    90302112.246          47.800          45.300          45.800          46.300  
R24  21888149.008    21888147.723    21888157.543    21888157.223   117045762.508   117045748.520    91035580.038    91035586.033          46.400          44.300          45.600          46.800  
E13  26263423.414    26263432.930    26263430.539    26263433.402   138015225.409   103063319.538   105751926.896   104407599.325          42.100          43.700          44.200          49.800  
E30  26267472.320    26267483.336    26267480.520    26267483.086   138036488.987   103079232.496   105768246.423   104423744.570          45.200          44.400          45.300          51.000  
E15  23593693.867    23593701.137    23593699.262    23593701.453   123985698.325    92586709.377    95002014.078    93794352.838          48.900          48.500          49.500          55.800  
E21  26722150.375    26722158.711    26722156.414    26722158.828   140425848.878   104863490.546   107599050.005   106231232.381          42.600          42.700          43.700          49.300  
E05  25620517.898    25620529.246    25620526.898    25620528.945   134636741.501   100540463.683   103163249.375   101851867.141          42.100          41.100          43.000          47.600  
E27  24427225.930    24427232.953    24427231.125    24427233.348   128365935.978    95857696.884    98358326.926    97107970.015          48.000          47.400          48.400          54.200  
C04  38621016.586    38621016.223   201109767.066   155510825.650          36.400          42.500  
C03  37599227.055    37599227.488   195789043.971   151396505.594          39.200          41.100  
C02  39079189.125                   203495609.201                          34.200                  
C01  38154938.797    38154938.641   198682775.505   153634128.348          39.900          41.300  
C30  22155810.297                   115371114.241                          49.300                  
C29  22504175.391                   117185139.855                          47.300                  
C27  25681031.484                   133727859.533                          31.300                  
C20  24406250.242                   127089762.493                          45.200                  
C13  39032050.461    39032058.711   203250139.330   157165936.853          40.300          38.800  
> 2025 04 10 06 38 25.0000000  0 32
G17  20870361.297                    20870367.512   109674491.252                    85460667.246          47.600                          47.200  
G11  23513792.508                    23513801.891   123565851.874                    96285089.948          43.000                          43.400  
G14  23167009.719                    23167022.414   121743447.407                    94865047.668          42.000                          44.000  
G22  22236923.445    22236930.250                   116855817.032    91056507.226                          45.800          33.700                  
G03  22558994.852                    22559005.316   118548331.605                    92375336.468          40.800                          43.700  
G19  19991676.422    19991680.047                   105056962.112    81862591.744                          48.500          42.100                  
G06  21208739.063                    21208748.594   111452692.046                    86846266.244          47.300                          47.800  
G09  23873820.820                    23873836.344   125457773.156                    97759357.704          38.100                          38.600  
G04  23617576.258                    23617587.863   124111195.099                    96710061.631          37.600                          44.300  
G12  24256457.875                    24256465.766   127468551.064                    99326183.262          41.300                          39.600  
R01  21201823.078    21201822.031                                   113335896.064   113335877.059                                          45.400          42.900                                  
R02  21096911.180    21096910.328    21096920.191    21096919.871   112577167.815   112577156.801    87560013.117    87560020.113          47.600          46.000          46.800          48.400  
R18  21746101.836    21746100.879    21746109.723    21746109.113   116082172.503   116082155.514    90286122.035    90286126.039          44.200          43.400          46.300          46.900  
R17  19858706.031    19858704.863    19858712.734    19858712.605   106267943.005   106267932.010    82652842.451    82652846.447          51.600          49.500          48.300          49.100  
R16  21642393.086    21642392.980    21642401.258    21642401.371   115609784.248   115609763.242    89918709.786    89918716.790          46.100          45.300          46.100          47.500  
R15  21728748.063    21728748.180    21728758.895    21728757.840   116111826.447   116111812.461    90309188.483    90309193.495          47.500          45.500          45.700          46.800  
R24  21889088.852    21889087.449    21889097.254    21889096.922   117050787.470   117050773.481    91039488.343    91039494.332          45.800          44.300          45.900          46.500  
E13  26260296.719    26260306.285    26260304.223    26260306.633   137998793.989   103051049.319   105739336.599   104395169.068          42.800          43.600          45.300          50.500  
E30  26268941.359    26268952.027    26268949.258    26268951.969   138044207.149   103084996.021   105774160.313   104429583.277          44.900          44.600          46.200          51.200  
E15  23592320.914    23592328.043    23592326.305    23592328.445   123978483.272    92581321.510    94996485.652    93788894.691          49.000          48.200          49.500          55.500  
E21  26719021.570    26719030.434    26719028.090    26719030.492   140409409.039   104851214.047   107586453.247   106218795.753          42.000          43.100          44.500          49.400  
E05  25618180.570    25618191.602    25618189.961    25618191.676   134624459.020   100531291.692   103153838.128   101842575.521          43.200          40.700          43.600          47.700  
E27  24426634.773    24426642.035    24426640.020    24426642.371   128362830.655    95855377.965    98355947.521    97105620.849          47.300          47.100          48.600          54.200  
C04  38619665.836    38619665.770   201102733.853   155505387.135          36.700          41.200  
C03  37597899.383    37597899.766   195782131.484   151391160.418          39.400          41.800  
C02  39077846.938    39077846.531   203488616.661   157350294.883          34.300          40.900  
C01  38153617.797    38153618.293   198675900.742   153628812.337          39.700          40.800  
C30  22155481.664                   115369403.023                          49.300                  
C29  22501368.313                   117170521.753                          47.600                  
C27  25682163.625                   133733754.901                          28.600                  
C20  24401978.461                   127067519.156                          45.200                  
C13  39029577.211    39029585.984   203237262.944   157155980.026          40.500          39.200  
> 2025 04 10 06 38 30.0000000  0 32
G17  20870037.023                    20870044.012   109672789.395                    85459341.116          47.100                          46.900  
G11  23510050.695                    23510060.016   123546188.007                    96269767.494          42.900                          44.000  
G14  23169144.727                    23169156.469   121754665.811                    94873789.233          42.700                          43.600  
G22  22238091.828    22238098.625                   116861956.655    91061291.360                          46.700          33.000                  
G03  22560608.484                    22560618.988   118556808.666                    92381941.930          41.600                          43.900  
G19  19989607.211    19989610.742                   105046087.533    81854118.047                          49.100          42.300                  
G06  21206247.602                    21206256.727   111439599.248                    86836064.072          48.500                          47.300  
G09  23869697.734                    23869713.449   125436104.394                    97742473.020          37.600                          38.500  
G04  23614483.734                    23614496.895   124094950.251                    96697403.314          37.600                          43.300  
G12  24252457.680                    24252466.227   127447530.857                    99309803.901          41.600                          39.700  
R01  21201543.984    21201543.055                                   113334404.920   113334385.913                                          44.700          43.000                                  
R02  21093017.359    21093016.391    21093027.020    21093026.973   112556389.938   112556378.923    87543852.566    87543859.569          47.800          46.000          46.800          48.400  
R18  21742595.609    21742593.598    21742603.031    21742602.410   116063452.378   116063435.369    90271561.956    90271565.954          45.500          43.400          46.200          46.200  
R17  19857208.984    19857207.934    19857215.289    19857214.914   106259927.922   106259916.927    82646608.504    82646612.501          51.500          49.900          48.700          50.200  
R16  21640757.211    21640757.457    21640765.273    21640765.039   115601043.987   115601022.974    89911911.782    89911918.779          47.200          45.900          46.200          46.400  
R15  21730454.180    21730454.648    21730465.387    21730464.234   116120944.057   116120930.082    90316279.939    90316284.951          46.700          46.000          46.800          47.700  
R24  21890029.188    21890028.723    21890037.938    21890037.629   117055816.904   117055802.920    91043400.102    91043406.083          46.100          44.100          45.300          46.000  
E13  26257170.664    26257180.109    26257178.516    26257180.621   137982366.157   103038781.798   105726749.048   104382741.527          42.600          44.000          45.100          50.300  
E30  26270411.023    26270421.328    26270418.938    26270421.637   138051930.149   103090763.176   105780077.922   104435425.659          45.100          44.700          45.900          51.000  
E15  23590948.906    23590956.188    23590954.547    23590956.602   123971273.319    92575937.456    94990961.152    93783440.410          48.700          48.300          49.800          55.500  
E21  26715894.773    26715903.844    26715901.641    26715903.777   140392978.061   104838944.174   107573863.286   106206365.839          42.200          42.600          43.900          48.900  
E05  25615845.063    25615856.344    25615854.422    25615856.371   134612186.871   100522127.470   103144434.820   101833291.748          43.900          40.400          43.100          47.000  
E27  24426046.313    24426053.375    24426051.500    24426053.770   128359737.299    95853067.987    98353577.282    97103280.743          47.400          48.000          48.900          54.200  
C04  38618314.531    38618314.898   201095700.927   155499948.826          36.200          41.700  
C03  37596572.078    37596572.344   195775219.210   151385815.425          39.500          42.100  
C02  39076504.234    39076504.336   203481624.227   157344887.887          34.900          41.000  
C01  38152297.633    38152298.348   198669026.171   153623496.501          39.800          41.300  
C30  22155154.430                   115367698.217                          49.100                  
C29  22498561.656                   117155908.249                          47.900                  
C27  25683297.836                   133739653.633                          30.800                  
C20  24397708.289                   127045281.719                          45.000                  
C13  39027105.133    39027113.957   203224389.486   157146025.467          39.700          39.000  
> 2025 04 10 06 38 35.0000000  0 32
G17  20869715.094                    20869722.383   109671097.335                    85458022.638          47.000                          47.200  
G11  23506309.719                    23506318.664   123526528.435                    96254448.356          43.200                          43.500  
G14  23171280.094                    23171292.621   121765888.225                    94882533.918          41.900                          42.700  
G22  22239261.203    22239269.082                   116868105.741    91066082.834                          45.900          33.700                  
G03  22562223.422                    22562233.777   118565294.827                    92388554.527          42.400                          43.000  
G19  19987539.969    19987543.996                   105035224.539    81845653.380                          47.900          42.400                  
G06  21203757.539                    21203766.895   111426513.998                    86825867.779          48.700                          47.400  
G09  23865575.070                    23865590.051   125414439.365                    97725591.271          37.300                          38.900  
G04  23611395.414                    23611406.977   124078715.763                    96684753.142          37.600                          43.100  
G12  24248459.398                    24248468.734   127426521.499                    99293432.949          40.900                          39.900  
R01  21201268.969    21201267.922                                   113332935.852   113332916.853                                          43.500          42.500                                  
R02  21089126.258    21089125.523    21089135.656    21089135.535   112535628.420   112535617.412    87527704.747    87527711.750          48.000          46.000          46.700          47.400  
R18  21739089.641    21739087.160    21739096.555    21739096.000   116044735.586   116044718.614    90257004.497    90257008.501          46.100          43.600          45.700          46.000  
R17  19855712.344    19855710.469    19855718.609    19855718.516   106251920.058   106251909.075    82640380.164    82640384.160          51.800          49.600          48.800          49.800  
R16  21639125.438    21639124.395    21639132.813    21639132.375   115592326.227   115592305.229    89905131.295    89905138.300          48.000          46.200          46.500          47.000  
R15  21732162.984    21732164.156    21732174.313    21732172.738   116130074.734   116130060.743    90323381.559    90323386.568          47.200          46.000          46.700          47.500  
R24  21890971.500    21890970.098    21890979.055    21890979.117   117060850.497   117060836.489    91047315.118    91047321.113          46.500          44.400          45.500          45.400  
E13  26254044.641    26254054.676    26254052.660    26254055.023   137965941.572   103026516.706   105714163.989   104370316.457          42.700          43.800          45.300          50.100  
E30  26271881.727    26271891.902    26271889.324    26271892.094   138059657.646   103096533.668   105785998.956   104441271.423          45.000          44.600          45.500          50.800  
E15  23589577.766    23589584.840    23589583.012    23589585.199   123964068.203    92570557.014    94985440.343    93777989.786          49.100          48.200          49.000          55.600  
E21  26712769.867    26712778.742    26712776.398    26712778.484   140376555.730   104826680.766   107561279.955   106193942.467          41.900          43.400          43.600          49.600  
E05  25613511.891    25613522.781    25613520.672    25613522.988   134599924.784   100512970.723   103135039.212   101824015.568          43.600          41.200          43.300          47.800  
E27  24425459.969    24425467.074    24425465.105    24425467.348   128356655.624    95850766.730    98351215.989    97100949.462          47.800          47.300          48.200          54.200  
C04  38616964.148    38616964.480   201088667.994   155494510.510          36.300          41.200  
C03  37595245.398    37595244.777   195768306.844   151380470.339          39.700          42.300  
C02  39075160.984    39075161.609   203474631.573   157339480.729          35.800          41.300  
C01  38150977.703    38150978.031   198662151.545   153618180.603          39.400          41.000  
C30  22154828.117                   115365999.557                          49.100                  
C29  22495756.109                   117141299.018                          48.400                  
C27  25684432.305                   133745554.045                          31.500                  
C20  24393438.664                   127023050.009                          44.300                  
C13  39024633.422    39024642.199   203211518.665   157136072.948          39.900          38.900  
> 2025 04 10 06 38 40.0000000  0 32
G17  20869394.281                    20869401.977   109669415.498                    85456712.103          46.400                          47.000  
G11  23502569.859                    23502578.418   123506873.553                    96239132.868          43.500                          44.100  
G14  23173416.430                    23173428.664   121777115.100                    94891282.097          41.700                          43.400  
G22  22240433.055    22240441.258                   116874264.694    91070882.008                          45.100          31.600                  
G03  22563840.063                    22563850.406   118573790.458                    92395174.487          42.100                          43.900  
G19  19985475.180    19985478.832                   105024373.613    81837198.121                          47.800          42.100                  
G06  21201268.250                    21201278.258   111413436.742                    86815677.715          47.600                          47.900  
G09  23861452.180                    23861468.328   125392778.584                    97708712.791          37.300                          39.800  
G04  23608308.367                    23608319.754   124062492.126                    96672111.365          38.400                          42.500  
G12  24244464.234                    24244471.949   127405523.276                    99277070.722          41.200                          38.700  
R01  21200998.352    21200998.125                                   113331489.364   113331470.359                                          44.100          42.900                                  
R02  21085239.188    21085237.984    21085247.012    21085247.078   112514883.675   112514872.683    87511569.960    87511576.956          48.400          46.400          46.500          46.900  
R18  21735582.672    21735581.598    21735590.602    21735590.047   116026022.610   116026005.622    90242449.944    90242453.971          44.900          42.900          45.500          45.800  
R17  19854216.906    19854216.676    19854224.008    19854223.063   106243920.007   106243908.989    82634157.896    82634161.900          51.500          49.600          48.600          49.800  
R16  21637497.711    21637496.785    21637505.625    21637505.441   115583631.059   115583610.052    89898368.371    89898375.383          46.200          45.400          46.200          46.500  
R15  21733874.836    21733875.070    21733885.316    21733884.461   116139218.523   116139204.521    90330493.390    90330498.394          47.600          45.700          45.900          46.900  
R24  21891912.945    21891911.543    21891921.676    21891921.199   117065888.672   117065874.666    91051233.695    91051239.698          47.000          44.300          45.900          46.100  
E13  26250919.773    26250929.867    26250927.664    26250930.289   137949520.716   103014254.393   105701581.782   104357894.193          42.400          43.300          44.800          50.000  
E30  26273353.086    26273362.934    26273360.824    26273363.563   138067390.068   103102307.862   105791923.791   104447120.940          44.600          44.000          45.700          50.900  
E15  23588207.781    23588214.848    23588213.301    23588215.367   123956868.313    92565180.472    94979923.551    93772543.118          49.100          47.900          48.900          55.600  
E21  26709646.563    26709655.641    26709653.344    26709655.215   140360142.438   104814424.086   107548703.537   106181525.918          42.200          43.000          43.700          49.700  
E05  25611181.141    25611190.996    25611189.590    25611191.680   134587673.103   100503821.761   103125651.584   101814747.275          43.600          39.600          41.900          46.500  
E27  24424875.781    24424882.934    24424881.102    24424883.289   128353586.053    95848474.503    98348863.969    97098627.342          47.800          46.800          48.700          54.200  
C04  38615613.836    38615614.594   201081635.484   155489072.536          36.600          41.400  
C03  37593917.563    37593917.559   195761394.851   151375125.545          39.200          41.300  
C02  39073818.609    39073819.172   203467639.167   157334073.769          35.000          40.600  
C01  38149658.203    38149657.984   198655277.276   153612864.987          39.600          41.300  
C30  22154502.930                   115364307.436                          48.600                  
C29  22492951.563                   117126694.508                          47.900                  
C27  25685567.000                   133751456.312                          32.300                  
C20  24389170.891                   127000824.367                          44.700                  
C13  39022162.406    39022170.680   203198650.966   157126122.844          40.400          38.700  
> 2025 04 10 06 38 45.0000000  0 32
G17  20869076.750                    20869083.762   109667743.205                    85455409.025          47.000                          47.000  
G11  23498830.867                    23498839.137   123487222.775                    96223820.581          43.700                          43.900  
G14  23175553.219                    23175566.305   121788345.750                    94900033.203          40.800                          43.600  
G22  22241606.828    22241614.598                   116880432.973    91075688.437                          44.200          31.600                  
G03  22565458.117                    22565468.617   118582294.915                    92401801.320          41.100                          44.200  
G19  19983412.195    19983416.094                   105013534.132    81828751.760                          48.000          41.900                  
G06  21198781.531                    21198791.734   111400366.870                    86805493.402          47.600                          47.600  
G09  23857331.484                    23857347.090   125371121.392                    97691837.144          38.100                          39.200  
G04  23605222.672                    23605234.195   124046278.637                    96659477.517          38.600                          43.200  
G12  24240469.664                    24240478.848   127384535.683                    99260716.762          40.900                          39.400  
R01  21200731.953    21200731.727                                   113330064.710   113330045.726                                          44.200          43.200                                  
R02  21081354.336    21081353.250    21081362.246    21081362.965   112494155.210   112494144.217    87495447.817    87495454.820          49.000          47.200          46.100          46.800  
R18  21732077.375    21732076.770    21732085.406    21732084.992   116007312.881   116007295.878    90227897.923    90227901.926          45.600          43.800          45.500          46.800  
R17  19852723.656    19852722.605    19852730.023    19852729.578   106235927.080   106235916.085    82627941.165    82627945.160          51.100          49.800          48.200          49.500  
R16  21635874.195    21635873.152    21635881.473    21635881.574   115574958.129   115574937.138    89891622.754    89891629.765          46.700          45.500          45.900          46.400  
R15  21735587.820    21735587.348    21735597.961    21735597.316   116148375.041   116148361.022    90337615.104    90337620.107          47.600          45.100          45.700          46.000  
R24  21892855.375    21892854.559    21892865.043    21892864.414   117070930.856   117070916.873    91055155.396    91055161.397          45.800          44.600          46.300          47.200  
E13  26247795.836    26247805.621    26247803.277    26247806.129   137933102.959   103001994.388   105689001.952   104345474.275          42.300          43.300          45.100          49.900  
E30  26274825.445    26274835.219    26274833.625    26274836.090   138075126.819   103108085.298   105797851.940   104452973.729          45.000          43.700          46.200          51.000  
E15  23586838.203    23586845.715    23586844.121    23586846.156   123949673.053    92559807.386    94974410.291    93767099.942          49.400          48.900          49.900          55.700  
E21  26706525.516    26706534.008    26706531.711    26706533.578   140343737.603   104802173.732   107536133.604   106169115.778          42.300          43.100          44.800          49.800  
E05  25608851.164    25608861.219    25608859.391    25608862.223   134575431.323   100494680.153   103116271.518   101805486.441          42.400          40.300          44.000          47.600  
E27  24424293.555    24424300.930    24424299.195    24424301.395   128350527.989    95846190.870    98346520.766    97096313.924          48.000          47.500          49.200          54.300  
C04  38614263.453    38614263.105   201074602.730   155483634.362          36.600          40.900  
C03  37592589.734    37592589.941   195754482.597   151369780.542          39.200          41.800  
C02  39072475.352    39072476.453   203460646.364   157328666.485          34.600          40.800  
C01  38148337.602    38148337.891   198648402.771   153607549.172          39.700          40.800  
C30  22154179.469                   115362621.240                          48.800                  
C29  22490147.484                   117112094.135                          47.600                  
C27  25686699.906                   133757360.955                          30.500                  
C20  24384902.883                   126978604.242                          44.400                  
C13  39019692.375    39019700.227   203185785.754   157116174.661          40.500          39.400  
> 2025 04 10 06 38 50.0000000  0 32
G17  20868760.469                    20868766.965   109666081.179                    85454113.941          46.900                          46.700  
G11  23495092.195                    23495100.449   123467576.744                    96208512.004          43.500                          44.500  
G14  23177691.000                    23177703.785   121799580.894                    94908787.815          40.500                          43.300  
G22  22242782.648    22242790.035                   116886611.109    91080502.555                          45.400          31.900                  
G03  22567078.148                    22567088.973   118590808.889                    92408435.576          41.000                          45.200  
G19  19981352.352    19981355.730                   105002706.722    81820314.824                          48.900          42.400                  
G06  21196296.234                    21196306.004   111387305.014                    86795315.333          47.400                          47.500  
G09  23853211.867                    23853226.234   125349468.444                    97674964.815          39.400                          39.900  
G04  23602138.727                    23602150.848   124030075.944                    96646852.096          38.400                          41.100  
G12  24236479.141                    24236486.930   127363559.308                    99244371.540          41.300                          38.600  
R01  21200471.492    21200469.977                                   113328662.577   113328643.578                                          45.400          43.600                                  
R02  21077473.641    21077471.500    21077481.652    21077481.586   112473443.551   112473432.551    87479338.764    87479345.767          48.800          46.700          46.700          47.500  
R18  21728573.875    21728573.855    21728582.117    21728581.246   115988606.904   115988589.886    90213348.871    90213352.877          45.000          44.100          45.700          46.100  
R17  19851231.250    19851229.609    19851238.008    19851237.379   106227941.955   106227930.952    82621730.515    82621734.518          51.400          49.800          48.600          48.900  
R16  21634254.617    21634253.340    21634261.465    21634261.770   115566307.833   115566286.849    89884894.748    89884901.744          46.700          45.700          46.000          47.000  
R15  21737303.656    21737302.832    21737313.836    21737313.270   116157544.766   116157530.776    90344747.067    90344752.070          46.700          44.800          45.500          45.800  
R24  21893799.195    21893799.199    21893809.035    21893808.203   117075977.667   117075963.684    91059080.663    91059086.658          45.800          44.300          46.100          47.300  
E13  26244672.766    26244682.176    26244679.410    26244682.484   137916688.893   102989737.144   105676424.954   104333057.154          42.500          44.100          44.200          50.000  
E30  26276298.180    26276308.301    26276306.473    26276309.043   138082868.490   103113866.393   105803783.840   104458830.223          45.600          44.000          46.000          51.100  
E15  23585470.242    23585477.445    23585475.945    23585477.852   123942483.040    92554438.225    94968901.066    93761660.752          50.100          48.500          49.500          55.600  
E21  26703405.555    26703413.906    26703411.793    26703413.477   140327341.798   104789930.115   107523570.593   106156712.463          41.800          43.800          44.500          50.100  
E05  25606522.750    25606533.359    25606531.859    25606534.645   134563200.033   100485546.418   103106899.509   101796233.570          42.100          40.400          43.600          47.500  
E27  24423714.164    24423721.156    24423719.656    24423721.668   128347482.029    95843916.282    98344186.842    97094009.670          48.100          47.600          49.200          54.300  
C04  38612912.727    38612913.168   201067570.394   155478196.515          36.100          41.600  
C03  37591262.758    37591262.277   195747570.693   151364435.830          39.200          41.100  
C02  39071132.703    39071133.195   203453653.866   157323259.454          34.700          40.400  
C01  38147017.109    38147017.785   198641528.600   153602233.646          39.700          41.700  
C30  22153856.961                   115360941.632                          48.900                  
C29  22487344.234                   117097498.496                          47.600                  
C27  25687833.688                   133763268.063                          29.600                  
C20  24380636.914                   126956390.275                          44.300                  
C13  39017222.383    39017230.148   203172923.695   157106228.930          40.700          39.400  
> 2025 04 10 06 38 55.0000000  0 32
G17  20868445.852                    20868452.844   109664430.597                    85452827.762          46.900                          46.800  
G11  23491354.789                    23491363.703   123447936.716                    96193208.099          43.900                          44.100  
G14  23179830.141                    23179842.586   121810821.696                    94917546.809          41.600                          43.400  
G22  22243960.391    22243967.949                   116892800.346    91085325.313                          44.900          32.600                  
G03  22568700.359                    22568711.227   118599333.497                    92415078.127          41.700                          45.500  
G19  19979294.008    19979297.855                   104991892.662    81811888.274                          48.800          42.500                  
G06  21193812.320                    21193821.781   111374252.412                    86785144.470          47.700                          47.500  
G09  23849091.781                    23849106.961   125327821.102                    97658096.820          39.200                          40.800  
G04  23599057.891                    23599070.801   124013885.329                    96634236.039          38.700                          41.600  
G12  24232488.563                    24232497.137   127342595.433                    99228036.079          41.300                          39.000  
R01  21200213.633    21200212.352                                   113327284.189   113327265.198                                          45.300          43.600                                  
R02  21073595.563    21073594.242    21073604.113    21073603.969   112452749.925   112452738.917    87463243.756    87463250.767          48.300          47.000          46.900          48.100  
R18  21725070.664    21725070.059    21725078.863    21725078.324   115969906.058   115969889.056    90198803.771    90198807.777          46.400          45.000          46.100          47.500  
R17  19849740.508    19849739.691    19849747.234    19849746.656   106219965.986   106219954.983    82615526.985    82615530.988          51.200          49.200          48.600          49.200  
R16  21632639.477    21632638.902    21632647.070    21632647.438   115557681.634   115557660.628    89878185.475    89878192.479          47.000          46.600          46.300          47.100  
R15  21739021.797    21739021.563    21739032.305    21739031.934   116166729.116   116166715.105    90351890.430    90351895.427          46.600          44.500          45.900          46.000  
R24  21894744.625    21894743.457    21894753.148    21894752.754   117081030.327   117081016.350    91063010.484    91063016.480          46.300          44.900          45.100          46.300  
E13  26241550.453    26241559.645    26241557.156    26241559.977   137900279.800   102977483.620   105663851.761   104320643.800          43.700          43.300          44.600          49.500  
E30  26277772.227    26277782.617    26277780.836    26277783.406   138090616.335   103119652.104   105809720.484   104464691.400          44.800          43.900          46.000          51.000  
E15  23584103.172    23584110.465    23584108.824    23584110.859   123935299.519    92549073.908    94963396.808    93756226.461          48.800          47.800          49.100          55.500  
E21  26700287.563    26700295.863    26700293.801    26700295.496   140310956.305   104777694.208   107511015.485   106144316.955          42.800          43.100          44.200          49.400  
E05  25604198.180    25604208.328    25604206.688    25604209.363   134550980.462   100476421.461   103097536.495   101786989.583          42.300          41.300          42.600          47.600  
E27  24423136.984    24423144.129    24423142.676    24423144.617   128344449.413    95841651.656    98341863.141    97091715.508          48.200          47.200          48.900          54.300  
C04  38611562.906    38611562.832   201060539.712   155472759.937          36.900          41.700  
C03  37589935.852    37589935.207   195740660.384   151359092.339          39.100          41.700  
C02  39069790.289    39069790.605   203446662.836   157317853.542          34.400          40.900  
C01  38145697.844    38145698.129   198634656.033   153596919.338          40.000          41.400  
C30  22153535.758                   115359269.825                          48.400                  
C29  22484542.938                   117082908.861                          47.900                  
C27  25688968.859                   133769178.949                          30.500                  
C20  24376373.016                   126934183.707                          44.500                  
C13  39014752.617    39014761.352   203160065.958   157096286.528          40.500          39.700  
> 2025 04 10 06 39  0.0000000  0 32
G17  20868133.773                    20868140.590   109662789.618                    85451549.077          46.600                          47.100  
G11  23487617.414                    23487626.742   123428300.761                    96177907.370          43.900                          44.500  
G14  23181970.563                    23181982.559   121822066.273                    94926308.752          42.000                          43.000  
G22  22245140.195    22245147.949                   116898998.869    91090155.332                          45.400          32.700                  
G03  22570324.820                    22570335.160   118607866.912                    92421727.515          41.900                          46.000  
G19  19977238.477    19977242.305                   104981090.062    81803470.664                          47.900          41.400                  
G06  21191329.781                    21191339.340   111361207.165                    86774979.336          47.500                          47.500  
G09  23844973.797                    23844988.691   125306177.368                    97641231.642          41.400                          40.600  
G04  23595979.969                    23595991.035   123997704.947                    96621627.999          38.700                          42.100  
G12  24228502.039                    24228510.328   127321642.225                    99211708.909          40.600                          38.600  
R01  21199958.359    21199958.367                                   113325927.634   113325908.664                                          44.500          43.600                                  
R02  21069720.516    21069719.430    21069728.828    21069728.914   112432072.645   112432061.652    87447161.451    87447168.454          48.100          46.100          47.300          48.000  
R18  21721568.297    21721567.574    21721576.488    21721575.547   115951208.414   115951191.411    90184261.155    90184265.167          46.400          45.100          45.600          46.300  
R17  19848251.609    19848250.559    19848258.121    19848257.813   106211997.087   106211986.092    82609328.938    82609332.936          51.700          49.200          48.400          49.200  
R16  21631029.461    21631028.301    21631036.637    21631036.672   115549077.584   115549056.570    89871493.427    89871500.438          47.800          46.000          46.300          47.300  
R15  21740743.039    21740743.156    21740753.391    21740752.949   116175925.827   116175911.840    90359043.404    90359048.408          46.300          44.900          45.600          45.800  
R24  21895689.305    21895689.074    21895699.047    21895698.227   117086086.981   117086072.982    91066943.436    91066949.425          46.800          44.600          45.600          45.800  
E13  26238428.016    26238437.625    26238435.188    26238437.984   137883873.810   102965232.402   105651280.947   104308232.780          42.700          43.600          44.800          49.800  
E30  26279247.758    26279257.613    26279256.066    26279258.395   138098368.502   103125441.043   105815660.421   104470555.835          45.700          43.800          45.700          50.600  
E15  23582736.844    23582744.297    23582742.703    23582744.629   123928120.624    92543713.045    94957896.098    93750795.678          49.200          48.200          49.800          55.500  
E21  26697171.055    26697179.422    26697177.168    26697178.926   140294579.282   104765464.611   107498466.852   106131927.834          44.000          43.300          43.900          49.000  
E05  25601874.250    25601886.137    25601882.570    25601885.813   134538770.784   100467303.839   103088181.027   101777753.040          42.900          41.600          43.700          48.200  
E27  24422562.234    24422569.344    24422567.563    24422569.750   128341428.312    95839395.643    98339548.272    97089430.063          48.300          47.800          49.000          54.400  
C04  38610212.273    38610212.520   201053508.827   155467323.214          36.700          41.600  
C03  37588608.203    37588608.723   195733749.853   151353748.687          39.200          42.200  
C02  39068447.125    39068447.590   203439671.439   157312447.354          34.900          41.700  
C01  38144377.797    38144377.691   198627783.207   153591604.851          39.900          42.000  
C30  22153215.859                   115357603.967                          48.900                  
C29  22481741.875                   117068323.365                          47.700                  
C27  25690102.016                   133775092.222                          29.600                  
C20  24372109.320                   126911982.667                          44.700                  
C13  39012284.398    39012292.465   203147210.782   157086346.109          39.900          40.200  
> 2025 04 10 06 39  5.0000000  0 32
G17  20867823.711                    20867830.730   109661158.199                    85450277.836          47.100                          46.600  
G11  23483881.367                    23483891.234   123408668.849                    96162609.786          43.700                          45.600  
G14  23184111.250                    23184123.438   121833314.534                    94935073.582          42.100                          43.000  
G22  22246321.664    22246329.281                   116905206.533    91094992.467                          45.300          33.500                  
G03  22571950.266                    22571960.703   118616409.037                    92428383.702          41.600                          46.000  
G19  19975184.500    19975188.656                   104970298.869    81795061.943                          48.000          42.000                  
G06  21188848.703                    21188858.141   111348169.181                    86764819.885          47.600                          47.900  
G09  23840855.203                    23840869.621   125284537.244                    97624369.271          41.400                          39.900  
G04  23592902.391                    23592913.719   123981534.746                    96609027.854          39.300                          42.000  
G12  24224515.602                    24224525.191   127300699.619                    99195389.995          39.800                          39.900  
R01  21199709.086    21199708.391                                   113324592.906   113324573.929                                          45.200          43.700                                  
R02  21065849.109    21065847.438    21065857.496    21065857.383   112411411.511   112411400.511    87431091.700    87431098.696          47.300          46.000          46.900          48.100  
R18  21718065.273    21718063.848    21718072.629    21718072.402   115932513.825   115932496.798    90169720.935    90169724.932          44.700          43.900          46.100          46.400  
R17  19846763.711    19846762.426    19846770.188    19846769.516   106204035.192   106204024.220    82603136.369    82603140.365          51.500          49.700          48.600          49.000  
R16  21629422.430    21629421.738    21629430.445    21629430.344   115540495.611   115540474.599    89864818.575    89864825.579          46.700          45.700          46.600          48.000  
R15  21742466.773    21742465.949    21742476.504    21742475.949   116185135.191   116185121.197    90366206.207    90366211.213          46.000          44.200          44.600          45.400  
R24  21896636.211    21896635.043    21896644.852    21896644.570   117091147.479   117091133.494    91070879.364    91070885.362          47.700          44.900          45.100          46.000  
E13  26235306.227    26235316.281    26235314.031    26235316.570   137867470.835   102952983.433   105638712.449   104295824.046          42.700          44.000          45.200          50.300  
E30  26280723.922    26280733.840    26280732.199    26280734.398   138106124.847   103131233.104   105821603.583   104476423.449          44.400          44.200          46.300          50.800  
E15  23581371.906    23581379.047    23581377.594    23581379.387   123920946.248    92538355.561    94952398.854    93745368.313          49.300          48.200          49.100          55.500  
E21  26694056.000    26694064.508    26694062.398    26694064.230   140278210.626   104753241.266   107485924.633   106119545.058          43.100          43.200          44.200          49.300  
E05  25599552.680    25599564.516    25599561.844    25599564.199   134526570.892   100458193.581   103078833.096   101768523.944          41.700          41.900          42.800          48.200  
E27  24421989.563    24421996.660    24421994.691    24421997.051   128338418.588    95837148.108    98337242.106    97087153.213          47.400          47.300          48.800          54.200  
C04  38608862.352    38608861.914   201046477.684   155461886.285          36.600          41.200  
C03  37587281.594    37587281.133   195726838.955   151348404.742          39.200          41.900  
C02  39067104.180    39067104.805   203432679.456   157307040.703          34.800          41.200  
C01  38143057.977    38143057.938   198620910.071   153586290.101          39.600          42.000  
C30  22152897.219                   115355943.953                          48.800                  
C29  22478941.625                   117053741.889                          47.500                  
C27  25691239.477                   133781006.052                          30.800                  
C20  24367846.609                   126889787.104                          44.200                  
C13  39009816.070    39009824.070   203134357.977   157076407.516          40.400          40.200  
> 2025 04 10 06 39 10.0000000  0 32
G17  20867514.758                    20867521.453   109659536.854                    85449014.447          46.700                          47.700  
G11  23480147.102                    23480156.012   123389041.542                    96147315.790          43.200                          45.400  
G14  23186251.633                    23186264.992   121844567.025                    94943841.701          42.200                          42.300  
G22  22247504.266    22247511.813                   116911423.920    91099837.167                          45.800          32.600                  
G03  22573577.820                    22573587.910   118624960.475                    92435047.115          41.300                          46.000  
G19  19973133.508    19973137.559                   104959519.642    81786662.544                          47.600          42.500                  
G06  21186369.383                    21186378.754   111335139.132                    86754666.611          47.100                          48.100  
G09  23836738.398                    23836752.676   125262901.248                    97607510.156          41.100                          38.800  
G04  23589827.281                    23589838.859   123965375.281                    96596436.104          38.900                          42.600  
G12  24220533.828                    24220541.844   127279768.121                    99179079.740          40.900                          40.100  
R01  21199463.672    21199462.859                                   113323280.493   113323261.487                                          45.600          44.300                                  
R02  21061980.398    21061978.727    21061989.117    21061988.629   112390767.191   112390756.207    87415035.033    87415042.036          48.500          46.600          46.900          47.600  
R18  21714564.508    21714563.551    21714572.113    21714571.164   115913822.849   115913805.853    90155183.524    90155187.521          46.000          44.100          45.600          46.100  
R17  19845277.023    19845276.559    19845284.227    19845283.844   106196081.000   106196070.006    82596949.761    82596953.757          51.100          49.500          49.300          48.900  
R16  21627819.734    21627818.926    21627828.047    21627827.793   115531936.163   115531915.164    89858161.231    89858168.244          46.300          45.200          46.200          46.800  
R15  21744192.531    21744192.883    21744202.910    21744202.410   116194357.520   116194343.501    90373379.106    90373384.110          46.500          45.000          45.500          46.200  
R24  21897583.664    21897582.730    21897592.246    21897591.840   117096212.508   117096198.521    91074818.813    91074824.816          47.200          44.900          45.700          46.100  
E13  26232185.430    26232195.570    26232193.789    26232196.078   137851071.424   102940737.141   105626146.686   104283418.019          41.300          43.700          45.300          50.300  
E30  26282200.914    26282210.883    26282209.383    26282211.309   138113885.940   103137028.698   105827550.368   104482294.637          45.000          44.100          46.400          50.800  
E15  23580007.914    23580014.859    23580013.219    23580015.234   123913776.987    92533001.885    94946905.520    93739944.809          48.600          48.000          49.700          55.600  
E21  26690942.680    26690951.191    26690949.176    26690950.930   140261850.948   104741024.640   107473389.320   106107169.086          42.700          43.600          44.300          49.900  
E05  25597233.461    25597245.055    25597242.055    25597244.449   134514381.369   100449091.034   103069493.089   101759302.672          42.200          41.900          43.400          48.100  
E27  24421419.242    24421426.203    24421424.281    24421426.570   128335420.844    95834909.525    98334945.126    97084885.434          48.000          47.500          48.500          54.400  
C04  38607512.117    38607512.047   201039446.739   155456449.512          36.800          41.100  
C03  37585954.383    37585954.316   195719928.283   151343060.964          39.400          41.700  
C02  39065761.570    39065762.813   203425687.732   157301634.275          35.300          41.000  
C01  38141738.500    38141738.395   198614037.128   153580975.513          39.700          41.400  
C30  22152579.391                   115354290.394                          48.700                  
C29  22476142.258                   117039165.060                          48.200                  
C27  25692376.766                   133786922.866                          30.100                  
C20  24363585.805                   126867597.612                          43.700                  
C13  39007348.422    39007356.797   203121508.122   157066471.225          41.000          40.200  
> 2025 04 10 06 39 15.0000000  0 32
G17  20867208.117                    20867215.758   109657925.565                    85447758.890          46.300                          47.300  
G11  23476412.523                    23476422.105   123369418.742                    96132025.348          43.000                          44.100  
G14  23188394.914                    23188406.750   121855823.704                    94952613.103          42.500                          42.700  
G22  22248689.156    22248697.258                   116917650.931    91104689.351                          45.700          32.500                  
G03  22575206.383                    22575216.883   118633521.079                    92441717.707          40.900                          45.200  
G19  19971084.648    19971088.309                   104948752.373    81778272.458                          48.500          42.300                  
G06  21183890.875                    21183900.535   111322116.846                    86744519.373          47.800                          48.200  
G09  23832621.844                    23832636.160   125241269.445                    97590654.252          41.100                          40.000  
G04  23586754.500                    23586765.430   123949226.460                    96583852.651          39.200                          41.300  
G12  24216552.281                    24216560.988   127258847.688                    99162778.104          41.700                          40.200  
R01  21199222.023    21199220.977                                   113321990.439   113321971.425                                          44.100          42.700                                  
R02  21058114.898    21058113.109    21058122.879    21058122.836   112370139.628   112370128.628    87398991.381    87398998.384          49.000          47.900          46.900          47.600  
R18  21711062.813    21711062.090    21711071.520    21711071.086   115895135.625   115895118.630    90140649.018    90140653.013          45.000          43.900          46.000          47.200  
R17  19843792.336    19843791.051    19843798.277    19843798.094   106188134.413   106188123.409    82590769.078    82590773.081          51.600          49.300          48.300          49.200  
R16  21626221.375    21626221.152    21626230.203    21626229.961   115523399.435   115523378.450    89851521.515    89851528.526          46.600          45.700          46.800          46.900  
R15  21745921.508    21745921.273    21745931.344    21745930.656   116203592.830   116203578.827    90380562.128    90380567.123          46.600          45.200          44.700          45.500  
R24  21898531.930    21898532.168    21898540.391    21898540.324   117101281.900   117101267.899    91078761.656    91078767.653          46.500          44.700          45.100          45.800  
E13  26229065.102    26229076.016    26229073.719    26229075.977   137834675.537   102928493.463   105613583.601   104271014.644          41.400          43.400          44.600          50.000  
E30  26283678.734    26283688.773    26283686.992    26283689.215   138121651.759   103142827.822   105833500.775   104488169.405          45.500          43.900          46.400          50.800  
E15  23578644.398    23578651.688    23578649.672    23578651.859   123906612.779    92527651.994    94941416.062    93734525.137          49.000          48.500          49.800          55.500  
E21  26687830.977    26687839.551    26687837.113    26687839.531   140245500.154   104728814.647   107460860.806   106094799.837          43.000          43.100          43.600          49.700  
E05  25594915.234    25594927.816    25594924.719    25594927.055   134502202.236   100439996.227   103060161.036   101750089.239          41.400          42.900          43.200          48.800  
E27  24420850.953    24420858.063    24420856.094    24420858.461   128332435.014    95832679.843    98332657.281    97082626.673          47.400          47.500          48.900          54.400  
C04  38606161.547    38606161.973   201032416.078   155451012.953          37.200          41.200  
C03  37584627.039    37584627.098   195713017.779   151337717.325          39.000          41.600  
C02  39064418.695    39064419.734   203418696.029   157296228.243          34.900          38.800  
C01  38140417.789    38140418.129   198607164.388   153575661.076          39.500          41.600  
C30  22152263.188                   115352643.214                          48.200                  
C29  22473343.703                   117024592.807                          48.500                  
C27  25693514.430                   133792842.058                          30.500                  
C20  24359325.367                   126845414.102                          44.100                  
C13  39004881.094    39004889.598   203108661.247   157056537.228          40.900          40.100  
> 2025 04 10 06 39 20.0000000  0 32
G17  20866903.547                    20866910.086   109656324.590                    85446511.355          46.500                          47.100  
G11  23472679.703                    23472688.488   123349800.822                    96116738.676          43.500                          42.900  
G14  23190536.891                    23190549.938   121867084.818                    94961387.944          41.300                          43.000  
G22  22249876.602    22249884.277                   116923887.904    91109549.310                          45.400          33.100                  
G03  22576836.578                    22576847.871   118642091.144                    92448395.653          40.500                          45.200  
G19  19969037.867    19969042.191                   104937997.314    81769891.899                          48.900          42.100                  
G06  21181414.797                    21181423.832   111309102.659                    86734378.460          48.000                          47.600  
G09  23828506.461                    23828520.934   125219641.999                    97573801.772          41.500                          39.700  
G04  23583683.734                    23583694.637   123933088.662                    96571277.774          40.400                          41.400  
G12  24212573.508                    24212582.035   127237938.677                    99146485.382          42.000                          39.600  
R01  21198984.609    21198983.445                                   113320722.946   113320703.925                                          44.600          42.800                                  
R02  21054252.094    21054250.539    21054259.508    21054259.879   112349529.046   112349518.054    87382960.954    87382967.958          49.100          46.700          47.000          47.100  
R18  21707563.172    21707562.215    21707571.195    21707570.668   115876452.256   115876435.240    90126117.514    90126121.519          44.300          43.900          45.700          47.300  
R17  19842309.133    19842308.082    19842315.250    19842314.797   106180195.733   106180184.737    82584594.547    82584598.549          51.700          49.500          48.800          49.700  
R16  21624628.945    21624627.434    21624636.340    21624636.324   115514885.494   115514864.481    89844899.570    89844906.581          47.500          45.600          47.400          48.900  
R15  21747653.227    21747652.992    21747662.047    21747661.699   116212841.295   116212827.307    90387755.366    90387760.370          48.100          45.900          44.700          46.000  
R24  21899480.492    21899480.496    21899489.461    21899489.121   117106356.121   117106342.137    91082708.239    91082714.237          46.400          44.900          45.100          45.900  
E13  26225945.953    26225956.895    26225954.641    26225956.715   137818283.441   102916252.630   105601023.457   104258614.152          41.500          43.700          44.900          50.300  
E30  26285158.008    26285167.469    26285165.922    26285168.004   138129422.559   103148630.671   105839454.995   104494047.942          45.300          44.200          46.300          50.800  
E15  23577282.133    23577289.512    23577287.730    23577289.742   123899453.874    92522306.058    94935930.667    93729109.467          48.600          48.300          49.500          55.600  
E21  26684721.336    26684729.867    26684727.148    26684729.879   140229158.595   104716611.545   107448339.366   106082437.565          42.600          43.100          44.600          49.600  
E05  25592599.898    25592612.281    25592609.465    25592611.469   134490033.672   100430909.351   103050837.100   101740883.838          41.900          41.900          43.200          48.000  
E27  24420285.227    24420292.027    24420290.246    24420292.559   128329461.376    95830459.260    98330378.771    97080377.125          48.400          47.400          49.100          54.400  
C04  38604811.727    38604811.742   201025385.917   155445576.790          36.700          41.700  
C03  37583299.750    37583299.996   195706107.754   151332374.060          39.400          42.100  
C02  39063076.633    39063077.598   203411704.627   157290821.652          35.400          40.700  
C01  38139098.492    38139098.699   198600292.107   153570347.000          39.400          41.300  
C30  22151948.039                   115351002.702                          48.800                  
C29  22470546.383                   117010025.433                          47.300                  
C27  25694650.375                   133798763.660                          30.500                  
C20  24355065.922                   126823236.911                          44.900                  
C13  39002414.984    39002423.020   203095817.561   157046605.697          41.000          40.200  
> 2025 04 10 06 39 25.0000000  0 32
G17  20866600.797                    20866608.055   109654733.710                    85445271.713          46.700                          47.600  
G11  23468947.711                    23468956.277   123330187.485                    96101455.576          44.100                          43.200  
G14  23192680.820                    23192693.848   121878350.161                    94970166.079          41.600                          43.100  
G22  22251065.367    22251072.676                   116930134.532    91114416.796                          46.100          33.300                  
G03  22578469.727                    22578480.344   118650670.437                    92455080.812          40.200                          44.500  
G19  19966993.969    19966997.578                   104927254.245    81761520.670                          48.900          42.100                  
G06  21178939.531                    21178949.367   111296096.354                    86724243.671          48.200                          47.600  
G09  23824390.797                    23824405.527   125198018.848                    97556952.649          41.200                          39.800  
G04  23580614.508                    23580626.020   123916961.663                    96558711.287          40.200                          40.800  
G12  24208596.570                    24208605.223   127217040.872                    99130201.381          41.400                          40.200  
R01  21198751.039    21198750.461                                   113319477.783   113319458.813                                          44.100          42.400                                  
R02  21050393.055    21050391.969    21050400.754    21050400.590   112328935.563   112328924.569    87366943.812    87366950.815          49.300          47.100          46.700          47.500  
R18  21704064.727    21704063.184    21704072.031    21704071.809   115857772.614   115857755.601    90111588.910    90111592.915          44.900          43.300          46.600          46.400  
R17  19840826.328    19840825.629    19840832.941    19840832.188   106172264.685   106172253.703    82578425.961    82578429.957          51.800          49.500          49.000          49.800  
R16  21623037.875    21623037.770    21623047.004    21623047.008   115506394.165   115506373.158    89838295.201    89838302.212          47.100          45.200          47.200          48.300  
R15  21749385.422    21749385.066    21749395.250    21749394.426   116222102.761   116222088.757    90394958.723    90394963.719          47.300          45.200          44.900          46.400  
R24  21900429.828    21900429.012    21900438.703    21900438.723   117111434.753   117111420.761    91086658.253    91086664.249          47.000          44.500          45.400          45.600  
E13  26222827.578    26222838.652    26222835.887    26222837.965   137801894.958   102904014.500   105588466.059   104246216.385          41.800          43.600          44.400          50.100  
E30  26286637.180    26286647.207    26286645.191    26286647.465   138137198.098   103154437.054   105845412.852   104499930.064          45.000          44.400          45.600          50.800  
E15  23575920.820    23575927.934    23575926.152    23575928.250   123892300.114    92516963.964    94930449.213    93723697.692          48.900          47.900          49.200          55.600  
E21  26681612.992    26681621.887    26681619.070    26681621.883   140212825.972   104704415.119   107435824.768   106070082.054          42.500          43.200          43.500          49.300  
E05  25590286.383    25590298.336    25590295.711    25590297.664   134477875.512   100421830.228   103041521.128   101731686.287          41.000          42.300          43.400          48.300  
E27  24419721.406    24419728.574    24419726.605    24419728.836   128326499.712    95828247.626    98328109.444    97078136.641          47.400          47.800          48.600          54.300  
C04  38603461.703    38603461.953   201018356.053   155440140.858          36.500          41.100  
C03  37581973.469    37581973.168   195699197.977   151327030.981          39.200          42.300  
C02  39061733.445    39061734.570   203404713.437   157285415.609          34.900          41.300  
C01  38137778.570    38137778.801   198593420.058   153565033.099          39.600          41.300  
C30  22151634.484                   115349368.639                          48.800                  
C29  22467749.797                   116995462.660                          47.600                  
C27  25695786.539                   133804688.181                          28.300                  
C20  24350808.016                   126801065.818                          44.000                  
C13  38999949.242    38999957.270   203082976.944   157036676.536          41.300          39.400  
