     2.11           OBSERVATION DATA    G (GPS)             RINEX VERSION / TYPE
teqc  2018Dec12     gpsops              20260223 00:29:05UTCPGM / RUN BY / DATE
Linux 2.6.32-573.12.1.x86_64|x86_64|gcc -static|Linux 64|=+ COMMENT
BIT 2 OF LLI FLAGS DATA COLLECTED UNDER A/S CONDITION       COMMENT
CHAN                                                        MARKER NAME
21611M002                                                   MARKER NUMBER
GGN                 Changchun Observatory,NAOC,CAS          OBSERVER / AGENCY
UC2200511014        ASHTECH UZ-12       CQ00                REC # / TYPE / VERS
16892               ASH701945C_M    NONE                    ANT # / TYPE
 -2674431.9143  3757145.2969  4391528.8732                  APPROX POSITION XYZ
        0.2500        0.0000        0.0000                  ANTENNA: DELTA H/E/N
     1     1                                                WAVELENGTH FACT L1/2
     7    L1    L2    P1    P2    C1    S1    S2            # / TYPES OF OBSERV
    30.0000                                                 INTERVAL
Forced Modulo Decimation to 30 seconds                      COMMENT
 SNR is mapped to RINEX snr flag value [0-9]                COMMENT
  L1 & L2: min(max(int(snr_dBHz/6), 0), 9)                  COMMENT
pseudorange smoothing corrections not applied               COMMENT
  2026     2    22     0     0    0.0000000     GPS         TIME OF FIRST OBS
This data is provided as a public service by NASA/JPL.      COMMENT
No warranty is expressed or implied regarding suitability   COMMENT
for use.  For further information, contact:                 COMMENT
ggnops at jpl dot nasa dot gov                              COMMENT
                                                            END OF HEADER
 26  2 22  0  0  0.0000000  0 10G16G04G03G27G28G09G29G31G26G18
 -23122586.82748 -17961178.01648  20337177.1764   20337180.3774   20337177.629
        53.0004         48.0004
 -14294860.00548 -11089004.61947  21802187.2054   21802191.4084   21802186.408
        50.0004         45.0004
   4050850.67257   3189722.34756  25054695.3265   25054703.3475   25054693.645
        44.0004         39.0004
  -7448650.47148  -5756892.10447  23058132.9574   23058140.1104   23058132.980
        51.0004         47.0004
 -14510834.89548 -11255613.64647  22376955.5264   22376959.9694   22376954.382
        49.0004         44.0004
   -757820.64648   -546734.47547  23648016.3174   23648022.7404   23648016.509
        48.0004         43.0004
  -4387312.36748  -3410845.24947  23959247.8244   23959254.4404   23959246.826
        48.0004         43.0004
 -20332373.62649 -15791314.59349  20564932.2864   20564934.8314   20564931.719
        58.0004         54.0004
 -21173186.08249 -16419604.98649  20363892.8924   20363899.1674   20363892.769
        59.0004         54.0004
  -1336203.88047  -1004987.73346  24948363.6204   24948369.2664   24948363.087
        42.0004         37.0004
 26  2 22  0  0 30.0000000  0  9G16G04G27G28G09G29G31G26G18
 -23162966.82848 -17992642.96448  20329492.7734   20329496.8834   20329493.453
        53.0004         48.0004
 -14340320.42448 -11124428.35347  21793536.4724   21793540.3814   21793536.277
        50.0004         45.0004
  -7564882.26248  -5847462.29947  23036015.1464   23036021.9344   23036015.738
        51.0004         47.0004
 -14436843.65348 -11197958.21847  22391035.5804   22391040.3394   22391035.686
        49.0004         44.0004
   -844960.07648   -614635.35347  23631434.6664   23631440.5064   23631434.697
        48.0004         44.0004
  -4301630.60848  -3344080.41947  23975552.9864   23975558.9404   23975552.432
        48.0004         43.0004
 -20297882.56149 -15764438.47249  20571495.8244   20571498.2134   20571495.588
        58.0004         54.0004
 -21145761.26649 -16398235.02949  20369111.8194   20369118.1534   20369111.549
        59.0004         54.0004
  -1406362.31146  -1059656.52346  24935012.2344   24935018.7784   24935011.042
        41.0004         37.0004
 26  2 22  0  1  0.0000000  0  9G16G04G27G28G09G29G31G26G18
 -23202903.14348 -18023762.18548  20321893.8234   20321896.9704   20321893.814
        53.0004         48.0004
 -14385228.19048 -11159421.44847  21784991.1894   21784994.3854   21784990.518
        50.0004         45.0004
  -7680903.91548  -5937868.76647  23013936.6464   23013943.4204   23013936.603
        51.0004         47.0004
 -14362576.48648 -11140087.78447  22405168.2074   22405174.1134   22405167.996
        49.0004         44.0004
   -931735.47848   -682252.57047  23614920.7884   23614927.9804   23614921.156
        48.0004         44.0004
  -4215603.59648  -3277046.56247  23991924.4994   23991929.7584   23991925.649
        48.0004         43.0004
 -20263001.32149 -15737258.33149  20578133.4914   20578135.9864   20578133.433
        58.0004         54.0004
 -21117970.01649 -16376579.54049  20374400.2084   20374406.4404   20374399.894
        59.0004         54.0004
  -1476272.27246  -1114131.68846  24921710.8794   24921714.4484   24921709.544
        41.0004         36.0004
 26  2 22  0  1 30.0000000  0  9G16G04G27G28G09G29G31G26G18
 -23242395.85748 -18054535.73848  20314378.5474   20314381.6434   20314378.481
        53.0004         48.0004
 -14429581.51248 -11193982.51047  21776550.7014   21776554.9444   21776550.018
        50.0004         45.0004
  -7796712.66248  -6028109.33647  22991899.2724   22991905.7634   22991898.864
        51.0004         47.0004
 -14288034.08548 -11082002.91047  22419352.5084   22419357.7104   22419352.694
        49.0004         44.0004
  -1018144.30448   -749584.11347  23598478.3064   23598485.0554   23598478.354
        48.0004         44.0004
  -4129234.44548  -3209746.07447  24008359.2304   24008365.0344   24008359.480
        48.0004         43.0004
 -20227729.98549 -15709774.22549  20584845.4804   20584848.0574   20584845.366
        58.0004         54.0004
 -21089813.50049 -16354639.43249  20379758.3064   20379764.5174   20379758.367
        59.0004         54.0004
  -1545930.97746  -1168411.11546  24908452.1704   24908461.2804   24908452.136
        41.0004         36.0004
 26  2 22  0  2  0.0000000  0  9G16G04G27G28G09G29G31G26G18
 -23281444.29948 -18084963.11848  20306947.9364   20306950.6144   20306948.009
        53.0004         48.0004
 -14473378.46948 -11228110.03247  21768216.1324   21768220.7924   21768215.866
        50.0004         45.0004
  -7912305.48948  -6118181.64447  22969902.4564   22969909.5244   22969902.008
        51.0004         47.0004
 -14213216.92848 -11023703.91947  22433589.8894   22433594.5204   22433589.808
        49.0004         44.0004
  -1104183.64748   -816627.78047  23582105.5794   23582112.4734   23582105.195
        48.0004         44.0004
  -4042524.89448  -3142180.36447  24024859.4634   24024865.3134   24024859.064
        48.0004         43.0004
 -20192068.37149 -15681985.99749  20591631.5844   20591634.4404   20591631.393
        58.0004         54.0004
 -21061292.78949 -16332415.53849  20385185.4724   20385192.0264   20385185.442
        59.0004         54.0004
  -1615335.26946  -1222492.29246  24895244.4764   24895252.9994   24895245.285
        41.0004         36.0004
 26  2 22  0  2 30.0000000  0  9G16G04G27G28G09G29G31G26G18
 -23320048.93648 -18115044.65748  20299601.2364   20299604.9534   20299601.426
        53.0004         48.0004
 -14516617.45848 -11261802.78747  21759987.7424   21759992.9434   21759987.874
        50.0004         45.0004
  -8027679.60448  -6208083.54747  22947947.4254   22947954.5984   22947946.626
        52.0004         47.0004
 -14138125.74248 -10965191.40147  22447879.2664   22447883.9214   22447879.566
        49.0004         44.0004
  -1189850.96848   -883381.54247  23565803.6054   23565810.7124   23565803.458
        49.0004         44.0004
  -3955477.95148  -3074351.75447  24041424.8514   24041429.7824   24041424.703
        48.0004         43.0004
 -20156016.70749 -15653893.82949  20598492.1814   20598494.7714   20598491.626
        58.0004         54.0004
 -21032409.08749 -16309908.79249  20390681.8724   20390688.3124   20390681.855
        59.0004         54.0004
  -1684482.40746  -1276373.08846  24882086.4954   24882097.6104   24882087.121
        41.0004         36.0004
 26  2 22  0  3  0.0000000  0  9G16G04G27G28G09G29G31G26G18
 -23358209.30948 -18144780.02548  20292339.7404   20292343.3914   20292340.034
        53.0004         48.0004
 -14559296.69348 -11295059.36147  21751866.1774   21751871.0434   21751866.150
        50.0004         45.0004
  -8142832.17448  -6297812.80347  22926034.3334   22926041.5304   22926034.235
        52.0004         47.0004
 -14062761.19648 -10906465.87747  22462221.3754   22462225.7224   22462221.154
        49.0004         44.0004
  -1275143.55848   -949843.31747  23549572.9914   23549579.7304   23549572.475
        49.0004         44.0004
  -3868096.14448  -3006262.20247  24058053.2404   24058058.2014   24058053.440
        48.0004         43.0004
 -20119575.05149 -15625497.77349  20605426.8274   20605429.4304   20605426.618
        58.0004         54.0004
 -21003163.60349 -16287120.13349  20396246.9354   20396253.4934   20396247.042
        59.0004         54.0004
  -1753369.41746  -1330051.17346  24868979.2444   24868986.3664   24868977.627
        40.0004         36.0004
 26  2 22  0  3 30.0000000  0  9G16G04G27G28G09G29G31G26G18
 -23395925.11648 -18174168.97448  20285162.6524   20285166.0874   20285163.252
        53.0004         48.0004
 -14601414.42248 -11327878.39147  21743851.4214   21743856.2174   21743851.258
        50.0004         45.0004
  -8257760.26748  -6387367.16347  22904164.0394   22904171.1734   22904163.944
        51.0004         47.0004
 -13987123.84148 -10847527.78647  22476615.3654   22476619.1964   22476615.068
        49.0004         44.0004
  -1360058.70248  -1016010.97647  23533414.8234   23533420.9464   23533414.220
        49.0004         44.0004
  -3780381.94848  -2937913.65247  24074745.4674   24074749.9454   24074744.801
        48.0004         43.0004
 -20082743.50249 -15596797.90149  20612435.5664   20612437.8594   20612435.278
        58.0004         54.0004
 -20973557.44849 -16264050.43849  20401881.1154   20401887.3324   20401881.095
        59.0004         54.0004
  -1821993.34246  -1383524.27646  24855921.7094   24855928.0544   24855920.607
        40.0004         36.0004
 26  2 22  0  4  0.0000000  0  9G16G04G27G28G09G29G31G26G18
 -23433196.75748 -18203211.82348  20278070.2164   20278073.5364   20278070.548
        53.0004         48.0004
 -14642968.96648 -11360258.58147  21735944.7414   21735949.3584   21735944.450
        50.0004         45.0004
  -8372461.07448  -6476744.41347  22882336.6404   22882344.3264   22882337.064
        51.0004         47.0004
 -13911214.40348 -10788377.67247  22491059.6624   22491064.8174   22491059.753
        49.0004         44.0004
  -1444593.75848  -1081882.44847  23517327.7174   23517334.1444   23517327.973
        49.0004         44.0004
  -3692338.14848  -2869308.25947  24091499.0034   24091503.2454   24091499.604
        48.0004         43.0004
 -20045522.21349 -15567794.35349  20619518.5554   20619521.0484   20619518.340
        58.0004         54.0004
 -20943591.80449 -16240700.61349  20407583.2324   20407589.6114   20407583.035
        59.0004         54.0004
  -1890351.28746  -1436790.11546  24842911.0984   24842918.0674   24842911.952
        40.0004         36.0004
 26  2 22  0  4 30.0000000  0  9G16G04G27G28G09G29G31G26G18
 -23470024.01048 -18231908.40448  20271061.8754   20271065.7124   20271062.683
        53.0004         48.0004
 -14683958.67848 -11392198.63647  21728143.5374   21728148.8634   21728144.477
        50.0004         45.0004
  -8486931.69548  -6565942.29447  22860554.5864   22860561.4874   22860554.174
        52.0004         47.0004
 -13835033.56448 -10729016.08447  22505556.3564   22505561.4914   22505555.951
        48.0004         44.0004
  -1528746.12248  -1147455.71847  23501314.2664   23501321.4064   23501313.242
        49.0004         44.0004
  -3603967.25548  -2800447.99547  24108316.5734   24108320.5824   24108317.164
        48.0004         43.0004
 -20007911.69449 -15538487.48949  20626675.6054   20626678.3624   20626675.340
        58.0004         54.0004
 -20913267.88149 -16217071.61449  20413354.0784   20413360.3004   20413353.882
        59.0004         54.0004
  -1958440.38546  -1489846.45946  24829955.7574   24829965.3614   24829954.696
        40.0004         36.0004
 26  2 22  0  5  0.0000000  0  9G16G04G27G28G09G29G31G26G18
 -23506406.74148 -18260258.59048  20264138.6314   20264142.4684   20264138.837
        53.0004         48.0004
 -14724381.89048 -11423697.25847  21720450.9104   21720456.6164   21720451.387
        50.0004         45.0004
  -8601169.27548  -6654958.59447  22838815.6724   22838822.7874   22838815.570
        52.0004         47.0004
 -13758581.91748 -10669443.47747  22520105.1394   22520108.7774   22520103.980
        48.0004         44.0004
  -1612513.04748  -1212728.64447  23485373.4854   23485380.3624   23485372.871
        49.0004         44.0004
  -3515271.59248  -2731334.64747  24125194.5844   24125199.0214   24125194.499
        48.0004         43.0004
 -19969911.78349 -15508877.22049  20633906.8894   20633909.7164   20633906.647
        58.0004         54.0004
 -20882586.80449 -16193164.30849  20419192.4784   20419198.6054   20419192.364
        59.0004         54.0004
  -2026257.67646  -1542691.00646  24817049.6074   24817053.6234   24817049.643
        41.0004         36.0004
 26  2 22  0  5 30.0000000  0  9G16G04G27G28G09G29G31G26G18
 -23542344.86348 -18288262.33348  20257300.1024   20257303.0114   20257300.499
        53.0004         48.0004
 -14764236.94148 -11454753.17247  21712867.8834   21712872.9764   21712867.936
        50.0004         45.0004
  -8715171.03948  -6743791.14247  22817121.7104   22817128.8714   22817121.202
        52.0004         47.0004
 -13681860.17748 -10609660.40347  22534705.1444   22534709.4944   22534704.410
        48.0004         44.0004
  -1695891.95848  -1277699.22147  23469507.8004   23469514.2894   23469508.410
        49.0004         44.0004
  -3426254.49848  -2661970.83247  24142132.8114   24142138.6914   24142133.744
        48.0004         43.0004
 -19931522.56149 -15478963.57949  20641212.1624   20641215.1174   20641212.187
        58.0004         54.0004
 -20851549.80049 -16168979.65349  20425098.4344   20425104.8554   20425098.220
        59.0004         54.0004
  -2093800.32146  -1595321.54846  24804196.4194   24804205.5014   24804197.086
        41.0004         36.0004
 26  2 22  0  6  0.0000000  0  9G16G04G27G28G09G29G31G26G18
 -23577838.47748 -18315919.70548  20250545.9604   20250549.0264   20250546.279
        53.0004         48.0004
 -14803522.23948 -11485365.11047  21705391.9534   21705396.7074   21705391.474
        50.0004         45.0004
  -8828934.01648  -6832437.63347  22795473.5524   22795480.4024   22795473.359
        52.0004         47.0004
 -13604869.03548 -10549667.41447  22549355.6314   22549360.7494   22549355.273
        48.0004         44.0004
  -1778880.17248  -1342365.36747  23453715.7804   23453722.3834   23453715.593
        49.0004         45.0004
  -3336918.20047  -2592358.30847  24159133.4744   24159139.5804   24159132.512
        47.0004         43.0004
 -19892744.33949 -15448746.82148  20648591.4854   20648594.2024   20648591.294
        58.0004         53.0004
 -20820158.05149 -16144518.57549  20431072.1154   20431078.5094   20431071.990
        59.0004         54.0004
  -2161065.41746  -1647735.81546  24791396.6924   24791403.9894   24791396.371
        41.0004         36.0004
 26  2 22  0  6 30.0000000  0  9G16G04G27G28G09G29G31G26G18
 -23612887.36248 -18343230.52948  20243876.3094   20243879.5004   20243876.693
        53.0004         48.0004
 -14842236.14948 -11515531.81747  21698025.5474   21698029.9964   21698024.656
        50.0004         45.0004
  -8942455.41348  -6920895.86347  22773871.0624   22773878.2144   22773871.312
        52.0004         47.0004
 -13527609.15048 -10489465.00447  22564058.5224   22564062.3564   22564058.119
        48.0004         44.0004
  -1861475.06448  -1406725.03647  23437998.2114   23438004.4184   23437998.246
        49.0004         45.0004
  -3247265.24147  -2522499.03547  24176194.1064   24176199.7294   24176194.500
        47.0004         43.0004
 -19853577.31849 -15418227.10148  20656044.5624   20656047.2104   20656044.249
        58.0004         53.0004
 -20788412.69349 -16119781.96249  20437112.9694   20437119.5124   20437112.919
        59.0004         54.0004
  -2228050.05146  -1699931.55046  24778650.2954   24778655.4894   24778649.210
        41.0004         36.0004
 26  2 22  0  7  0.0000000  0  9G16G04G27G28G09G29G31G26G18
 -23647491.88448 -18370195.09648  20237291.6104   20237294.7184   20237291.772
        53.0004         48.0004
 -14880377.09148 -11545252.05747  21690766.8934   21690771.4294   21690766.718
        50.0004         45.0004
  -9055732.36048  -7009163.59948  22752315.3904   22752322.5904   22752315.407
        52.0004         48.0004
 -13450081.28148 -10429053.78347  22578811.2424   22578815.5074   22578810.620
        48.0004         44.0004
  -1943673.98748  -1470776.14147  23422356.0754   23422361.8914   23422356.393
        49.0004         45.0004
  -3157298.14847  -2452394.96847  24193314.9814   24193320.4914   24193314.848
        47.0004         43.0004
 -19814021.58749 -15387404.48348  20663571.9844   20663574.3794   20663571.571
        58.0004         53.0004
 -20756314.90949 -16094770.72949  20443221.2784   20443227.6034   20443221.343
        59.0004         54.0004
  -2294751.41846  -1751906.55646  24765955.0364   24765964.4314   24765955.869
        40.0004         36.0004
 26  2 22  0  7 30.0000000  0  9G16G04G27G28G09G29G31G26G18
 -23681651.51048 -18396813.00148  20230790.8404   20230794.3284   20230791.321
        53.0004         48.0004
 -14917943.54848 -11574524.63447  21683618.4874   21683623.4144   21683618.025
        50.0004         45.0004
  -9168762.00148  -7097238.65548  22730806.3784   22730813.4144   22730806.723
        52.0004         48.0004
 -13372286.05348 -10368434.23547  22593615.1044   22593619.2654   22593615.031
        48.0004         44.0004
  -2025474.32848  -1534516.65947  23406790.3624   23406796.4104   23406790.157
        49.0004         45.0004
  -3067019.64848  -2382048.26847  24210493.3064   24210500.2674   24210492.712
        48.0004         43.0004
 -19774077.51249 -15356279.27748  20671173.0334   20671175.6574   20671173.105
        58.0004         53.0004
 -20723865.91049 -16069485.81649  20449396.0424   20449402.3964   20449396.005
        59.0004         54.0004
  -2361166.60546  -1803658.55446  24753317.6124   24753324.5004   24753316.355
        40.0004         36.0004
 26  2 22  0  8  0.0000000  0  9G16G04G27G28G09G29G31G26G18
 -23715366.30148 -18423084.27048  20224375.0944   20224378.4354   20224375.367
        53.0004         48.0004
 -14954933.91748 -11603348.32347  21676578.5944   21676584.3654   21676579.037
        50.0004         45.0004
  -9281541.43348  -7185118.74248  22709345.4764   22709351.9054   22709346.026
        52.0004         48.0004
 -13294224.14448 -10307606.87647  22608470.9064   22608474.2324   22608470.296
        48.0004         44.0004
  -2106873.39248  -1597944.50147  23391300.7164   23391306.0734   23391299.884
        49.0004         45.0004
  -2976432.53648  -2311461.10847  24227732.4604   24227738.9424   24227732.475
        48.0004         43.0004
 -19733745.07749 -15324851.44148  20678847.7784   20678850.6074   20678847.604
        58.0004         53.0004
 -20691066.83649 -16043928.12349  20455637.3654   20455643.7464   20455637.254
        58.0004         54.0004
  -2427292.68646  -1855185.29246  24740732.9374   24740740.3884   24740735.034
        41.0004         36.0004
 26  2 22  0  8 30.0000000  0  9G16G04G27G28G09G29G31G26G18
 -23748636.73248 -18449009.29648  20218044.1434   20218047.2184   20218044.298
        53.0004         48.0004
 -14991346.78948 -11631722.01547  21669650.9134   21669655.2144   21669649.964
        50.0004         45.0004
  -9394067.96348  -7272801.74648  22687932.2034   22687939.2254   22687932.298
        52.0004         48.0004
 -13215896.41648 -10246572.40547  22623375.3954   22623379.2534   22623375.023
        48.0004         44.0004
  -2187868.74648  -1661057.78247  23375887.3024   23375893.0624   23375887.337
        49.0004         45.0004
  -2885539.43048  -2240635.48647  24245029.0494   24245034.9434   24245028.666
        48.0004         43.0004
 -19693024.52449 -15293121.19248  20686596.7824   20686599.6864   20686596.594
        58.0004         53.0004
 -20657919.00349 -16018098.67349  20461945.3354   20461951.7504   20461945.343
        58.0004         54.0004
  -2493126.94646  -1906484.62846  24728207.9974   24728214.2724   24728205.301
        41.0004         36.0004
 26  2 22  0  9  0.0000000  0  9G16G04G27G28G09G29G31G26G18
 -23781462.57948 -18474587.89448  20211797.6384   20211801.0434   20211797.855
        53.0004         48.0004
 -15027180.51748 -11659644.42947  21662831.8324   21662836.2694   21662830.909
        50.0004         45.0004
  -9506338.56648  -7360285.33948  22666567.1494   22666574.7964   22666567.349
        53.0004         48.0004
 -13137303.38648 -10185331.17547  22638331.5714   22638335.0314   22638330.873
        48.0004         44.0004
  -2268457.59448  -1723854.27847  23360552.2324   23360558.8224   23360552.763
        50.0004         45.0004
  -2794342.67348  -2169573.23947  24262381.8994   24262388.4864   24262381.321
        48.0004         43.0004
 -19651916.30349 -15261088.86448  20694419.4614   20694422.3204   20694419.267
        58.0004         53.0004
 -20624423.44449 -15991998.27049  20468319.2634   20468325.8404   20468319.140
        58.0004         54.0004
  -2558666.40546  -1957554.26646  24715734.5544   24715742.5204   24715733.392
        41.0004         36.0004
 26  2 22  0  9 30.0000000  0  9G16G04G27G28G09G29G31G26G18
 -23813843.88048 -18499820.08048  20205635.3564   20205638.8344   20205635.878
        53.0004         48.0004
 -15062433.72548 -11687114.47547  21656122.8634   21656127.7794   21656122.430
        50.0004         45.0004
  -9618350.48548  -7447567.35448  22645252.6444   22645259.5974   22645252.505
        53.0004         48.0004
 -13058445.89148 -10123883.86547  22653337.1274   22653342.8704   22653336.918
        48.0004         44.0004
  -2348637.42248  -1786332.05147  23345294.1724   23345300.6104   23345294.074
        50.0004         45.0004
  -2702845.12547  -2098276.63747  24279793.6834   24279800.2974   24279791.701
        47.0004         42.0004
 -19610420.47949 -15228754.50348  20702316.1424   20702318.8274   20702315.983
        58.0004         53.0004
 -20590581.38049 -15965627.85949  20474759.1684   20474765.7064   20474758.892
        58.0004         54.0004
  -2623908.26846  -2008391.97646  24703317.9654   24703325.3304   24703317.565
        41.0004         36.0004
 26  2 22  0 10  0.0000000  0  9G16G04G27G28G09G29G31G26G18
 -23845780.58148 -18524705.83948  20199558.0524   20199561.8044   20199558.370
        53.0004         48.0004
 -15097104.97148 -11714131.05747  21649524.9194   21649529.7544   21649524.874
        50.0004         45.0004
  -9730100.92648  -7534645.61648  22623986.8844   22623994.6944   22623986.682
        53.0004         48.0004
 -12979324.68548 -10062231.08047  22668393.4614   22668398.8504   22668393.457
        48.0004         44.0004
  -2428405.68848  -1848489.14947  23330114.8504   23330121.6714   23330114.330
        50.0004         45.0004
  -2611049.38647  -2026747.67347  24297261.8734   24297268.0464   24297261.427
        47.0004         42.0004
 -19568537.31449 -15196118.30648  20710286.2244   20710288.9644   20710285.930
        58.0004         53.0004
 -20556394.08249 -15938988.43349  20481265.0074   20481271.2634   20481265.062
        58.0004         54.0004
  -2688849.68946  -2058995.58946  24690961.5534   24690968.6334   24690961.173
        41.0004         37.0004
 26  2 22  0 10 30.0000000  0  9G16G04G27G28G09G29G31G26G18
 -23877272.83148 -18549245.26548  20193565.8754   20193568.7734   20193565.850
        53.0004         48.0004
 -15131192.74348 -11740692.98247  21643038.4924   21643043.5874   21643038.557
        50.0004         45.0004
  -9841586.94548  -7621517.85648  22602772.1574   22602779.1914   22602771.931
        53.0004         48.0004
 -12899940.42648 -10000373.31147  22683500.7604   22683505.3614   22683500.416
        48.0004         44.0004
  -2507759.72748  -1910323.46947  23315013.7904   23315020.7114   23315013.350
        50.0004         45.0004
  -2518957.85347  -1954988.21147  24314787.4294   24314792.6814   24314787.657
        47.0004         42.0004
 -19526267.13749 -15163180.54148  20718329.9464   20718332.4784   20718329.432
        58.0004         53.0004
 -20521862.66749 -15912080.87049  20487836.0054   20487842.4624   20487835.837
        58.0004         54.0004
  -2753487.84446  -2109362.90146  24678662.2494   24678667.5434   24678661.345
        41.0004         37.0004
 26  2 22  0 11  0.0000000  0  9G16G04G27G28G09G29G31G26G18
 -23908320.61548 -18573438.35748  20187657.4004   20187660.3974   20187657.762
        53.0004         48.0004
 -15164695.69248 -11766799.19047  21636662.8454   21636667.5864   21636663.223
        50.0004         45.0004
  -9952805.79648  -7708181.90048  22581607.7894   22581614.8134   22581607.456
        53.0004         48.0004
 -12820293.92348  -9938311.19247  22698655.9614   22698660.4424   22698656.597
        48.0004         44.0004
  -2586697.00948  -1971833.03747  23299993.0674   23299999.8754   23299992.712
        50.0004         45.0004
  -2426573.58747  -1883000.62947  24332367.1884   24332372.9624   24332367.279
        47.0004         42.0004
 -19483609.97849 -15129941.23748  20726447.3274   20726450.0554   20726446.848
        58.0004         53.0004
 -20486988.36149 -15884906.11449  20494472.5114   20494478.9064   20494472.401
        58.0004         54.0004
  -2817819.88846  -2159491.68046  24666418.3044   24666425.7744   24666418.184
        41.0004         37.0004
 26  2 22  0 11 30.0000000  0  9G16G04G27G28G09G29G31G26G18
 -23938924.11048 -18597285.24948  20181833.6784   20181837.0134   20181833.616
        53.0004         48.0004
 -15197612.39148 -11792448.59147  21630400.1984   21630404.2784   21630399.314
        50.0004         45.0004
 -10063754.61848  -7794635.54248  22560495.0014   22560501.9194   22560495.515
        53.0004         48.0004
 -12740385.93048  -9876045.32747  22713861.9034   22713866.1444   22713862.006
        48.0004         43.0004
  -2665214.92948  -2033015.83447  23285051.3414   23285058.0104   23285051.102
        50.0004         45.0004
  -2333899.01247  -1810786.86647  24350003.5984   24350009.1524   24350003.431
        47.0004         42.0004
 -19440566.26949 -15096400.73048  20734638.2664   20734641.1394   20734637.933
        58.0004         53.0004
 -20451772.33849 -15857465.09349  20501173.9514   20501180.5114   20501173.830
        58.0004         54.0004
  -2881843.03447  -2209379.74546  24654235.5114   24654242.8054   24654235.684
        42.0004         37.0004
 26  2 22  0 12  0.0000000  0  9G16G04G27G28G09G29G31G26G18
 -23969083.17648 -18620785.82748  20176094.8634   20176098.0614   20176095.113
        53.0004         49.0004
 -15229941.42248 -11817640.06447  21624247.4264   21624252.3884   21624247.375
        50.0004         45.0004
 -10174430.51848  -7880876.50648  22539433.7804   22539441.2214   22539433.748
        53.0004         48.0004
 -12660217.09248  -9813576.19447  22729117.8354   22729122.6774   22729117.612
        48.0004         43.0004
  -2743310.91248  -2093869.85247  23270190.0834   23270196.8914   23270190.614
        50.0004         45.0004
  -2240936.84847  -1738349.01347  24367694.0174   24367699.9754   24367694.018
        47.0004         43.0004
 -19397136.11349 -15062559.09448  20742902.8824   20742905.6774   20742902.527
        58.0004         53.0004
 -20416215.74349 -15829758.68849  20507940.0704   20507946.6614   20507940.153
        58.0004         54.0004
  -2945554.37047  -2259024.83146  24642112.7634   24642119.3834   24642111.042
        42.0004         37.0004
 26  2 22  0 12 30.0000000  0  9G16G04G27G28G09G29G31G26G18
 -23998798.37248 -18643940.53448  20170439.9744   20170443.4134   20170440.176
        53.0004         49.0004
 -15261681.60548 -11842372.68547  21618207.0284   21618212.4664   21618206.800
        50.0004         45.0004
 -10284830.78448  -7966902.69848  22518425.5654   22518432.5494   22518425.427
        53.0004         48.0004
 -12579788.29248  -9750904.49747  22744423.5414   22744427.5744   22744422.712
        48.0004         43.0004
  -2820982.54148  -2154393.19247  23255409.4744   23255416.6394   23255409.515
        50.0004         46.0004
  -2147689.54047  -1665688.95647  24385437.7964   24385443.6004   24385438.011
        47.0004         43.0004
 -19353319.92549 -15028416.63648  20751240.9514   20751243.5804   20751240.667
        58.0004         53.0004
 -20380319.90849 -15801787.94049  20514770.6514   20514777.2564   20514770.162
        58.0004         54.0004
  -3008951.30947  -2308424.94646  24630048.0224   24630056.1204   24630046.920
        42.0004         38.0004
 26  2 22  0 13  0.0000000  0  9G16G04G27G28G09G29G31G26G18
 -24028069.54348 -18666749.25248  20164869.8344   20164872.8474   20164870.059
        53.0004         48.0004
 -15292831.49948 -11866645.36147  21612279.8084   21612284.1174   21612279.565
        50.0004         45.0004
 -10394952.55048  -8052711.87148  22497470.3934   22497477.1214   22497470.294
        53.0004         48.0004
 -12499100.28548  -9688030.81447  22759778.2014   22759782.3354   22759777.788
        48.0004         43.0004
  -2898227.18448  -2214583.82347  23240710.8614   23240717.5204   23240710.347
        50.0004         46.0004
  -2054159.71647  -1592808.75047  24403236.4304   24403242.6764   24403235.738
        47.0004         43.0004
 -19309118.16149 -14993973.74848  20759652.2854   20759655.1024   20759651.747
        58.0004         53.0004
 -20344085.93349 -15773553.70849  20521666.0664   20521672.4724   20521666.039
        58.0004         54.0004
  -3072030.92747  -2357577.80546  24618043.2764   24618049.7574   24618043.814
        43.0004         38.0004
 26  2 22  0 13 30.0000000  0  9G16G04G27G28G09G29G31G26G18
 -24056896.69248 -18689211.96948  20159384.2864   20159387.3514   20159384.636
        53.0004         49.0004
 -15323389.77248 -11890457.01647  21606464.5584   21606469.4284   21606464.903
        50.0004         46.0004
 -10504792.87048  -8138301.74448  22476568.3844   22476574.8144   22476568.177
        53.0004         48.0004
 -12418153.73148  -9624955.66847  22775181.3194   22775186.4454   22775180.848
        48.0004         43.0004
  -2975042.19248  -2274439.67847  23226093.2244   23226099.3914   23226093.275
        50.0004         46.0004
  -1960349.95447  -1519710.40747  24421087.4734   24421093.8264   24421087.462
        47.0004         43.0004
 -19264530.95949 -14959230.51448  20768136.9234   20768139.7104   20768136.806
        58.0004         53.0004
 -20307514.94049 -15745056.86549  20528625.1644   20528631.7864   20528625.212
        58.0004         54.0004
  -3134790.36447  -2406481.18446  24606101.3274   24606107.6724   24606100.980
        43.0004         38.0004
 26  2 22  0 14  0.0000000  0  9G16G04G27G28G09G29G31G26G18
 -24085280.22848 -18711329.01148  20153983.0434   20153986.5324   20153983.094
        53.0004         49.0004
 -15353355.20948 -11913806.72747  21600762.2234   21600767.2934   21600762.387
        50.0004         45.0004
 -10614349.10048  -8223670.23848  22455720.5414   22455727.5584   22455720.467
        53.0004         48.0004
 -12336949.53848  -9561679.76047  22790632.9034   22790638.8774   22790633.359
        48.0004         43.0004
  -3051425.20348  -2333958.90647  23211558.2234   23211564.6314   23211558.107
        50.0004         46.0004
  -1866263.23847  -1446396.24347  24438992.5644   24438998.5644   24438992.542
        47.0004         43.0004
 -19219558.52349 -14924187.09648  20776694.8204   20776697.6414   20776694.435
        58.0004         53.0004
 -20270608.27749 -15716298.46149  20535648.3264   20535654.9324   20535648.346
        58.0004         54.0004
  -3197227.01747  -2455133.04546  24594220.4574   24594228.9484   24594218.919
        43.0004         38.0004
 26  2 22  0 14 30.0000000  0  9G16G04G27G28G09G29G31G26G18
 -24113220.20848 -18733100.43548  20148666.2584   20148669.4074   20148666.436
        53.0004         49.0004
 -15382726.54448 -11936693.50247  21595173.0234   21595178.2544   21595173.141
        50.0004         45.0004
 -10723618.31148  -8308815.08048  22434927.3564   22434934.4174   22434927.042
        53.0004         48.0004
 -12255488.42648  -9498203.65347  22806135.4114   22806140.5234   22806135.268
        48.0004         43.0004
  -3127373.65948  -2393139.51247  23197105.8684   23197112.1054   23197105.612
        50.0004         46.0004
  -1771901.90147  -1372868.09547  24456948.5114   24456955.0414   24456948.560
        47.0004         43.0004
 -19174201.26249 -14888843.81748  20785326.1714   20785328.7964   20785325.779
        58.0004         53.0004
 -20233367.05449 -15687279.36449  20542735.0514   20542741.7544   20542734.916
        58.0004         54.0004
  -3259337.95247  -2503531.10146  24582400.2184   24582408.9844   24582400.112
        43.0004         38.0004
 26  2 22  0 15  0.0000000  0  9G16G04G27G28G09G29G31G26G18
 -24140716.41048 -18754526.05948  20143433.9364   20143437.0674   20143434.012
        53.0004         49.0004
 -15411502.51548 -11959116.36147  21589697.0814   21589702.3174   21589696.910
        50.0004         45.0004
 -10832597.78148  -8393734.14448  22414189.1714   22414195.9544   22414189.499
        53.0004         48.0004
 -12173771.25148  -9434528.02347  22821684.8934   22821690.0404   22821685.681
        48.0004         43.0004
  -3202885.03648  -2451979.54347  23182736.4514   23182742.6034   23182736.969
        51.0004         46.0004
  -1677268.73747  -1299128.14747  24474956.0894   24474963.3694   24474956.536
        47.0004         42.0004
 -19128459.46049 -14853200.89748  20794030.5474   20794033.2194   20794030.190
        58.0004         53.0004
 -20195792.47849 -15658000.50949  20549885.3654   20549892.0934   20549885.105
        58.0004         54.0004
  -3321120.53947  -2551673.31546  24570643.8174   24570651.5534   24570643.725
        43.0004         38.0004
 26  2 22  0 15 30.0000000  0  9G16G04G27G28G09G29G31G26G18
 -24167769.40948 -18775606.32548  20138285.8264   20138289.2094   20138286.312
        53.0004         49.0004
 -15439681.96848 -11981074.39747  21584335.4104   21584340.1004   21584334.781
        50.0004         46.0004
 -10941284.60148  -8478425.16348  22393506.2054   22393513.5564   22393506.563
        53.0004         49.0004
 -12091798.76048  -9370653.46347  22837285.1134   22837290.4934   22837284.947
        48.0004         43.0004
  -3277956.84348  -2510477.04347  23168450.4154   23168456.9164   23168450.467
        51.0004         46.0004
  -1582366.14647  -1225178.26247  24493016.3444   24493023.3974   24493016.082
        47.0004         42.0004
 -19082333.29349 -14817258.47548  20802808.0614   20802810.8504   20802807.753
        58.0004         53.0004
 -20157885.75449 -15628462.83349  20557098.7104   20557105.3364   20557098.690
        58.0004         54.0004
  -3382571.94747  -2599557.46446  24558950.2714   24558956.7734   24558950.011
        43.0004         38.0004
 26  2 22  0 16  0.0000000  0  9G16G04G27G28G09G29G31G26G18
 -24194379.23148 -18796341.26148  20133222.3044   20133225.8194   20133222.456
        53.0004         49.0004
 -15467263.64348 -12002566.63547  21579086.9324   21579091.5664   21579085.990
        50.0004         46.0004
 -11049676.04748  -8562886.02148  22372880.4754   22372887.5054   22372879.990
        53.0004         49.0004
 -12009571.78147  -9306580.59647  22852932.5724   22852937.8404   22852931.932
        47.0004         43.0004
  -3352586.60348  -2568630.08147  23154249.1804   23154255.4534   23154249.814
        51.0004         46.0004
  -1487197.02547  -1151020.69847  24511127.1344   24511134.0344   24511127.625
        47.0004         42.0004
 -19035823.27249 -14781016.94548  20811658.8214   20811661.3764   20811658.411
        58.0004         53.0004
 -20119648.07349 -15598667.27349  20564375.2384   20564381.7884   20564374.878
        58.0004         54.0004
  -3443689.45347  -2647181.45246  24547318.2894   24547326.3424   24547318.772
        43.0004         38.0004
 26  2 22  0 16 30.0000000  0  9G16G04G27G28G09G29G31G26G18
 -24220546.08648 -18816731.03148  20128242.8454   20128246.3794   20128243.190
        53.0004         49.0004
 -15494246.44748 -12023592.22147  21573951.3984   21573956.1604   21573952.324
        50.0004         46.0004
 -11157769.29448  -8647114.51648  22352310.6844   22352317.8954   22352310.587
        53.0004         49.0004
 -11927091.09747  -9242310.03047  22868627.8144   22868633.1344   22868627.364
        47.0004         43.0004
  -3426771.82448  -2626436.75847  23140131.1434   23140137.5124   23140132.351
        50.0004         46.0004
  -1391764.07647  -1076657.54447  24529286.5824   24529293.5224   24529287.015
        47.0004         42.0004
 -18988929.66349 -14744476.51448  20820582.3524   20820585.1354   20820582.045
        57.0004         53.0004
 -20081080.63349 -15568614.75449  20571714.3924   20571721.2014   20571714.284
        58.0004         54.0004
  -3504470.33047  -2694543.13846  24535752.2074   24535760.6084   24535753.895
        43.0004         38.0004
 26  2 22  0 17  0.0000000  0  9G16G04G27G28G09G29G31G26G18
 -24246270.10548 -18836775.72848  20123347.9034   20123350.9954   20123348.175
        53.0004         49.0004
 -15520629.15748 -12044150.20447  21568931.2904   21568936.1924   21568931.062
        50.0004         46.0004
 -11265561.49848  -8731108.42548  22331798.8804   22331805.7884   22331798.542
        53.0004         49.0004
 -11844357.51847  -9177842.39847  22884371.3624   22884376.4934   22884370.913
        47.0004         43.0004
  -3500510.00248  -2683895.06447  23126100.0254   23126105.9794   23126099.898
        51.0004         46.0004
  -1296069.56147  -1002090.58147  24547497.1134   24547504.2014   24547496.930
        47.0004         42.0004
 -18941652.87349 -14707637.50248  20829578.7384   20829581.6394   20829578.620
        57.0004         53.0004
 -20042184.57549 -15538306.16349  20579116.2384   20579122.7514   20579116.100
        58.0004         54.0004
  -3564911.78047  -2741640.36446  24524251.9214   24524259.7924   24524251.529
        43.0004         39.0004
 26  2 22  0 17 30.0000000  0  9G16G04G27G28G09G29G31G26G18
 -24271551.79248 -18856475.75548  20118536.7514   20118539.9994   20118536.920
        53.0004         49.0004
 -15546410.77448 -12064239.80047  21564025.5984   21564030.2234   21564025.188
        50.0004         46.0004
 -11373050.03949  -8814865.70948  22311344.6464   22311351.7124   22311345.144
        54.0004         49.0004
 -11761371.95847  -9113178.42347  22900162.9764   22900167.9364   22900162.454
        47.0004         43.0004
  -3573798.82648  -2741003.23247  23112153.3584   23112159.7374   23112152.645
        51.0004         46.0004
  -1200116.74247   -927322.33847  24565755.8864   24565763.4804   24565755.441
        47.0004         42.0004
 -18893993.45849 -14670500.34748  20838648.1394   20838651.0684   20838647.895
        57.0004         53.0004
 -20002961.25749 -15507742.57049  20586580.0354   20586586.5524   20586579.984
        58.0004         54.0004
  -3625011.26947  -2788471.09646  24512814.5814   24512822.7524   24512813.872
        43.0004         39.0004
 26  2 22  0 18  0.0000000  0  9G16G04G27G28G09G29G31G26G18
 -24296391.09548 -18875831.07148  20113809.8044   20113813.2694   20113810.397
        53.0004         49.0004
 -15571589.99748 -12083859.99647  21559234.5554   21559238.5134   21559234.001
        50.0004         46.0004
 -11480231.88049  -8898384.00848  22290948.1674   22290955.4614   22290948.176
        54.0004         49.0004
 -11678135.04547  -9048318.57047  22916002.0254   22916008.1614   22916002.350
        47.0004         43.0004
  -3646635.60348  -2797759.15147  23098292.7724   23098299.4654   23098292.623
        51.0004         46.0004
  -1103907.77347   -852354.50347  24584064.6034   24584072.4434   24584065.829
        47.0004         42.0004
 -18845951.53649 -14633065.12248  20847790.1814   20847793.1634   20847789.570
        57.0004         53.0004
 -19963411.66449 -15476924.73649  20594105.9094   20594112.7344   20594105.793
        58.0004         54.0004
  -3684765.78947  -2835033.04046  24501442.9354   24501451.3534   24501443.320
        43.0004         39.0004
 26  2 22  0 18 30.0000000  0  9G16G04G27G28G09G29G31G26G18
 -24320788.17648 -18894841.79848  20109167.6264   20109170.7964   20109168.023
        53.0004         49.0004
 -15596165.98148 -12103010.13847  21554557.4144   21554562.9464   21554557.029
        50.0004         46.0004
 -11587104.47149  -8981661.34148  22270610.9844   22270617.9544   22270611.150
        54.0004         49.0004
 -11594647.83547  -8983263.70147  22931889.8874   22931895.1344   22931889.566
        47.0004         43.0004
  -3719018.13548  -2854161.12047  23084519.9404   23084525.4194   23084519.933
        51.0004         46.0004
  -1007445.13847   -777188.98547  24602421.3074   24602428.7614   24602420.774
        47.0004         42.0004
 -18797527.51449 -14595332.15848  20857004.8974   20857007.9984   20857004.699
        57.0004         53.0004
 -19923537.19549 -15445853.75449  20601693.9944   20601700.7094   20601693.986
        58.0004         54.0004
  -3744172.93847  -2881324.31046  24490138.8084   24490146.3124   24490140.150
        43.0004         39.0004
 26  2 22  0 19  0.0000000  0  9G16G04G27G28G09G29G31G26G18
 -24344743.14348 -18913508.01448  20104609.1554   20104612.0264   20104609.100
        53.0004         49.0004
 -15620137.52248 -12121689.28047  21549995.7424   21550000.7544   21549995.356
        50.0004         46.0004
 -11693664.88749  -9064695.41348  22250332.8124   22250340.0734   22250333.000
        54.0004         49.0004
 -11510911.03347  -8918014.33347  22947824.1624   22947830.3414   22947824.054
        47.0004         43.0004
  -3790943.85848  -2910207.12647  23070832.4624   23070838.3874   23070832.188
        51.0004         46.0004
   -910731.82147   -701828.15547  24620825.0824   24620832.6514   24620824.734
        47.0004         42.0004
 -18748721.61349 -14557301.63048  20866292.3164   20866295.5804   20866292.301
        57.0004         53.0004
 -19883338.87649 -15414530.42549  20609343.4834   20609350.1324   20609343.301
        58.0004         54.0004
  -3803229.82747  -2927342.66646  24478901.0764   24478908.6054   24478898.663
        43.0004         38.0004
 26  2 22  0 19 30.0000000  0  9G16G04G27G28G09G29G31G26G18
 -24368256.38648 -18931830.04048  20100134.3804   20100137.9384   20100134.857
        53.0004         49.0004
 -15643503.71148 -12139896.71847  21545548.7804   21545554.7064   21545548.397
        51.0004         46.0004
 -11799910.47149  -9147484.16248  22230115.2364   22230122.3824   22230114.734
        54.0004         49.0004
 -11426925.56847  -8852571.19647  22963806.8024   22963811.1774   22963806.919
        47.0004         43.0004
  -3862410.45948  -2965895.38047  23057233.0364   23057239.1044   23057232.900
        51.0004         46.0004
   -813770.08647   -626273.74547  24639276.1594   24639284.2394   24639275.874
        47.0004         42.0004
 -18699534.41749 -14518973.99648  20875652.5944   20875655.1794   20875652.525
        57.0004         53.0004
 -19842818.03649 -15382955.77149  20617054.4494   20617061.0704   20617054.357
        58.0004         54.0004
  -3861933.89947  -2973086.10146  24467730.0084   24467736.7014   24467729.436
        43.0004         39.0004
 26  2 22  0 20  0.0000000  0  9G16G04G27G28G09G29G31G26G18
 -24391328.16648 -18949808.06148  20095743.8424   20095747.3614   20095744.464
        53.0004         49.0004
 -15666263.46148 -12157631.60847  21541217.8364   21541222.4114   21541217.809
        51.0004         46.0004
 -11905838.33049  -9230025.34248  22209957.9694   22209964.9404   22209958.033
        54.0004         49.0004
 -11342692.23447  -8786934.93447  22979835.4254   22979841.1954   22979835.624
        47.0004         43.0004
  -3933415.41148  -3021223.91847  23043720.9524   23043727.4744   23043721.288
        51.0004         46.0004
   -716562.95647   -550528.13346  24657773.4464   24657781.5114   24657772.262
        46.0004         41.0004
 -18649966.38949 -14480349.61148  20885085.0994   20885087.6904   20885084.693
        57.0004         53.0004
 -19801975.77949 -15351130.66249  20624826.4784   20624833.2354   20624826.554
        58.0004         54.0004
  -3920282.35447  -3018552.42046  24456625.9234   24456633.9584   24456625.839
        43.0004         39.0004
 26  2 22  0 20 30.0000000  0  9G16G04G27G28G09G29G31G26G18
 -24413958.81348 -18967442.34148  20091437.5314   20091440.9694   20091437.989
        53.0004         49.0004
 -15688415.86148 -12174893.23747  21537002.7014   21537007.8074   21537002.547
        51.0004         46.0004
 -12011445.83149  -9312316.89048  22189861.6934   22189868.5254   22189861.248
        54.0004         49.0004
 -11258211.99347  -8721106.26747  22995912.0144   22995917.0734   22995911.107
        47.0004         43.0004
  -4003956.46848  -3076190.96947  23030297.6744   23030303.9124   23030298.472
        51.0004         46.0004
   -619112.95047   -474593.28246  24676318.7474   24676326.1034   24676317.814
        46.0004         41.0004
 -18600017.87149 -14441428.72648  20894589.9694   20894592.7724   20894589.630
        57.0004         53.0004
 -19760813.38949 -15319056.10449  20632659.4074   20632666.0764   20632659.393
        58.0004         54.0004
  -3978272.65347  -3063739.67846  24445591.0564   24445598.5074   24445591.619
        43.0004         39.0004
 26  2 22  0 21  0.0000000  0  9G16G04G27G28G09G29G31G26G18
 -24436148.69848 -18984733.17448  20087215.1924   20087218.6364   20087215.493
        53.0004         49.0004
 -15709959.87248 -12191680.79447  21532903.2484   21532908.7294   21532902.857
        50.0004         46.0004
 -12116730.08449  -9394356.54648  22169826.5014   22169834.0084   22169827.115
        54.0004         50.0004
 -11173485.52647  -8655085.72947  23012035.4594   23012039.9454   23012034.969
        47.0004         43.0004
  -4074031.06148  -3130794.53147  23016962.6734   23016969.5454   23016962.927
        51.0004         47.0004
   -521422.51947   -398471.06147  24694908.6984   24694916.4544   24694908.543
        46.0004         42.0004
 -18549689.31349 -14402211.70148  20904167.0174   20904169.8164   20904166.681
        57.0004         53.0004
 -19719331.95349 -15286732.94549  20640552.9974   20640559.8864   20640553.120
        58.0004         54.0004
  -4035902.01247  -3108645.65946  24434624.3464   24434632.8184   24434623.696
        43.0004         39.0004
 26  2 22  0 21 30.0000000  0  9G16G04G27G28G09G29G31G26G18
 -24457897.83948 -19001680.56748  20083076.3944   20083079.8794   20083076.725
        53.0004         49.0004
 -15730894.62248 -12207993.60547  21528918.7104   21528924.5404   21528919.195
        51.0004         46.0004
 -12221688.37049  -9476142.21148  22149854.1154   22149860.8024   22149853.859
        54.0004         50.0004
 -11088513.79947  -8588874.07647  23028204.4514   23028209.5954   23028203.843
        47.0004         43.0004
  -4143636.90948  -3185032.84047  23003717.5574   23003723.6814   23003717.432
        51.0004         47.0004
   -423494.27447   -322163.53347  24713543.8524   24713551.8484   24713543.035
        46.0004         42.0004
 -18498981.21349 -14362698.93648  20913816.2614   20913819.5064   20913815.976
        57.0004         53.0004
 -19677532.69149 -15254162.12549  20648507.2414   20648513.8424   20648507.175
        58.0004         54.0004
  -4093167.81347  -3153268.37046  24423728.0014   24423735.4974   24423727.344
        43.0004         39.0004
 26  2 22  0 22  0.0000000  0  9G16G04G27G28G09G29G31G26G18
 -24479206.88848 -19018285.02748  20079021.6174   20079024.9134   20079021.832
        53.0004         49.0004
 -15751219.31148 -12223831.04047  21525052.2504   21525057.0054   21525051.540
        51.0004         46.0004
 -12326318.07749  -9557671.84448  22129943.4124   22129950.5074   22129943.475
        54.0004         50.0004
 -11003297.84047  -8522472.11847  23044420.9624   23044426.3064   23044420.558
        47.0004         43.0004
  -4212771.77348  -3238904.14647  22990561.0304   22990568.0824   22990560.824
        52.0004         47.0004
   -325331.09247   -245672.94247  24732224.4294   24732232.0424   24732223.040
        46.0004         42.0004
 -18447893.70749 -14322890.54248  20923538.2884   20923541.4104   20923538.277
        57.0004         53.0004
 -19635416.93949 -15221344.69649  20656521.7004   20656528.3874   20656521.769
        58.0004         54.0004
  -4150067.58347  -3197605.84746  24412899.4724   24412907.2054   24412898.572
        43.0004         39.0004
 26  2 22  0 22 30.0000000  0  9G16G04G27G28G09G29G31G26G18
 -24500075.72248 -19034546.47048  20075050.4104   20075053.7254   20075050.421
        53.0004         49.0004
 -15770932.86148 -12239192.26947  21521300.4134   21521305.2224   21521300.184
        51.0004         46.0004
 -12430616.26449  -9638943.15348  22110096.5884   22110103.1324   22110096.285
        54.0004         50.0004
 -10917838.29947  -8455880.35747  23060683.1734   23060688.5994   23060683.001
        47.0004         42.0004
  -4281433.16848  -3292406.51947  22977494.8334   22977501.9964   22977494.793
        51.0004         47.0004
   -226935.35447   -169001.12947  24750948.5954   24750955.7774   24750947.524
        46.0004         42.0004
 -18396427.12449 -14282786.75148  20933332.3634   20933335.2094   20933332.149
        57.0004         53.0004
 -19592985.67749 -15188281.40949  20664596.1644   20664602.6394   20664596.232
        58.0004         54.0004
  -4206598.47147  -3241655.89346  24402141.8534   24402150.0774   24402142.137
        43.0004         39.0004
 26  2 22  0 23  0.0000000  0  9G16G04G27G28G09G29G31G26G18
 -24520504.87148 -19050465.29448  20071162.7224   20071165.9174   20071163.234
        53.0004         49.0004
 -15790034.60848 -12254076.75547  21517666.1224   21517670.7554   21517665.201
        51.0004         46.0004
 -12534580.37949  -9719954.14848  22090312.8254   22090319.4584   22090313.013
        54.0004         50.0004
 -10832136.21047  -8389099.60947  23076991.8344   23076996.9814   23076991.347
        47.0004         42.0004
  -4349618.81448  -3345538.18747  22964520.1174   22964526.5584   22964519.317
        51.0004         47.0004
   -128309.86747    -92150.29647  24769716.6074   24769724.4264   24769716.685
        46.0004         42.0004
 -18344582.37249 -14242388.27948  20943197.7514   20943200.7644   20943197.474
        57.0004         53.0004
 -19550240.26749 -15154973.34249  20672730.2964   20672736.8194   20672730.437
        58.0004         54.0004
  -4262758.05547  -3285416.59546  24391456.1934   24391461.4384   24391455.330
        43.0004         39.0004
 26  2 22  0 23 30.0000000  0  9G16G04G27G28G09G29G31G26G18
 -24540494.56448 -19066041.69548  20067358.9474   20067362.1574   20067359.337
        53.0004         49.0004
 -15808523.61948 -12268483.79347  21514147.5574   21514151.8344   21514146.886
        51.0004         46.0004
 -12638207.57049  -9800702.59948  22070592.6074   22070599.6604   22070592.688
        54.0004         50.0004
 -10746192.41347  -8322130.49647  23093346.1914   23093350.6874   23093346.334
        47.0004         42.0004
  -4417326.40948  -3398297.34447  22951635.9664   22951642.3344   22951635.181
        52.0004         47.0004
    -29457.07347    -15122.34047  24788527.4434   24788535.0474   24788527.783
        46.0004         42.0004
 -18292359.90149 -14201695.48248  20953135.6454   20953138.7274   20953135.367
        57.0004         53.0004
 -19507181.81649 -15121421.33649  20680924.0574   20680930.8274   20680923.982
        58.0004         54.0004
  -4318543.68147  -3328885.90846  24380839.6344   24380846.8774   24380839.237
        43.0004         39.0004
 26  2 22  0 24  0.0000000  0  9G16G04G27G28G09G29G31G26G18
 -24560045.02048 -19081275.81648  20063638.5634   20063641.9364   20063639.045
        53.0004         49.0004
 -15826399.10648 -12282412.74947  21510745.5294   21510750.6504   21510745.594
        51.0004         46.0004
 -12741495.08949  -9881186.36748  22050937.7104   22050945.0144   22050937.963
        54.0004         50.0004
 -10660007.81447  -8254973.75047  23109746.2864   23109751.5054   23109746.462
        47.0004         42.0004
  -4484553.53348  -3450682.10047  22938842.7714   22938848.9394   22938843.120
        51.0004         47.0004
     69620.30347     62080.60347  24807382.0904   24807389.6654   24807382.328
        46.0004         42.0004
 -18239759.90749 -14160708.52548  20963144.9244   20963148.1404   20963144.736
        57.0004         53.0004
 -19463811.53449 -15087626.35249  20689177.1614   20689184.0664   20689177.266
        58.0004         54.0004
  -4373952.64547  -3372061.69146  24370295.4204   24370303.5304   24370296.484
        43.0004         39.0004
 26  2 22  0 24 30.0000000  0  9G16G04G27G28G09G29G31G26G18
 -24579156.75648 -19096168.08548  20060001.4864   20060004.7934   20060001.979
        53.0004         49.0004
 -15843660.31648 -12295863.05947  21507460.9894   21507466.2554   21507461.299
        51.0004         46.0004
 -12844440.34749  -9961403.44048  22031347.7324   22031355.2674   22031348.017
        55.0004         50.0004
 -10573583.39147  -8187630.14447  23126192.9964   23126198.9874   23126192.276
        47.0004         42.0004
  -4551298.04748  -3502690.79647  22926141.8444   22926148.4984   22926141.725
        52.0004         47.0004
    168919.93447    139456.72647  24826277.6254   24826285.4354   24826277.868
        47.0004         42.0004
 -18186783.08549 -14119427.95048  20973226.0904   20973229.2564   20973226.012
        57.0004         53.0004
 -19420130.64849 -15053589.34149  20697489.3934   20697495.9634   20697489.330
        58.0004         54.0004
  -4428982.53547  -3414942.09546  24359825.0194   24359831.2354   24359825.856
        43.0004         39.0004
 26  2 22  0 25  0.0000000  0  9G16G04G27G28G09G29G31G26G18
 -24597830.13648 -19110718.77848  20056448.5484   20056451.3614   20056448.582
        53.0004         49.0004
 -15860306.45248 -12308834.08547  21504293.6794   21504298.6234   21504292.749
        51.0004         46.0004
 -12947040.51949 -10041351.60648  22011823.7554   22011830.6944   22011824.226
        55.0004         50.0004
 -10486919.93447  -8120100.27047  23142684.7374   23142690.4654   23142684.600
        47.0004         42.0004
  -4617557.52548  -3554321.53647  22913532.7334   22913539.5284   22913532.044
        52.0004         47.0004
    268439.22847    217004.04047  24845215.8164   24845223.4384   24845215.116
        47.0004         42.0004
 -18133429.71049 -14077853.94748  20983378.9254   20983382.0384   20983378.800
        57.0004         53.0004
 -19376140.25049 -15019311.14649  20705860.4154   20705867.1814   20705860.268
        58.0004         54.0004
  -4483630.63347  -3457525.00346  24349425.5264   24349432.9404   24349425.644
        43.0004         38.0004
 26  2 22  0 25 30.0000000  0  9G16G04G27G28G09G29G31G26G18
 -24616065.51548 -19124928.17248  20052977.9824   20052981.2614   20052978.263
        53.0004         49.0004
 -15876336.85448 -12321325.31947  21501243.0734   21501247.8654   21501242.451
        51.0004         46.0004
 -13049292.97449 -10121028.83548  21992365.8764   21992372.6494   21992365.718
        55.0004         50.0004
 -10400018.43447  -8052384.91347  23159222.0174   23159226.5664   23159220.920
        46.0004         42.0004
  -4683329.82348  -3605572.65747  22901016.8194   22901023.2264   22901016.574
        52.0004         47.0004
    368174.88047    294719.93547  24864195.4234   24864202.5394   24864195.402
        47.0004         42.0004
 -18079700.50749 -14035987.08748  20993603.4684   20993606.4574   20993603.117
        57.0004         53.0004
 -19331841.62749 -14984792.77849  20714290.3224   20714297.2374   20714290.182
        58.0004         54.0004
  -4537894.55847  -3499808.54546  24339098.8414   24339107.5244   24339099.770
        43.0004         38.0004
 26  2 22  0 26  0.0000000  0  9G16G04G27G28G09G29G31G26G18
 -24633863.21948 -19138796.51648  20049591.2364   20049594.4314   20049591.850
        53.0004         49.0004
 -15891750.84948 -12333336.24047  21498310.1924   21498314.9314   21498309.611
        51.0004         46.0004
 -13151195.02549 -10200433.02348  21972974.8324   21972981.4364   21972974.264
        55.0004         50.0004
 -10312879.87947  -7984484.84547  23175803.5994   23175808.4894   23175802.745
        46.0004         42.0004
  -4748612.66148  -3656442.38247  22888593.7604   22888600.3074   22888593.469
        52.0004         47.0004
    468124.67247    372602.71647  24883215.1254   24883222.6984   24883215.088
        47.0004         42.0004
 -18025595.84549 -13993827.65548  21003899.2194   21003902.3384   21003899.103
        57.0004         53.0004
 -19287235.94549 -14950035.13749  20722778.4964   20722785.2784   20722778.345
        58.0004         54.0004
  -4591771.67247  -3541790.68446  24328846.2714   24328853.9854   24328846.462
        43.0004         38.0004
 26  2 22  0 26 30.0000000  0  9G16G04G27G28G09G29G31G26G18
 -24651223.53448 -19152324.03548  20046287.8374   20046291.0144   20046288.045
        53.0004         49.0004
 -15906547.65348 -12344866.22747  21495493.6374   21495499.4964   21495493.444
        51.0004         46.0004
 -13252743.88249 -10279561.99348  21953649.9304   21953657.6124   21953650.168
        55.0004         50.0004
 -10225505.08847  -7916400.69347  23192429.4264   23192435.4244   23192429.397
        46.0004         42.0004
  -4813403.69548  -3706928.88547  22876264.4604   22876270.6084   22876264.231
        52.0004         47.0004
    568286.23447    450650.48747  24902274.7204   24902282.3784   24902274.349
        46.0004         42.0004
 -17971116.03349 -13951375.90348  21014266.5364   21014269.4024   21014266.434
        57.0004         53.0004
 -19242324.29449 -14915039.06848  20731324.6874   20731331.5494   20731324.735
        58.0004         53.0004
  -4645259.43447  -3583469.44146  24318668.8944   24318675.8294   24318669.853
        43.0004         38.0004
 26  2 22  0 27  0.0000000  0  9G16G04G27G28G09G29G31G26G18
 -24668146.89948 -19165511.07548  20043067.2904   20043070.6394   20043067.740
        53.0004         49.0004
 -15920726.66448 -12355914.81947  21492795.5744   21492800.3234   21492794.924
        51.0004         46.0004
 -13353936.93949 -10358413.71248  21934393.8974   21934400.7614   21934394.062
        55.0004         50.0004
 -10137895.08747  -7848133.23746  23209101.2984   23209107.5954   23209101.003
        46.0004         41.0004
  -4877700.82048  -3757030.51747  22864028.8874   22864035.5244   22864029.421
        52.0004         47.0004
    668656.75347    528861.10446  24921374.6174   24921382.8034   24921373.875
        46.0004         41.0004
 -17916261.78849 -13908632.37248  21024705.0434   21024708.1614   21024704.860
        57.0004         53.0004
 -19197107.98349 -14879805.61348  20739929.1214   20739936.1674   20739928.891
        58.0004         53.0004
  -4698355.34147  -3624842.83646  24308563.6694   24308570.7734   24308565.505
        43.0004         38.0004
 26  2 22  0 27 30.0000000  0  9G16G04G27G28G09G29G31G26G18
 -24684633.91048 -19178358.10148  20039929.7654   20039933.3744   20039929.908
        53.0004         49.0004
 -15934287.30548 -12366481.56147  21490215.0664   21490220.4104   21490215.262
        51.0004         46.0004
 -13454771.51749 -10436986.10448  21915205.4434   21915212.8564   21915205.193
        55.0004         50.0004
 -10050050.78647  -7779683.24147  23225817.9554   23225823.6014   23225817.936
        46.0004         42.0004
  -4941501.76848  -3806745.52247  22851888.6054   22851894.5584   22851888.904
        52.0004         47.0004
    769233.62847    607232.51146  24940515.0704   24940522.3404   24940515.054
        46.0004         41.0004
 -17861033.79149 -13865597.63448  21035214.3044   21035217.4554   21035213.927
        57.0004         52.0004
 -19151588.18249 -14844335.67848  20748591.3794   20748598.4814   20748591.471
        58.0004         53.0004
  -4751056.96447  -3665908.99146  24298534.7844   24298543.2284   24298535.192
        43.0004         38.0004
 26  2 22  0 28  0.0000000  0  9G16G04G27G28G09G29G31G26G18
 -24700684.75248 -19190865.26048  20036875.7284   20036878.9754   20036875.893
        53.0004         49.0004
 -15947228.87548 -12376565.90747  21487752.7404   21487757.5464   21487752.115
        51.0004         46.0004
 -13555244.93149 -10515277.07248  21896085.9394   21896093.0394   21896086.088
        55.0004         50.0004
  -9961973.10847  -7711051.38347  23242579.4874   23242583.9314   23242579.074
        46.0004         42.0004
  -5004804.36548  -3856072.20648  22839842.5474   22839848.6924   22839842.349
        52.0004         48.0004
    870014.69247    685763.04146  24959692.2604   24959700.6844   24959693.613
        45.0004         41.0004
 -17805432.13949 -13822271.74148  21045795.0224   21045798.3884   21045794.745
        57.0004         52.0004
 -19105765.96249 -14808630.08248  20757311.0414   20757317.9194   20757310.973
        58.0004         53.0004
  -4803361.67347  -3706665.89546  24288582.3284   24288587.9314   24288582.037
        43.0004         38.0004
 26  2 22  0 28 30.0000000  0  9G16G04G27G28G09G29G31G26G18
 -24716299.64548 -19203032.71348  20033904.3114   20033907.9364   20033904.763
        53.0004         49.0004
 -15959550.91148 -12386167.50547  21485408.0444   21485412.2414   21485407.604
        51.0004         46.0004
 -13655354.52549 -10593284.54548  21877035.9894   21877042.7174   21877036.403
        55.0004         50.0004
  -9873663.07447  -7642238.47246  23259384.0064   23259388.8934   23259384.269
        46.0004         41.0004
  -5067606.37448  -3905008.80948  22827891.7864   22827897.9124   22827891.956
        52.0004         48.0004
    970996.85647    764450.28646  24978908.9054   24978917.1484   24978909.375
        45.0004         40.0004
 -17749457.69349 -13778655.34748  21056446.8474   21056449.8834   21056446.348
        57.0004         52.0004
 -19059642.60649 -14772689.82748  20766088.2514   20766094.8574   20766087.927
        58.0004         53.0004
  -4855267.08147  -3747111.62646  24278705.0784   24278711.4514   24278704.558
        43.0004         38.0004
 26  2 22  0 29  0.0000000  0  9G16G04G27G28G09G29G31G26G18
 -24731479.20748 -19214860.95548  20031015.8914   20031019.2674   20031016.254
        53.0004         49.0004
 -15971252.79948 -12395285.86747  21483181.2364   21483185.9814   21483181.191
        51.0004         46.0004
 -13755097.63349 -10671006.44148  21858055.4804   21858062.5744   21858055.272
        55.0004         50.0004
  -9785121.59147  -7573245.21646  23276233.5454   23276239.1784   23276233.156
        46.0004         41.0004
  -5129905.66048  -3953553.67947  22816036.1104   22816042.5604   22816036.566
        52.0004         47.0004
   1072177.88947    843292.49146  24998163.2264   24998172.0634   24998162.564
        45.0004         40.0004
 -17693111.08449 -13734748.95948  21067169.2284   21067172.3764   21067168.711
        57.0004         52.0004
 -19013219.29849 -14736515.85148  20774922.0114   20774929.1094   20774922.031
        58.0004         53.0004
  -4906770.66947  -3787244.25846  24268904.9524   24268910.9494   24268902.203
        43.0004         38.0004
 26  2 22  0 29 30.0000000  0  9G16G04G27G28G09G29G31G26G18
 -24746223.94348 -19226350.36948  20028209.5034   20028213.3414   20028209.718
        53.0004         49.0004
 -15982334.06348 -12403920.62747  21481071.9214   21481076.9684   21481072.008
        51.0004         46.0004
 -13854471.59449 -10748440.70048  21839145.4494   21839152.2424   21839145.393
        55.0004         51.0004
  -9696349.66747  -7504072.37946  23293125.6554   23293130.6104   23293125.432
        46.0004         41.0004
  -5191700.07148  -4001705.13347  22804277.2074   22804283.4384   22804277.101
        52.0004         47.0004
   1173554.72447    922287.26446  25017455.1554   25017462.8734   25017454.427
        45.0004         40.0004
 -17636392.70949 -13690552.87748  21077962.4024   21077965.6234   21077962.282
        57.0004         52.0004
 -18966497.18549 -14700109.04348  20783813.1694   20783820.1614   20783813.063
        58.0004         53.0004
  -4957870.04447  -3827061.93146  24259180.7254   24259186.4324   24259179.153
        43.0004         38.0004
 26  2 22  0 30  0.0000000  0  9G16G04G27G28G09G29G31G26G18
 -24760534.25048 -19237501.27148  20025486.6314   20025489.9934   20025486.876
        53.0004         49.0004
 -15992794.23948 -12412071.41547  21479081.9424   21479086.4014   21479081.411
        51.0004         46.0004
 -13953473.83849 -10825585.30848  21820305.5824   21820312.6084   21820306.083
        55.0004         51.0004
  -9607348.31847  -7434720.76546  23310061.7274   23310067.3194   23310062.934
        46.0004         41.0004
  -5252987.51148  -4049461.56047  22792614.5834   22792620.4284   22792614.170
        52.0004         47.0004
   1275125.17947   1001432.91446  25036782.0624   25036791.4364   25036781.209
        45.0004         40.0004
 -17579303.13449 -13646067.54948  21088826.0534   21088829.4384   21088825.875
        57.0004         52.0004
 -18919477.50049 -14663470.35848  20792760.6434   20792767.7114   20792760.631
        58.0004         53.0004
  -5008562.79847  -3866562.75446  24249532.4164   24249539.0964   24249533.559
        43.0004         38.0004
 26  2 22  0 30 30.0000000  0 10G08G16G04G27G28G09G29G31G26G18
   -312941.58948   -197316.46946  24137312.0884   24137321.1494   24137313.184
        49.0004         41.0004
 -24774410.51448 -19248313.95348  20022846.2494   20022849.5294   20022846.292
        53.0004         49.0004
 -16002632.79548 -12419737.83447  21477209.4414   21477214.7084   21477209.341
        51.0004         46.0004
 -14052101.69249 -10902438.17948  21801538.0364   21801544.4974   21801537.953
        55.0004         51.0004
  -9518118.43747  -7365191.10146  23327041.0144   23327048.0344   23327041.336
        46.0004         41.0004
  -5313765.80648  -4096821.25147  22781048.2134   22781054.6474   22781048.074
        52.0004         47.0004
   1376886.63947   1080727.37146  25056147.9704   25056155.9194   25056147.391
        45.0004         40.0004
 -17521843.00449 -13601293.48848  21099760.5534   21099763.8864   21099760.445
        57.0004         52.0004
 -18872161.38449 -14626600.68848  20801764.6844   20801771.2604   20801764.649
        58.0004         53.0004
  -5058846.44147  -3905744.80946  24239965.0534   24239971.7404   24239964.968
        43.0004         38.0004
 26  2 22  0 31  0.0000000  0 10G08G16G04G27G28G09G29G31G26G18
   -432696.46947   -290631.92146  24114523.0144   24114533.1494   24114522.385
        46.0004         41.0004
 -24787853.17548 -19258788.75948  20020287.9094   20020291.2744   20020288.586
        53.0004         49.0004
 -16011849.22548 -12426919.48047  21475455.5054   21475460.3674   21475455.157
        51.0004         46.0004
 -14150352.43149 -10978997.19948  21782841.2174   21782847.8824   21782841.426
        55.0004         51.0004
  -9428660.95047  -7295484.06746  23344065.7514   23344071.1794   23344064.896
        46.0004         41.0004
  -5374032.82548  -4143782.53447  22769580.0464   22769587.0654   22769579.729
        52.0004         47.0004
   1478836.44647   1160168.58846  25075548.5724   25075555.7494   25075550.077
        45.0004         40.0004
 -17464012.86949 -13556231.10648  21110765.3674   21110768.6444   21110764.962
        57.0004         52.0004
 -18824549.93449 -14589500.89148  20810824.9644   20810831.5554   20810824.812
        58.0004         53.0004
  -5108718.47047  -3944606.11046  24230473.8904   24230481.2944   24230474.203
        43.0004         38.0004
 26  2 22  0 31 30.0000000  0 10G08G16G04G27G28G09G29G31G26G18
   -552347.41647   -383866.38647  24091754.3954   24091764.9324   24091754.346
        46.0004         42.0004
 -24800862.83248 -19268926.16548  20017812.4534   20017816.0024   20017812.791
        53.0004         49.0004
 -16020443.26948 -12433616.15547  21473820.2234   21473825.1524   21473820.546
        51.0004         46.0004
 -14248223.62749 -11055260.47048  21764216.6964   21764223.8924   21764216.857
        55.0004         51.0004
  -9338977.02847  -7225600.58246  23361131.1074   23361137.6104   23361130.525
        46.0004         41.0004
  -5433786.54148  -4190343.84348  22758209.6264   22758215.9874   22758208.914
        52.0004         48.0004
   1580972.25547   1239754.75046  25094984.0334   25094992.0294   25094985.489
        44.0004         40.0004
 -17405813.23949 -13510880.81248  21121840.6934   21121843.6524   21121840.056
        57.0004         52.0004
 -18776644.43449 -14552171.95548  20819941.1414   20819947.9444   20819941.053
        58.0004         53.0004
  -5158176.60647  -3983144.89746  24221060.8974   24221069.3294   24221061.297
        43.0004         38.0004
 26  2 22  0 32  0.0000000  0 10G08G16G04G27G28G09G29G31G26G18
   -671891.98647   -477017.95346  24069004.5914   24069014.7154   24069005.490
        46.0004         41.0004
 -24813439.80948 -19278726.40948  20015418.7874   20015422.3094   20015419.317
        53.0004         49.0004
 -16028414.49048 -12439827.51247  21472303.2944   21472308.2104   21472303.064
        51.0004         46.0004
 -14345712.53049 -11131225.85248  21745665.5364   21745672.4194   21745665.442
        56.0004         51.0004
  -9249067.60947  -7155541.40046  23378240.7974   23378246.9604   23378239.353
        46.0004         41.0004
  -5493024.82748  -4236503.52248  22746936.7804   22746943.1054   22746937.028
        52.0004         48.0004
   1683291.44847   1319483.77646  25114454.9164   25114462.7884   25114453.763
        44.0004         39.0004
 -17347244.81749 -13465243.14448  21132985.4644   21132988.9834   21132985.465
        57.0004         52.0004
 -18728446.01449 -14514614.77448  20829113.0524   20829120.0074   20829112.745
        58.0004         53.0004
  -5207218.46347  -4021359.32246  24211729.9154   24211737.4414   24211730.355
        43.0004         38.0004
 26  2 22  0 32 30.0000000  0  9G08G16G04G27G28G09G31G26G18
   -791327.79947   -570084.78646  24046278.1404   24046287.9914   24046278.158
        46.0004         41.0004
 -24825584.51848 -19288189.82448  20013107.8134   20013111.4224   20013108.243
        53.0004         49.0004
 -16035762.46648 -12445553.22747  21470905.5564   21470910.3514   21470905.321
        51.0004         46.0004
 -14442816.55049 -11206891.32048  21727186.9504   21727193.9544   21727187.169
        56.0004         51.0004
  -9158933.62347  -7085307.23246  23395392.8034   23395399.0584   23395392.694
        46.0004         41.0004
  -5551745.57748  -4282259.93648  22735762.6364   22735768.8264   22735762.452
        52.0004         48.0004
 -17288307.97749 -13419318.40848  21144200.9584   21144204.0744   21144200.807
        57.0004         52.0004
 -18679955.76949 -14476830.20048  20838340.4594   20838347.3644   20838340.292
        58.0004         53.0004
  -5255841.56247  -4059247.43346  24202478.7264   24202483.6174   24202477.283
        43.0004         39.0004
 26  2 22  0 33  0.0000000  0 10G08G16G04G27G28G09G29G31G26G18
   -910652.44247   -663064.99946  24023571.5594   24023580.7024   24023571.411
        46.0004         41.0004
 -24837297.64748 -19297316.94548  20010879.1404   20010882.7754   20010879.287
        53.0004         49.0004
 -16042486.95048 -12450793.09647  21469625.3174   21469630.3634   21469625.197
        51.0004         46.0004
 -14539533.14249 -11282254.89048  21708782.0814   21708789.5204   21708782.784
        56.0004         51.0004
  -9068576.13147  -7014898.90646  23412587.9524   23412593.1984   23412587.806
        46.0004         41.0004
  -5609946.85748  -4327611.56248  22724687.5174   22724693.7084   22724687.408
        52.0004         48.0004
   1888469.33347   1479362.23446  25153499.0864   25153507.9184   25153497.619
        44.0004         40.0004
 -17229003.69349 -13373107.35248  21155486.2454   21155489.6624   21155485.930
        57.0004         52.0004
 -18631175.01349 -14438819.26548  20847622.9874   20847629.7864   20847623.086
        58.0004         53.0004
  -5304043.64347  -4096807.48546  24193305.4624   24193312.0754   24193305.386
        43.0004         39.0004
 26  2 22  0 33 30.0000000  0 10G08G16G04G27G28G09G29G31G26G18
  -1029863.63647   -755956.76346  24000885.6624   24000896.1254   24000886.975
        46.0004         41.0004
 -24848579.52548 -19306108.02848  20008732.5404   20008735.8614   20008732.536
        53.0004         49.0004
 -16048587.57048 -12455546.84947  21468464.5024   21468469.1324   21468464.296
        51.0004         46.0004
 -14635859.71349 -11357314.54548  21690452.1014   21690459.2254   21690452.268
        56.0004         51.0004
  -8977996.24847  -6944317.27946  23429824.4434   23429830.1464   23429824.605
        46.0004         41.0004
  -5667626.56248  -4372556.77248  22713711.0654   22713717.6974   22713710.571
        52.0004         48.0004
   1991322.94847   1559507.70646  25173073.0944   25173080.0484   25173072.668
        45.0004         40.0004
 -17169332.38749 -13326610.28648  21166841.2644   21166844.6534   21166841.086
        57.0004         52.0004
 -18582104.78249 -14400582.74248  20856960.6404   20856967.6504   20856960.705
        58.0004         53.0004
  -5351822.30047  -4134037.60246  24184213.1624   24184220.9764   24184212.831
        43.0004         39.0004
 26  2 22  0 34  0.0000000  0 10G08G16G04G27G28G09G29G31G26G18
  -1148958.90847   -848758.22746  23978222.6364   23978232.8644   23978222.033
        46.0004         41.0004
 -24859430.59648 -19314563.41748  20006667.1714   20006670.8134   20006667.648
        53.0004         49.0004
 -16054064.09948 -12459814.29247  21467422.3064   21467427.1724   21467422.087
        51.0004         46.0004
 -14731793.74849 -11432068.33348  21672196.0304   21672203.3884   21672196.285
        56.0004         51.0004
  -8887194.86547  -6873563.07446  23447103.2984   23447109.1514   23447102.898
        46.0004         41.0004
  -5724782.74548  -4417094.03748  22702834.0374   22702840.9084   22702833.795
        52.0004         48.0004
   2094349.49147   1639787.95646  25192677.5544   25192686.0744   25192678.005
        45.0004         40.0004
 -17109294.88349 -13279827.87648  21178266.3734   21178269.6934   21178266.184
        57.0004         52.0004
 -18532746.38549 -14362121.69748  20866353.3884   20866360.4674   20866353.190
        58.0004         53.0004
  -5399175.27747  -4170936.01746  24175201.7894   24175208.8694   24175201.751
        44.0004         39.0004
 26  2 22  0 34 30.0000000  0 10G08G16G04G27G28G09G29G31G26G18
  -1267935.92347   -941467.55046  23955582.4774   23955591.2134   23955582.261
        46.0004         41.0004
 -24869851.48048 -19322683.58648  20004684.4434   20004687.8194   20004684.636
        53.0004         49.0004
 -16058916.23148 -12463595.19747  21466499.3124   21466504.0674   21466499.107
        51.0004         46.0004
 -14827332.56449 -11506514.15548  21654015.8984   21654023.0854   21654016.100
        56.0004         51.0004
  -8796173.05147  -6802637.10346  23464424.4204   23464430.1724   23464423.598
        46.0004         41.0004
  -5781413.30848  -4461221.72548  22692058.0384   22692064.9014   22692058.376
        52.0004         48.0004
   2197546.79447   1720201.25246  25212314.6494   25212323.1314   25212316.062
        45.0004         40.0004
 -17048891.63949 -13232760.48648  21189760.5814   21189764.2234   21189760.279
        57.0004         52.0004
 -18483100.85249 -14323436.90748  20875800.6004   20875807.7584   20875800.719
        58.0004         53.0004
  -5446100.21347  -4207500.87546  24166272.9584   24166280.2084   24166272.696
        44.0004         39.0004
 26  2 22  0 35  0.0000000  0 10G08G16G04G27G28G09G29G31G26G18
  -1386792.17747  -1034082.78947  23932965.9134   23932974.5374   23932965.503
        46.0004         42.0004
 -24879842.59448 -19330468.87948  20002783.3054   20002786.4534   20002783.661
        53.0004         49.0004
 -16063143.73248 -12466889.37547  21465694.8844   21465700.2214   21465694.705
        51.0004         46.0004
 -14922473.64949 -11580650.04848  21635910.9464   21635918.2764   21635911.199
        56.0004         51.0004
  -8704931.82247  -6731540.14646  23481786.5204   23481793.3514   23481785.878
        46.0004         41.0004
  -5837516.33048  -4504938.33748  22681382.0974   22681388.9974   22681381.301
        52.0004         48.0004
   2300912.10847   1800745.47146  25231985.7164   25231993.3644   25231986.433
        45.0004         41.0004
 -16988123.53449 -13185408.78548  21201324.5504   21201328.0934   21201324.359
        57.0004         52.0004
 -18433169.32649 -14284529.25248  20885302.2944   20885309.2794   20885302.275
        58.0004         53.0004
  -5492594.74847  -4243730.37446  24157425.6404   24157431.5714   24157425.265
        44.0004         39.0004
 26  2 22  0 35 30.0000000  0 10G08G16G04G27G28G09G29G31G26G18
  -1505525.34247  -1126602.11347  23910370.5784   23910379.5424   23910371.536
        47.0004         42.0004
 -24889404.75948 -19337919.91648  20000963.4184   20000966.6914   20000963.630
        53.0004         49.0004
 -16066746.40648 -12469696.67147  21465009.1404   21465013.9304   21465008.735
        51.0004         46.0004
 -15017214.47249 -11654474.04948  21617882.7984   21617889.3524   21617882.719
        56.0004         51.0004
  -8613472.19347  -6660273.02646  23499190.9794   23499197.7004   23499191.055
        46.0004         41.0004
  -5893089.79448  -4548242.31548  22670806.9964   22670812.9744   22670806.577
        52.0004         48.0004
   2404443.07447   1881418.76146  25251686.8034   25251695.7584   25251688.863
        45.0004         40.0004
 -16926990.96249 -13137773.08748  21212957.5754   21212961.2864   21212957.328
        57.0004         52.0004
 -18382953.02949 -14245399.69948  20894858.1454   20894865.0194   20894858.155
        58.0004         53.0004
  -5538656.58947  -4279622.69446  24148659.9944   24148667.6964   24148660.624
        44.0004         39.0004
 26  2 22  0 36  0.0000000  0 10G08G16G04G27G28G09G29G31G26G18
  -1624133.09747  -1219023.68547  23887800.1024   23887809.7694   23887800.717
        47.0004         42.0004
 -24898538.33648 -19345036.99048  19999225.2324   19999228.5844   19999225.672
        53.0004         49.0004
 -16069724.13348 -12472016.99747  21464442.5694   21464448.1204   21464442.313
        51.0004         46.0004
 -15111552.52749 -11727984.20548  21599930.8474   21599937.7814   21599930.536
        56.0004         51.0004
  -8521795.29547  -6588836.60746  23516635.9164   23516643.3374   23516635.998
        46.0004         41.0004
  -5948131.82648  -4591132.18948  22660332.6474   22660339.2234   22660332.373
        52.0004         48.0004
   2508137.12747   1962219.14846  25271419.4284   25271427.5024   25271419.747
        45.0004         40.0004
 -16865494.65649 -13089853.95148  21224660.0954   21224663.6034   21224659.917
        57.0004         52.0004
 -18332453.14849 -14206049.18348  20904467.8974   20904475.0214   20904467.600
        57.0004         53.0004
  -5584283.55147  -4315176.13946  24139977.2134   24139984.7244   24139976.422
        44.0004         39.0004
 26  2 22  0 36 30.0000000  0 10G08G16G04G27G28G09G29G31G26G18
  -1742612.97047  -1311345.65047  23865254.4714   23865264.1074   23865255.116
        47.0004         43.0004
 -24907243.77148 -19351820.45448  19997569.2174   19997572.3984   19997569.151
        53.0004         49.0004
 -16072076.73748 -12473850.21947  21463994.8584   21464000.2144   21463994.701
        51.0004         46.0004
 -15205485.26549 -11801178.51748  21582055.6734   21582062.8014   21582055.714
        56.0004         51.0004
  -8429902.13847  -6517231.65446  23534122.4244   23534130.4024   23534122.826
        45.0004         41.0004
  -6002640.46748  -4633606.42348  22649959.7394   22649966.2714   22649959.145
        52.0004         48.0004
   2611991.56947   2043144.51046  25291182.6004   25291190.2174   25291181.783
        45.0004         40.0004
 -16803635.17449 -13041651.81448  21236431.5304   21236435.1454   21236431.238
        57.0004         52.0004
 -18281670.78849 -14166478.54848  20914131.8214   20914138.8454   20914131.865
        58.0004         53.0004
  -5629473.35447  -4350388.94046  24131377.2124   24131384.4844   24131377.087
        44.0004         39.0004
 26  2 22  0 37  0.0000000  0 10G08G16G04G27G28G09G29G31G26G18
  -1860962.60748  -1403566.15047  23842732.3164   23842742.4744   23842733.958
        48.0004         43.0004
 -24915521.48848 -19358270.62348  19995993.7414   19995996.9574   19995994.179
        53.0004         49.0004
 -16073804.07448 -12475196.21947  21463666.2824   21463671.2764   21463666.135
        51.0004         46.0004
 -15299010.15949 -11874055.04348  21564258.6924   21564265.5064   21564258.545
        56.0004         51.0004
  -8337793.73347  -6445458.99646  23551650.5944   23551656.5284   23551651.707
        45.0004         41.0004
  -6056613.83448  -4675663.55548  22639689.2064   22639694.8964   22639689.203
        52.0004         48.0004
   2716003.89247   2124192.89646  25310975.7124   25310983.0454   25310974.693
        45.0004         40.0004
 -16741413.23149 -12993167.23948  21248272.0794   21248275.5584   21248271.541
        57.0004         52.0004
 -18230607.11249 -14126688.71348  20923849.0314   20923855.6864   20923849.044
        57.0004         53.0004
  -5674223.68747  -4385259.30746  24122862.3084   24122868.8414   24122862.502
        44.0004         39.0004
 26  2 22  0 37 30.0000000  0 10G08G16G04G27G28G09G29G31G26G18
  -1979179.72548  -1495683.36447  23820236.8584   23820246.0054   23820236.683
        48.0004         43.0004
 -24923372.44148 -19364388.25248  19994499.9174   19994502.8634   19994499.808
        53.0004         49.0004
 -16074906.12348 -12476054.97747  21463456.9754   21463461.1764   21463456.268
        51.0004         46.0004
 -15392124.80449 -11946611.89248  21546539.6244   21546546.7814   21546539.951
        56.0004         51.0004
  -8245471.32447  -6373519.57446  23569219.9634   23569226.0904   23569219.261
        45.0004         40.0004
  -6110050.05048  -4717302.14448  22629520.3664   22629526.2994   22629520.222
        52.0004         48.0004
   2820171.72547   2205362.47246  25330798.1854   25330805.3014   25330798.487
        45.0004         40.0004
 -16678829.91149 -12944401.08448  21260181.3254   21260184.8564   21260180.757
        57.0004         52.0004
 -18179263.32449 -14086680.59548  20933619.2354   20933626.1644   20933618.942
        57.0004         53.0004
  -5718532.47147  -4419785.58446  24114429.9994   24114438.1124   24114430.263
        44.0004         39.0004
 26  2 22  0 38  0.0000000  0 10G08G16G04G27G28G09G29G31G26G18
  -2097261.65048  -1587695.25347  23797766.9184   23797776.4684   23797767.860
        48.0004         43.0004
 -24930796.92548 -19370173.56448  19993086.7914   19993090.2294   19993087.113
        53.0004         49.0004
 -16075382.68048 -12476426.33647  21463366.0794   21463370.6894   21463365.796
        51.0004         46.0004
 -15484826.51049 -12018846.96548  21528898.7794   21528905.8914   21528898.884
        56.0004         51.0004
  -8152935.69747  -6301414.00546  23586828.5384   23586833.8484   23586827.585
        45.0004         40.0004
  -6162947.13848  -4758520.61648  22619454.8264   22619461.1974   22619454.789
        52.0004         48.0004
   2924492.48847   2286651.20246  25350649.4094   25350657.4064   25350649.716
        44.0004         40.0004
 -16615885.45149 -12895353.52548  21272159.3044   21272162.9144   21272158.708
        56.0004         52.0004
 -18127640.42849 -14046454.99248  20943442.8334   20943449.6704   20943442.902
        57.0004         53.0004
  -5762397.31347  -4453965.92846  24106082.4024   24106090.7324   24106082.063
        44.0004         39.0004
 26  2 22  0 38 30.0000000  0 10G08G16G04G27G28G09G29G31G26G18
  -2215206.25548  -1679600.13747  23775322.2374   23775331.9674   23775322.950
        48.0004         43.0004
 -24937795.53148 -19375627.02848  19991755.1334   19991758.2554   19991755.519
        53.0004         49.0004
 -16075233.83248 -12476310.37347  21463393.9024   21463399.2274   21463393.806
        51.0004         46.0004
 -15577112.92949 -12090758.44248  21511337.0834   21511344.3664   21511337.176
        56.0004         51.0004
  -8060188.12947  -6229143.29246  23604478.1734   23604484.7384   23604478.126
        45.0004         41.0004
  -6215303.32748  -4799317.62448  22609491.6924   22609497.9854   22609491.771
        53.0004         48.0004
   3028963.89247   2368057.32446  25370529.7024   25370537.8474   25370530.984
        44.0004         40.0004
 -16552581.03649 -12846025.47448  21284205.5934   21284209.0414   21284205.159
        56.0004         52.0004
 -18075739.72249 -14006012.92248  20953319.1184   20953325.9644   20953318.886
        57.0004         53.0004
  -5805816.10647  -4487798.71646  24097820.2694   24097827.6264   24097820.524
        44.0004         39.0004
 26  2 22  0 39  0.0000000  0 10G08G16G04G27G28G09G29G31G26G18
  -2333011.08148  -1771396.12747  23752904.9974   23752914.4644   23752905.532
        48.0004         43.0004
 -24944368.97148 -19380749.19548  19990504.1504   19990507.5454   19990504.647
        53.0004         49.0004
 -16074459.53848 -12475707.05147  21463541.6314   21463546.5844   21463541.626
        51.0004         46.0004
 -15668981.58549 -12162344.38948  21493855.2334   21493862.3344   21493855.331
        56.0004         51.0004
  -7967229.69747  -6156708.28346  23622168.1634   23622174.4304   23622167.417
        45.0004         41.0004
  -6267116.77348  -4839691.71548  22599631.7174   22599638.3804   22599631.562
        53.0004         48.0004
   3133583.45147   2449578.90746  25390439.1224   25390446.5964   25390441.062
        44.0004         40.0004
 -16488916.78749 -12796417.02248  21296320.6334   21296324.0784   21296320.287
        56.0004         52.0004
 -18023562.25549 -13965355.18948  20963248.1174   20963255.4034   20963248.263
        57.0004         53.0004
  -5848786.69447  -4521282.25846  24089643.7974   24089650.8374   24089643.816
        44.0004         39.0004
 26  2 22  0 39 30.0000000  0 10G08G16G04G27G28G09G29G31G26G18
  -2450673.64648  -1863081.24047  23730513.4574   23730524.0034   23730513.858
        48.0004         43.0004
 -24950517.80749 -19385540.50048  19989334.2284   19989337.8004   19989334.604
        54.0004         49.0004
 -16073059.79048 -12474616.36447  21463807.4864   21463813.2974   21463807.617
        51.0004         46.0004
 -15760429.97149 -12233602.85648  21476453.3824   21476460.1624   21476453.058
        56.0004         52.0004
  -7874061.40247  -6084109.73246  23639896.9524   23639903.3124   23639896.671
        45.0004         41.0004
  -6318385.63448  -4879641.45648  22589874.7194   22589881.9194   22589874.479
        53.0004         48.0004
   3238348.74047   2531214.06446  25410374.6964   25410383.8324   25410376.905
        44.0004         40.0004
 -16424893.46549 -12746528.78648  21308504.0334   21308507.5954   21308503.647
        56.0004         52.0004
 -17971109.20649 -13924482.71448  20973229.7954   20973237.0674   20973229.785
        57.0004         53.0004
  -5891306.88447  -4554414.85646  24081552.1454   24081559.5234   24081552.779
        43.0004         39.0004
 26  2 22  0 40  0.0000000  0 10G08G16G04G27G28G09G29G31G26G18
  -2568191.65548  -1954653.73247  23708151.3194   23708160.9284   23708152.050
        48.0004         43.0004
 -24956242.31349 -19390001.15848  19988244.6554   19988248.4194   19988244.879
        54.0004         49.0004
 -16071034.66648 -12473038.37247  21464193.4964   21464197.9454   21464193.022
        51.0004         46.0004
 -15851455.69849 -12304531.98048  21459131.5204   21459139.0874   21459131.746
        56.0004         52.0004
  -7780684.40847  -6011348.56846  23657666.4274   23657672.6664   23657666.097
        45.0004         40.0004
  -6369108.16848  -4919165.47848  22580223.3054   22580229.8134   22580222.945
        52.0004         48.0004
   3343257.14247   2612960.73646  25430337.7584   25430347.3304   25430339.597
        44.0004         40.0004
 -16360512.43349 -12696361.82648  21320755.5084   21320758.8134   21320755.632
        56.0004         52.0004
 -17918381.71449 -13883396.39248  20983263.4904   20983270.5504   20983263.297
        57.0004         53.0004
  -5933374.60247  -4587194.88146  24073548.2974   24073554.4494   24073547.232
        44.0004         39.0004
 26  2 22  0 40 30.0000000  0 10G08G16G04G27G28G09G29G31G26G18
  -2685562.72348  -2046111.71247  23685816.4154   23685825.9414   23685816.159
        48.0004         43.0004
 -24961543.27149 -19394131.77848  19987235.9444   19987239.6674   19987236.533
        54.0004         49.0004
 -16068384.19948 -12470973.09847  21464697.6884   21464702.4534   21464697.637
        51.0004         46.0004
 -15942056.19749 -12375129.75348  21441891.0094   21441898.0594   21441890.968
        56.0004         52.0004
  -7687099.77147  -5938425.59746  23675474.3654   23675481.1264   23675473.789
        45.0004         40.0004
  -6419282.46348  -4958262.32248  22570675.4714   22570681.4874   22570675.611
        53.0004         48.0004
   3448305.80747   2694816.71846  25450329.0344   25450337.8904   25450329.944
        44.0004         40.0004
 -16295774.30649 -12645916.59948  21333074.6574   21333078.3944   21333074.696
        56.0004         52.0004
 -17865380.88749 -13842097.08848  20993349.2044   20993356.1954   20993349.061
        57.0004         53.0004
  -5974987.55847  -4619620.53246  24065628.6104   24065635.6984   24065628.386
        44.0004         39.0004
 26  2 22  0 41  0.0000000  0 10G08G16G04G27G28G09G29G31G26G18
  -2802784.37447  -2137453.27647  23663509.9384   23663519.4264   23663510.793
        47.0004         43.0004
 -24966421.40449 -19397932.92648  19986307.8794   19986310.9504   19986308.347
        54.0004         49.0004
 -16065108.48748 -12468420.61747  21465320.6624   21465326.4134   21465320.865
        51.0004         46.0004
 -16032229.14949 -12445394.37248  21424731.6714   21424738.7014   21424731.849
        56.0004         52.0004
  -7593308.60847  -5865341.71046  23693323.1754   23693328.3924   23693321.784
        45.0004         40.0004
  -6468906.87648  -4996930.66948  22561232.0614   22561238.1344   22561231.730
        53.0004         48.0004
   3553492.70747   2776780.41646  25470345.2694   25470354.0004   25470345.687
        44.0004         40.0004
 -16230679.37549 -12595193.34248  21345462.0384   21345465.6864   21345461.907
        56.0004         52.0004
 -17812107.93249 -13800585.73248  21003486.9814   21003493.8104   21003486.916
        57.0004         53.0004
  -6016143.77947  -4651690.30046  24057797.3604   24057804.3064   24057796.750
        44.0004         39.0004
 26  2 22  0 41 30.0000000  0 10G08G16G04G27G28G09G29G31G26G18
  -2919854.33047  -2228676.61547  23641231.7814   23641241.5084   23641232.206
        47.0004         42.0004
 -24970877.26649 -19401405.03148  19985459.6304   19985463.3664   19985460.028
        54.0004         49.0004
 -16061207.68248 -12465381.05347  21466063.9644   21466068.2164   21466063.269
        51.0004         46.0004
 -16121972.12049 -12515323.93848  21407654.1844   21407660.9194   21407654.092
        56.0004         52.0004
  -7499312.03947  -5792097.75846  23711209.9234   23711215.8264   23711210.906
        45.0004         40.0004
  -6517979.62748  -5035169.14248  22551893.9044   22551900.1614   22551894.011
        53.0004         48.0004
   3658815.44047   2858849.97446  25490386.3844   25490397.2704   25490387.638
        44.0004         40.0004
 -16165228.36049 -12544192.61448  21357916.8504   21357920.3644   21357916.342
        56.0004         52.0004
 -17758563.92949 -13758863.17148  21013675.9054   21013682.7874   21013675.791
        57.0004         53.0004
  -6056841.10247  -4683402.47746  24050051.7504   24050059.7274   24050050.982
        44.0004         39.0004
 26  2 22  0 42  0.0000000  0  9G08G16G04G27G28G09G31G26G18
  -3036770.10647  -2319779.82647  23618983.2614   23618993.3704   23618984.034
        47.0004         42.0004
 -24974911.72449 -19404548.76748  19984691.9944   19984695.2814   19984692.440
        54.0004         49.0004
 -16056681.91148 -12461854.49447  21466924.7094   21466929.6774   21466924.120
        51.0004         46.0004
 -16211282.64049 -12584916.53248  21390658.9264   21390665.7374   21390658.236
        56.0004         52.0004
  -7405111.11347  -5718694.57546  23729135.9954   23729142.4274   23729135.933
        45.0004         40.0004
  -6566498.98348  -5072976.40748  22542661.0904   22542666.9024   22542661.517
        53.0004         48.0004
 -16099422.46549 -12492915.36048  21370439.4484   21370442.5994   21370439.510
        56.0004         51.0004
 -17704749.94749 -13716930.22948  21023916.1214   21023923.3104   21023916.067
        57.0004         53.0004
  -6097077.44247  -4714755.46346  24042394.8074   24042401.9964   24042394.244
        44.0004         39.0004
 26  2 22  0 42 30.0000000  0  9G08G16G04G27G28G09G31G26G18
  -3153529.35947  -2410761.04547  23596765.4164   23596774.2884   23596766.474
        47.0004         42.0004
 -24978525.03549 -19407364.33948  19984004.4834   19984007.9564   19984004.839
        54.0004         49.0004
 -16051531.33348 -12457841.07647  21467904.9384   21467909.7574   21467904.471
        51.0004         46.0004
 -16300158.36449 -12654170.32248  21373746.3504   21373753.4414   21373746.579
        56.0004         52.0004
  -7310707.05147  -5645133.11146  23747100.5304   23747107.6094   23747100.038
        45.0004         40.0004
  -6614463.23148  -5110351.13848  22533533.8944   22533539.8624   22533534.065
        53.0004         48.0004
 -16033262.31249 -12441362.05948  21383029.0954   21383032.7624   21383028.515
        56.0004         51.0004
 -17650667.18749 -13674787.85248  21034208.1414   21034215.1704   21034207.972
        57.0004         53.0004
  -6136850.73647  -4745747.64446  24034826.9124   24034834.4144   24034826.049
        44.0004         39.0004
 26  2 22  0 43  0.0000000  0  9G08G16G04G27G28G09G31G26G18
  -3270129.72647  -2501618.44347  23574577.3244   23574586.8764   23574577.085
        47.0004         43.0004
 -24981717.85749 -19409852.25748  19983397.0724   19983400.4334   19983397.732
        54.0004         49.0004
 -16045756.21848 -12453341.00147  21469003.3774   21469008.1924   21469003.716
        51.0004         46.0004
 -16388596.89749 -12723083.43748  21356917.1754   21356923.7804   21356916.989
        57.0004         52.0004
  -7216100.90847  -5571414.17846  23765103.7744   23765110.4934   23765104.058
        45.0004         40.0004
  -6661870.73548  -5147292.03948  22524512.5124   22524518.3224   22524512.745
        53.0004         48.0004
 -15966748.62449 -12389533.27548  21395686.5944   21395689.9464   21395686.485
        56.0004         51.0004
 -17596316.77649 -13632436.91848  21044550.8234   21044557.5184   21044550.748
        57.0004         53.0004
  -6176158.99147  -4776377.48046  24027347.2374   24027352.6364   24027346.756
        44.0004         39.0004
 26  2 22  0 43 30.0000000  0  9G08G16G04G27G28G09G31G26G18
  -3386568.75847  -2592350.12447  23552419.2634   23552428.5854   23552420.117
        47.0004         43.0004
 -24984490.78249 -19412012.97948  19982869.3904   19982872.8154   19982869.864
        54.0004         49.0004
 -16039356.73048 -12448354.39347  21470221.5674   21470225.6714   21470221.403
        51.0004         46.0004
 -16476595.84949 -12791654.02748  21340171.4644   21340178.2044   21340171.764
        57.0004         52.0004
  -7121293.80847  -5497538.65646  23783145.2284   23783151.8574   23783144.330
        45.0004         40.0004
  -6708719.72548  -5183797.70948  22515597.2894   22515603.6874   22515596.985
        53.0004         48.0004
 -15899882.22949 -12337429.65048  21408410.7874   21408414.4834   21408410.613
        56.0004         52.0004
 -17541699.78049 -13589878.25148  21054943.8084   21054950.7314   21054943.798
        57.0004         53.0004
  -6215000.06247  -4806643.25246  24019954.8764   24019962.3264   24019955.197
        44.0004         39.0004
 26  2 22  0 44  0.0000000  0  9G08G16G04G27G28G09G31G26G18
  -3502844.24547  -2682954.36647  23530293.1624   23530302.3394   23530293.700
        47.0004         43.0004
 -24986844.91149 -19413847.36748  19982421.3584   19982424.8054   19982421.739
        54.0004         49.0004
 -16032333.26548 -12442881.57647  21471558.3134   21471562.8274   21471557.747
        51.0004         46.0004
 -16564152.93549 -12859880.30248  21323509.5724   21323516.4894   21323509.658
        57.0004         52.0004
  -7026286.98547  -5423507.49946  23801225.0514   23801230.4004   23801223.820
        45.0004         40.0004
  -6755008.74348  -5219867.06148  22506788.2424   22506795.0064   22506788.644
        53.0004         48.0004
 -15832664.00149 -12285051.87248  21421202.0194   21421205.4134   21421202.115
        56.0004         51.0004
 -17486817.40249 -13547112.78448  21065387.6294   21065394.6624   21065387.488
        57.0004         53.0004
  -6253372.09147  -4836543.57346  24012654.6574   24012661.0564   24012653.852
        44.0004         39.0004
 26  2 22  0 44 30.0000000  0  9G08G16G04G27G28G09G31G26G18
  -3618953.65747  -2773429.19647  23508198.1624   23508207.1164   23508199.037
        47.0004         43.0004
 -24988780.44049 -19415355.57348  19982053.1234   19982056.2084   19982053.361
        54.0004         49.0004
 -16024685.94548 -12436922.63747  21473013.0714   21473018.4744   21473013.214
        51.0004         46.0004
 -16651265.67549 -12927760.33448  21306932.9684   21306939.4644   21306932.541
        57.0004         52.0004
  -6931081.45147  -5349321.51546  23819341.4254   23819348.1014   23819341.407
        45.0004         40.0004
  -6800735.95948  -5255498.63548  22498086.9714   22498093.4254   22498087.035
        53.0004         48.0004
 -15765094.58049 -12232400.43648  21434060.0534   21434064.0654   21434059.838
        56.0004         51.0004
 -17431670.67249 -13504141.33848  21075881.6574   21075888.7414   21075881.209
        57.0004         53.0004
  -6291272.93447  -4866076.68646  24005441.0794   24005448.4244   24005441.078
        44.0004         39.0004
 26  2 22  0 45  0.0000000  0  9G08G16G04G27G28G09G31G26G18
  -3734894.61148  -2863772.78947  23486135.9644   23486145.2114   23486135.770
        48.0004         44.0004
 -24990298.07549 -19416538.14748  19981764.5114   19981767.5844   19981764.918
        54.0004         49.0004
 -16016415.12348 -12430477.85147  21474587.4844   21474592.3884   21474587.081
        51.0004         46.0004
 -16737931.80749 -12995292.35448  21290440.8294   21290447.7624   21290440.749
        57.0004         52.0004
  -6835678.41147  -5274981.60746  23837496.0134   23837503.9804   23837495.470
        45.0004         40.0004
  -6845899.83248  -5290691.24248  22489492.7294   22489498.6634   22489493.004
        53.0004         48.0004
 -15697174.93949 -12179476.10448  21446984.8114   21446988.7244   21446984.586
        56.0004         51.0004
 -17376260.71049 -13460964.76548  21086425.7774   21086433.2664   21086425.870
        57.0004         53.0004
  -6328700.61347  -4895241.12146  23998319.5554   23998325.8574   23998319.930
        44.0004         39.0004
 26  2 22  0 45 30.0000000  0  9G08G16G04G27G28G09G31G26G18
  -3850664.81748  -2953983.32047  23464105.1674   23464114.8384   23464105.320
        48.0004         44.0004
 -24991398.73649 -19417395.80748  19981554.8454   19981558.1864   19981555.023
        54.0004         49.0004
 -16007521.21248 -12423547.54847  21476280.3954   21476284.5874   21476279.100
        51.0004         46.0004
 -16824149.03249 -13062474.58248  21274034.1954   21274041.0234   21274034.155
        57.0004         52.0004
  -6740079.01347  -5200488.71746  23855687.5904   23855695.4164   23855687.814
        45.0004         40.0004
  -6890498.85548  -5325443.71248  22481006.0144   22481011.9614   22481005.599
        53.0004         48.0004
 -15628905.94149 -12126279.54648  21459975.9164   21459979.7804   21459975.755
        56.0004         51.0004
 -17320588.72349 -13417584.02848  21097019.9724   21097027.2334   21097020.015
        57.0004         53.0004
  -6365653.24947  -4924035.38546  23991287.7894   23991293.8514   23991288.002
        44.0004         39.0004
 26  2 22  0 46  0.0000000  0  9G08G16G04G27G28G09G31G26G18
  -3966261.89748  -3044058.92747  23442107.9114   23442116.3334   23442107.347
        49.0004         44.0004
 -24992082.77249 -19417928.81948  19981424.4164   19981428.1334   19981424.890
        54.0004         49.0004
 -15998004.52748 -12416131.96047  21478090.3654   21478095.7024   21478090.519
        51.0004         46.0004
 -16909914.98049 -13129305.16748  21257713.3024   21257720.1634   21257713.577
        57.0004         52.0004
  -6644284.42047  -5125843.71646  23873917.5114   23873925.0094   23873918.871
        45.0004         40.0004
  -6934531.35448  -5359754.72248  22472626.6574   22472633.2834   22472626.348
        53.0004         49.0004
 -15560288.25249 -12072811.28048  21473033.6814   21473037.2374   21473033.571
        56.0004         51.0004
 -17264655.70149 -13373999.88248  21107663.6874   21107670.4444   21107663.735
        57.0004         53.0004
  -6402128.84247  -4952457.91346  23984346.8954   23984352.4154   23984346.257
        44.0004         39.0004
 26  2 22  0 46 30.0000000  0  9G08G16G04G27G28G09G31G26G18
  -4081683.50948  -3133997.86747  23420143.4744   23420153.0194   23420144.151
        49.0004         44.0004
 -24992351.10049 -19418137.91348  19981373.6184   19981377.0644   19981374.126
        54.0004         49.0004
 -15987865.49948 -12408231.43247  21480020.1184   21480025.1174   21480019.221
        51.0004         46.0004
 -16995227.41649 -13195782.36448  21241478.7634   21241485.8534   21241478.958
        57.0004         52.0004
  -6548295.82047  -5051047.53846  23892184.0064   23892190.5774   23892182.617
        45.0004         40.0004
  -6977995.85148  -5393623.14348  22464355.8984   22464361.9364   22464356.099
        53.0004         49.0004
 -15491322.73949 -12019071.97748  21486157.4524   21486160.9734   21486157.083
        56.0004         51.0004
 -17208462.80149 -13330213.23248  21118356.5154   21118364.2604   21118356.138
        57.0004         52.0004
  -6438125.51247  -4980507.26846  23977494.8744   23977503.1244   23977496.131
        44.0004         39.0004
 26  2 22  0 47  0.0000000  0  9G08G16G04G27G28G09G31G26G18
  -4196927.16748  -3223798.11447  23398213.3654   23398222.7474   23398213.585
        49.0004         44.0004
 -24992204.30849 -19418023.53248  19981401.5894   19981404.8194   19981401.565
        54.0004         49.0004
 -15977104.48848 -12399846.24847  21482068.0864   21482072.5984   21482067.787
        51.0004         46.0004
 -17080083.97249 -13261904.33148  21225331.2784   21225338.1494   21225330.784
        57.0004         53.0004
  -6452114.32547  -4976101.07646  23910485.9764   23910492.8724   23910484.929
        44.0004         40.0004
  -7020890.81848  -5427047.77248  22456192.1254   22456198.8524   22456192.235
        53.0004         48.0004
 -15422010.20849 -11965062.27648  21499347.2174   21499350.8234   21499347.112
        56.0004         51.0004
 -17152011.09449 -13286224.91348  21129099.0654   21129106.5024   21129099.151
        57.0004         52.0004
  -6473641.31747  -5008181.89146  23970737.2714   23970745.0174   23970736.486
        44.0004         39.0004
 26  2 22  0 47 30.0000000  0  9G08G16G04G27G28G09G31G26G18
  -4311990.62448  -3313457.94847  23376317.7624   23376327.3184   23376317.326
        49.0004         44.0004
 -24991643.19349 -19417586.29748  19981508.3764   19981511.4564   19981508.586
        54.0004         49.0004
 -15965722.06848 -12390976.85247  21484233.7724   21484238.6874   21484233.809
        51.0004         46.0004
 -17164482.46549 -13327669.36548  21209270.9344   21209277.5524   21209271.104
        57.0004         53.0004
  -6355741.18547  -4901005.26246  23928825.5334   23928831.9694   23928824.719
        44.0004         40.0004
  -7063214.77648  -5460027.45848  22448138.7404   22448145.1094   22448138.138
        53.0004         49.0004
 -15352351.70449 -11910782.98548  21512602.6384   21512606.2854   21512602.432
        56.0004         51.0004
 -17095301.74549 -13242035.83248  21139891.0114   21139898.0644   21139890.689
        57.0004         52.0004
  -6508674.37847  -5035480.36646  23964071.0834   23964078.3504   23964069.914
        44.0004         40.0004
 26  2 22  0 48  0.0000000  0  9G08G16G04G27G28G09G31G26G18
  -4426871.42148  -3402975.45547  23354456.0954   23354465.5974   23354456.747
        49.0004         44.0004
 -24990668.35149 -19416826.68548  19981693.6444   19981697.0084   19981694.098
        54.0004         49.0004
 -15953718.57848 -12381623.50847  21486518.1244   21486523.3064   21486517.390
        51.0004         46.0004
 -17248420.54949 -13393075.63948  21193297.8714   21193304.8624   21193297.936
        57.0004         53.0004
  -6259177.51647  -4825760.99046  23947201.3844   23947207.4954   23947202.208
        44.0004         40.0004
  -7104966.16248  -5492560.99048  22440194.0674   22440200.3874   22440194.222
        53.0004         49.0004
 -15282347.92449 -11856234.65248  21525924.0894   21525928.2154   21525923.841
        56.0004         51.0004
 -17038335.78449 -13197646.80348  21150731.1454   21150738.1294   21150731.089
        57.0004         52.0004
  -6543222.76747  -5062401.17246  23957497.9804   23957503.9464   23957496.218
        45.0004         40.0004
 26  2 22  0 48 30.0000000  0  9G08G16G04G27G28G09G31G26G18
  -4541567.25548  -3492348.83347  23332630.3574   23332640.0014   23332631.083
        49.0004         44.0004
 -24989280.37148 -19415745.14348  19981957.9834   19981960.9614   19981958.164
        53.0004         49.0004
 -15941094.63148 -12371786.68247  21488920.9324   21488925.7774   21488920.244
        51.0004         46.0004
 -17331896.06149 -13458121.46748  21177413.0424   21177419.6684   21177413.219
        57.0004         53.0004
  -6162424.53347  -4750369.20546  23965613.5724   23965619.3614   23965614.066
        44.0004         40.0004
  -7146143.63448  -5524647.30648  22432358.1134   22432364.0174   22432357.817
        53.0004         49.0004
 -15211999.93849 -11801418.10048  21539310.9474   21539314.5864   21539310.610
        56.0004         51.0004
 -16981114.36949 -13153058.71948  21161620.0334   21161627.2094   21161620.036
        57.0004         52.0004
  -6577284.73047  -5088942.95646  23951015.6664   23951022.8014   23951014.162
        45.0004         41.0004
 26  2 22  0 49  0.0000000  0  9G08G16G04G27G28G09G31G26G18
  -4656075.71348  -3581576.21047  23310840.3754   23310849.5214   23310840.722
        49.0004         44.0004
 -24987480.37049 -19414342.54648  19982300.2844   19982303.8904   19982300.760
        54.0004         49.0004
 -15927850.70248 -12361466.75947  21491440.4024   21491445.7304   21491440.083
        51.0004         46.0004
 -17414906.73349 -13522805.08548  21161616.6314   21161623.3744   21161616.237
        57.0004         53.0004
  -6065483.43447  -4674830.82346  23984059.5554   23984066.8224   23984059.785
        45.0004         40.0004
  -7186745.68248  -5556285.25648  22424631.8104   22424637.8714   22424631.950
        53.0004         49.0004
 -15141308.40449 -11746333.84748  21552762.7894   21552766.5524   21552762.641
        56.0004         51.0004
 -16923638.58549 -13108272.42648  21172557.0374   21172564.5914   21172557.173
        57.0004         52.0004
  -6610858.41447  -5115104.24446  23944626.0754   23944632.8094   23944625.339
        45.0004         40.0004
 26  2 22  0 49 30.0000000  0  9G08G16G04G27G28G09G31G26G18
  -4770394.48748  -3670655.75347  23289085.8274   23289095.3274   23289084.634
        49.0004         44.0004
 -24985268.71049 -19412619.16748  19982720.8564   19982724.5324   19982721.234
        54.0004         49.0004
 -15913987.38948 -12350664.19147  21494079.0554   21494083.8554   21494078.758
        51.0004         46.0004
 -17497450.34049 -13587124.75648  21145908.9184   21145915.9564   21145908.978
        57.0004         53.0004
  -5968355.46647  -4599146.83846  24002543.1214   24002549.6364   24002543.794
        45.0004         40.0004
  -7226770.95248  -5587473.75448  22417015.5734   22417021.6634   22417015.872
        53.0004         49.0004
 -15070274.37449 -11690982.72448  21566280.4284   21566283.9844   21566279.799
        56.0004         51.0004
 -16865909.47249 -13063288.73448  21183542.7084   21183549.8734   21183542.651
        57.0004         52.0004
  -6643941.98847  -5140883.61346  23938330.2414   23938337.7424   23938329.995
        44.0004         39.0004
 26  2 22  0 50  0.0000000  0  9G08G16G04G27G28G09G31G26G18
  -4884521.08348  -3759585.54647  23267368.7944   23267378.1404   23267368.765
        48.0004         44.0004
 -24982646.16749 -19410575.63148  19983219.9814   19983223.6754   19983220.775
        54.0004         49.0004
 -15899505.18948 -12339379.37447  21496834.8324   21496839.9624   21496834.468
        51.0004         46.0004
 -17579524.63549 -13651078.72648  21130290.7634   21130297.5714   21130290.534
        57.0004         53.0004
  -5871041.67847  -4523318.06246  24021062.4454   24021068.4754   24021061.051
        44.0004         39.0004
  -7266217.93748  -5618211.64648  22409509.1974   22409515.0804   22409508.991
        53.0004         49.0004
 -14998898.52149 -11635365.24148  21579862.4794   21579866.6074   21579862.390
        56.0004         51.0004
 -16807928.11649 -13018108.49948  21194576.3104   21194583.5274   21194576.093
        57.0004         52.0004
  -6676533.59247  -5166279.65546  23932129.6664   23932133.8914   23932129.059
        44.0004         39.0004
 26  2 22  0 50 30.0000000  0  9G08G16G04G27G28G09G31G26G18
  -4998453.28148  -3848363.83747  23245688.6264   23245697.6534   23245688.193
        49.0004         44.0004
 -24979613.32949 -19408212.37648  19983797.5274   19983800.8734   19983797.846
        54.0004         49.0004
 -15884404.83348 -12327612.87647  21499708.0634   21499713.5504   21499708.237
        51.0004         46.0004
 -17661127.51649 -13714665.36448  21114762.0954   21114769.1754   21114762.304
        57.0004         53.0004
  -5773543.43147  -4447345.56946  24039615.8804   24039622.4934   24039615.358
        44.0004         40.0004
  -7305085.40548  -5648497.97148  22402112.6344   22402118.6914   22402112.773
        53.0004         49.0004
 -14927182.10449 -11579482.39348  21593509.7864   21593513.9984   21593509.591
        56.0004         51.0004
 -16749695.63249 -12972732.57148  21205657.5224   21205664.9074   21205657.318
        57.0004         52.0004
  -6708631.54147  -5191291.06046  23926021.1454   23926026.6374   23926021.424
        44.0004         39.0004
 26  2 22  0 51  0.0000000  0  9G08G16G04G27G28G09G31G26G18
  -5112188.63848  -3936988.73147  23224043.9084   23224053.6174   23224044.173
        48.0004         44.0004
 -24976170.91648 -19405529.97348  19984452.8734   19984456.3264   19984452.604
        53.0004         49.0004
 -15868686.90848 -12315365.15247  21502699.3494   21502704.4294   21502698.991
        51.0004         46.0004
 -17742256.75549 -13777882.92448  21099323.6724   21099330.8314   21099323.611
        57.0004         53.0004
  -5675861.84347  -4371230.19846  24058203.2344   24058210.3454   24058202.819
        44.0004         39.0004
  -7343371.92848  -5678331.61448  22394826.3104   22394833.5594   22394826.537
        53.0004         49.0004
 -14855125.76449 -11523334.65748  21607221.8114   21607225.8864   21607221.581
        56.0004         51.0004
 -16691213.08849 -12927161.79748  21216786.6054   21216793.7234   21216786.894
        57.0004         52.0004
  -6740234.06047  -5215916.39946  23920007.0054   23920014.0844   23920007.948
        44.0004         40.0004
 26  2 22  0 51 30.0000000  0  9G08G16G04G27G28G09G31G26G18
  -5225724.84548  -4025458.41447  23202439.7844   23202449.3394   23202440.074
        49.0004         44.0004
 -24972320.13249 -19402529.36348  19985185.5644   19985188.7954   19985185.423
        54.0004         49.0004
 -15852352.04148 -12302636.69147  21505807.3804   21505812.5934   21505806.812
        51.0004         46.0004
 -17822910.16649 -13840729.71248  21083975.8444   21083982.7824   21083975.678
        57.0004         53.0004
  -5577998.18047  -4294972.93846  24076825.9264   24076833.6754   24076826.225
        44.0004         39.0004
  -7381076.18148  -5707711.53648  22387651.9284   22387658.3564   22387652.027
        53.0004         49.0004
 -14782730.51749 -11466922.84148  21620998.6424   21621002.5904   21620998.342
        56.0004         51.0004
 -16632481.52049 -12881396.97248  21227962.5924   21227969.9704   21227962.324
        57.0004         52.0004
  -6771339.39147  -5240154.28346  23914086.1134   23914095.1484   23914086.411
        44.0004         39.0004
 26  2 22  0 52  0.0000000  0  9G08G16G04G27G28G09G31G26G18
  -5339059.53348  -4113771.07847  23180872.9814   23180881.5674   23180872.773
        49.0004         44.0004
 -24968061.58849 -19399211.01148  19985995.7174   19985999.2594   19985996.009
        54.0004         49.0004
 -15835400.99648 -12289428.09447  21509033.5534   21509038.3994   21509032.920
        50.0004         46.0004
 -17903085.66149 -13903204.09848  21068719.0424   21068725.9484   21068719.250
        57.0004         53.0004
  -5479953.67547  -4218574.75546  24095483.7644   24095491.3804   24095483.347
        44.0004         39.0004
  -7418196.90548  -5736636.76548  22380587.7994   22380594.8084   22380588.225
        53.0004         49.0004
 -14709997.28349 -11410247.65248  21634839.2154   21634843.4524   21634838.749
        56.0004         51.0004
 -16573502.04249 -12835438.95948  21239186.0414   21239193.3984   21239185.861
        57.0004         52.0004
  -6801945.85347  -5264003.44846  23908262.6044   23908270.1874   23908261.463
        44.0004         39.0004
 26  2 22  0 52 30.0000000  0  9G08G16G04G27G28G09G31G26G18
  -5452190.35148  -4201924.88147  23159344.3154   23159353.6794   23159345.384
        49.0004         44.0004
 -24963395.93149 -19395575.43248  19986883.5964   19986887.2204   19986883.874
        54.0004         49.0004
 -15817834.45648 -12275739.88647  21512375.8164   21512380.6174   21512375.568
        50.0004         46.0004
 -17982781.05449 -13965304.38248  21053553.6564   21053560.3534   21053553.552
        57.0004         53.0004
  -5381729.46347  -4142036.56446  24114175.8114   24114182.3854   24114176.073
        44.0004         39.0004
  -7454732.73748  -5765106.22848  22373634.9514   22373641.8864   22373635.008
        53.0004         49.0004
 -14636926.97549 -11353309.81448  21648744.0074   21648747.8364   21648743.545
        56.0004         51.0004
 -16514275.71649 -12789288.61348  21250456.4984   21250463.6784   21250456.571
        57.0004         52.0004
  -6832051.64947  -5287462.50046  23902534.3794   23902541.9654   23902533.320
        44.0004         40.0004
 26  2 22  0 53  0.0000000  0  9G08G16G04G27G28G09G31G26G18
  -5565115.00848  -4289918.00447  23137855.6844   23137864.9394   23137855.552
        49.0004         44.0004
 -24958323.67549 -19391623.02048  19987848.4154   19987852.1444   19987849.080
        54.0004         49.0004
 -15799653.22348 -12261572.70047  21515835.7044   21515840.6054   21515835.329
        50.0004         46.0004
 -18061994.28249 -14027028.94948  21038479.9344   21038486.4174   21038480.025
        58.0004         53.0004
  -5283326.92447  -4065359.41446  24132901.2224   24132907.7464   24132900.250
        44.0004         39.0004
  -7490682.49348  -5793119.01148  22366794.5834   22366801.0414   22366795.143
        53.0004         49.0004
 -14563520.66549 -11296110.15848  21662712.5644   21662716.7034   21662711.857
        56.0004         51.0004
 -16454803.65449 -12742946.79148  21261773.6604   21261780.9014   21261773.849
        56.0004         52.0004
  -6861655.23247  -5310530.24146  23896901.6164   23896907.7494   23896901.388
        44.0004         40.0004
 26  2 22  0 53 30.0000000  0  9G08G16G04G27G28G09G31G26G18
  -5677831.11148  -4377748.63047  23116406.3114   23116415.2044   23116406.329
        49.0004         45.0004
 -24952845.75249 -19387354.51248  19988891.1914   19988894.4184   19988891.588
        54.0004         49.0004
 -15780857.94548 -12246927.03647  21519412.0554   21519417.8024   21519411.943
        50.0004         46.0004
 -18140723.12449 -14088376.07448  21023498.0364   21023504.8724   21023498.237
        58.0004         53.0004
  -5184747.07447  -3988544.10146  24151659.7274   24151666.7684   24151659.146
        43.0004         38.0004
  -7526044.88348  -5820674.10148  22360065.3734   22360070.9694   22360065.786
        53.0004         49.0004
 -14489779.10849 -11238649.27648  21676745.4004   21676749.2704   21676745.027
        55.0004         51.0004
 -16395086.79249 -12696414.21348  21273137.7314   21273144.6054   21273137.406
        56.0004         52.0004
  -6890754.79147  -5333205.23246  23891364.3204   23891369.9874   23891363.547
        45.0004         40.0004
 26  2 22  0 54  0.0000000  0  9G08G16G04G27G28G09G31G26G18
  -5790336.34648  -4465414.95347  23094997.2694   23095005.7194   23094997.658
        49.0004         45.0004
 -24946963.04248 -19382770.57548  19990010.4544   19990013.8484   19990010.815
        53.0004         49.0004
 -15761449.53348 -12231803.60247  21523105.8074   21523110.5944   21523105.860
        50.0004         46.0004
 -18218965.59549 -14149344.20448  21008609.0514   21008616.0334   21008609.157
        58.0004         53.0004
  -5085991.36547  -3911591.74546  24170451.3564   24170459.5414   24170451.777
        43.0004         39.0004
  -7560818.75748  -5847770.61348  22353448.4094   22353453.5784   22353448.448
        53.0004         49.0004
 -14415703.24549 -11180927.89448  21690841.6104   21690845.7454   21690841.522
        55.0004         51.0004
 -16335126.31049 -12649691.80248  21284547.6994   21284554.7104   21284547.598
        56.0004         52.0004
  -6919348.79947  -5355486.28946  23885922.9424   23885928.2854   23885922.049
        45.0004         40.0004
 26  2 22  0 54 30.0000000  0  9G08G16G04G27G28G09G31G26G18
  -5902628.45348  -4552915.19647  23073628.5664   23073637.9684   23073627.587
        49.0004         45.0004
 -24940676.06948 -19377871.63448  19991207.0944   19991210.2424   19991207.334
        53.0004         49.0004
 -15741428.80548 -12216203.04247  21526915.3744   21526920.5634   21526915.448
        51.0004         46.0004
 -18296719.62149 -14209931.72548  20993813.0544   20993819.4974   20993812.788
        58.0004         53.0004
  -4987060.99147  -3834503.30846  24189278.9054   24189285.2344   24189277.577
        43.0004         38.0004
  -7595002.91448  -5874407.61148  22346943.1224   22346948.5864   22346943.215
        53.0004         49.0004
 -14341294.19749 -11122946.88848  21705001.4944   21705005.2114   21705001.264
        55.0004         51.0004
 -16274923.22049 -12602780.33948  21296003.8014   21296011.1814   21296003.637
        56.0004         52.0004
  -6947435.60247  -5377372.10446  23880576.9384   23880584.1624   23880575.857
        45.0004         40.0004
 26  2 22  0 55  0.0000000  0  9G08G16G04G27G28G09G31G26G18
  -6014705.05748  -4640247.51347  23052300.9804   23052310.1514   23052301.966
        49.0004         45.0004
 -24933985.99448 -19372658.59248  19992479.7314   19992483.4874   19992480.364
        53.0004         49.0004
 -15720796.65848 -12200126.05247  21530842.0864   21530846.7554   21530841.536
        51.0004         46.0004
 -18373983.11449 -14270137.01148  20979109.9064   20979116.9324   20979110.168
        58.0004         53.0004
  -4887957.18647  -3757279.73446  24208138.8944   24208142.8264   24208138.491
        43.0004         38.0004
  -7628596.24248  -5900584.21748  22340549.7404   22340556.1174   22340549.538
        53.0004         48.0004
 -14266552.84449 -11064706.94548  21719223.7664   21719228.0304   21719223.271
        55.0004         51.0004
 -16214478.56949 -12555680.64748  21307505.9994   21307513.2054   21307505.920
        56.0004         52.0004
  -6975013.63347  -5398861.47046  23875329.9814   23875337.6414   23875328.721
        45.0004         40.0004
 26  2 22  0 55 30.0000000  0  9G08G16G04G27G28G09G31G26G18
  -6126563.78948  -4727410.06647  23031015.6774   23031024.4144   23031016.358
        50.0004         45.0004
 -24926893.17548 -19367131.72248  19993829.9094   19993833.0004   19993830.025
        53.0004         49.0004
 -15699553.88248 -12183573.25347  21534884.1474   21534889.7084   21534883.967
        51.0004         46.0004
 -18450754.02649 -14329958.46948  20964501.1614   20964507.8924   20964501.042
        58.0004         53.0004
  -4788681.14347  -3679921.94046  24227030.8694   24227034.5314   24227030.755
        43.0004         38.0004
  -7661597.45348  -5926299.43448  22334269.9494   22334276.5824   22334269.990
        53.0004         49.0004
 -14191480.25649 -11006208.88448  21733509.8324   21733513.6804   21733509.502
        55.0004         51.0004
 -16153793.43349 -12508393.57048  21319054.3834   21319061.3684   21319054.321
        56.0004         52.0004
  -7002081.25047  -5419953.10546  23870178.5034   23870185.3284   23870177.897
        45.0004         40.0004
 26  2 22  0 56  0.0000000  0  9G08G16G04G27G28G09G31G26G18
  -6238202.38148  -4814401.08547  23009770.8534   23009779.5354   23009771.953
        50.0004         45.0004
 -24919398.67448 -19361291.84848  19995255.7544   19995259.1654   19995256.384
        53.0004         49.0004
 -15677701.43548 -12166545.38047  21539042.3654   21539047.6464   21539042.349
        51.0004         46.0004
 -18527030.33349 -14389394.52148  20949985.9874   20949992.8074   20949985.985
        58.0004         53.0004
  -4689234.24247  -3602431.01846  24245953.3014   24245959.8594   24245953.641
        43.0004         38.0004
  -7694005.50448  -5951552.45548  22328102.9404   22328109.3634   22328103.041
        53.0004         49.0004
 -14116077.41749 -10947453.48448  21747858.1594   21747862.6164   21747857.644
        55.0004         51.0004
 -16092868.81649 -12460919.88348  21330647.6844   21330655.2214   21330647.474
        56.0004         52.0004
  -7028636.89247  -5440645.80546  23865125.7404   23865131.9784   23865125.941
        44.0004         40.0004
 26  2 22  0 56 30.0000000  0  9G08G16G04G27G28G09G31G26G18
  -6349618.46448  -4901218.72247  22988568.9154   22988577.9884   22988569.168
        50.0004         45.0004
 -24911503.23348 -19355139.55848  19996758.1824   19996761.7364   19996758.652
        53.0004         49.0004
 -15655240.21048 -12149043.13847  21543316.2644   21543322.0924   21543316.683
        50.0004         46.0004
 -18602810.03749 -14448443.59848  20935565.8544   20935572.6564   20935565.919
        58.0004         53.0004
  -4589617.69847  -3524807.88646  24264909.7244   24264917.1474   24264908.440
        43.0004         38.0004
  -7725819.33148  -5976342.43748  22322048.8504   22322055.8534   22322048.549
        53.0004         49.0004
 -14040345.22849 -10888441.43948  21762270.1284   21762274.2284   21762269.959
        55.0004         51.0004
 -16031705.78649 -12413260.40548  21342286.9764   21342294.0364   21342287.244
        56.0004         52.0004
  -7054679.10747  -5460938.43446  23860170.3564   23860176.5554   23860170.030
        44.0004         40.0004
 26  2 22  0 57  0.0000000  0  9G08G16G04G27G28G09G31G26G18
  -6460809.82948  -4987861.27147  22967409.4004   22967419.2554   22967408.842
        50.0004         45.0004
 -24903207.75848 -19348675.54748  19998336.9874   19998340.2874   19998337.331
        53.0004         49.0004
 -15632171.25448 -12131067.33047  21547706.7884   21547711.6594   21547706.409
        50.0004         46.0004
 -18678091.17549 -14507104.18848  20921240.0854   20921246.9724   20921239.954
        58.0004         53.0004
  -4489832.85147  -3447053.60446  24283897.7594   24283905.2004   24283898.125
        43.0004         38.0004
  -7757037.90048  -6000668.58348  22316108.5454   22316114.9734   22316108.135
        53.0004         49.0004
 -13964284.77049 -10829173.61448  21776743.6614   21776747.9684   21776743.384
        55.0004         51.0004
 -15970305.45149 -12365416.02748  21353970.9164   21353978.3984   21353970.670
        56.0004         52.0004
  -7080206.33847  -5480829.77046  23855311.8874   23855319.7084   23855311.292
        44.0004         40.0004
 26  2 22  0 57 30.0000000  0  9G08G16G04G27G28G09G31G26G18
  -6571773.98148  -5074326.75247  22946293.3984   22946303.7424   22946293.196
        50.0004         45.0004
 -24894512.66848 -19341900.14448  19999991.2784   19999995.0324   19999991.445
        53.0004         49.0004
 -15608495.41748 -12112618.64147  21552212.4394   21552216.7354   21552211.798
        50.0004         46.0004
 -18752871.64349 -14565374.63649  20907010.1474   20907016.7674   20907010.202
        58.0004         54.0004
  -4389880.81447  -3369169.08946  24302918.7994   24302926.1584   24302919.595
        43.0004         39.0004
  -7787660.03248  -6024529.97548  22310281.6884   22310287.5084   22310281.782
        53.0004         49.0004
 -13887897.13849 -10769650.84648  21791280.1094   21791283.8104   21791279.870
        55.0004         51.0004
 -15908668.69849 -12317387.42948  21365699.9184   21365707.4384   21365699.941
        56.0004         52.0004
  -7105216.99547  -5500318.57846  23850552.7844   23850559.4904   23850553.145
        44.0004         39.0004
 26  2 22  0 58  0.0000000  0  9G08G16G04G27G28G09G31G26G18
  -6682508.74148  -5160613.49847  22925221.6734   22925230.9954   22925221.005
        50.0004         45.0004
 -24885419.04548 -19334814.20548  20001721.6464   20001725.7774   20001722.270
        53.0004         49.0004
 -15584213.84448 -12093697.94147  21556833.0774   21556837.8874   21556832.299
        50.0004         46.0004
 -18827149.62849 -14623253.54949  20892875.3204   20892882.0754   20892875.110
        58.0004         54.0004
  -4289763.01847  -3291155.38646  24321970.0094   24321977.8074   24321969.514
        43.0004         39.0004
  -7817684.80948  -6047925.89348  22304567.7084   22304573.8244   22304567.172
        53.0004         49.0004
 -13811183.40549 -10709873.98648  21805878.2934   21805882.1884   21805877.714
        55.0004         51.0004
 -15846796.66549 -12269175.47748  21377474.0664   21377481.5214   21377474.387
        56.0004         52.0004
  -7129709.74147  -5519403.81046  23845891.5094   23845898.8524   23845891.773
        44.0004         39.0004
 26  2 22  0 58 30.0000000  0  9G08G16G04G27G28G09G31G26G18
  -6793011.80248  -5246719.70147  22904194.0924   22904202.6674   22904194.273
        50.0004         45.0004
 -24875927.64548 -19327418.30148  20003528.1824   20003531.7054   20003528.699
        53.0004         49.0004
 -15559327.53548 -12074306.01947  21561568.6014   21561573.6404   21561568.353
        50.0004         46.0004
 -18900923.12749 -14680739.34949  20878836.5924   20878843.3364   20878836.684
        58.0004         54.0004
  -4189480.72247  -3213013.51546  24341054.1754   24341060.7294   24341052.903
        43.0004         39.0004
  -7847111.21948  -6070855.54848  22298968.8034   22298974.4134   22298969.141
        53.0004         49.0004
 -13734144.48949 -10649843.73148  21820538.0034   21820542.6814   21820538.172
        55.0004         51.0004
 -15784690.40449 -12220781.01948  21389292.4684   21389299.8124   21389292.382
        56.0004         52.0004
  -7153683.05247  -5538084.28546  23841329.4474   23841335.7864   23841330.821
        44.0004         40.0004
 26  2 22  0 59  0.0000000  0  9G08G16G04G27G28G09G31G26G18
  -6903280.72948  -5332643.46047  22883209.7704   22883219.5294   22883210.536
        50.0004         45.0004
 -24866039.33748 -19319713.11948  20005410.0314   20005413.2334   20005410.223
        53.0004         49.0004
 -15533837.49848 -12054443.67147  21566419.4384   21566424.0104   21566418.794
        50.0004         46.0004
 -18974190.15149 -14737830.48549  20864894.2584   20864901.0614   20864894.007
        58.0004         54.0004
  -4089035.14447  -3134744.40046  24360167.3794   24360175.0644   24360166.061
        43.0004         39.0004
  -7875938.24648  -6093318.14948  22293482.7274   22293488.5394   22293483.223
        53.0004         49.0004
 -13656781.20149 -10589560.72848  21835259.9474   21835264.1084   21835259.447
        55.0004         51.0004
 -15722350.85149 -12172204.77648  21401155.2544   21401162.6914   21401155.414
        56.0004         52.0004
  -7177135.47047  -5556358.86846  23836866.9424   23836874.1844   23836867.386
        44.0004         40.0004
 26  2 22  0 59 30.0000000  0  9G08G16G04G27G28G09G31G26G18
  -7013313.33948  -5418383.07347  22862271.7784   22862280.3764   22862271.407
        50.0004         46.0004
 -24855755.06048 -19311699.38948  20007367.0064   20007370.2084   20007367.195
        53.0004         49.0004
 -15507744.89748 -12034111.78547  21571384.7734   21571389.4624   21571383.987
        50.0004         46.0004
 -19046948.89849 -14794525.57749  20851048.9064   20851055.4334   20851048.884
        58.0004         54.0004
  -3988427.64047  -3056349.14746  24379312.7904   24379320.3504   24379313.968
        44.0004         39.0004
  -7904165.00448  -6115313.01648  22288110.9304   22288117.1494   22288110.876
        53.0004         49.0004
 -13579094.77749 -10529025.92748  21850043.4154   21850047.4284   21850043.501
        55.0004         50.0004
 -15659779.13649 -12123447.64548  21413062.0714   21413069.7754   21413062.129
        56.0004         52.0004
  -7200065.61647  -5574226.49046  23832503.0624   23832508.9944   23832502.917
        44.0004         39.0004
 26  2 22  1  0  0.0000000  0  9G08G16G04G27G28G09G31G26G18
  -7123107.35848  -5503936.77347  22841378.6224   22841387.7854   22841378.850
        50.0004         46.0004
 -24845075.39348 -19303377.55548  20009399.1004   20009402.4284   20009399.573
        53.0004         49.0004
 -15481050.84648 -12013311.23947  21576464.0454   21576468.6734   21576463.887
        50.0004         46.0004
 -19119197.40449 -14850823.07349  20837300.4734   20837306.9614   20837300.202
        58.0004         54.0004
  -3887659.56047  -2977828.73746  24398489.5494   24398497.0124   24398489.255
        43.0004         39.0004
  -7931790.47448  -6136839.34248  22282854.0854   22282860.4204   22282853.935
        53.0004         49.0004
 -13501086.36549 -10468240.22148  21864887.8764   21864891.7504   21864887.320
        55.0004         50.0004
 -15596976.22849 -12074510.34648  21425013.1794   21425021.1004   21425013.206
        56.0004         52.0004
  -7222472.10947  -5591686.06146  23828239.8484   23828245.6384   23828239.456
        44.0004         40.0004
 26  2 22  1  0 30.0000000  0  9G08G16G04G27G28G09G31G26G18
  -7232660.37948  -5589302.68147  22820531.0654   22820539.8384   22820531.249
        50.0004         46.0004
 -24834001.07848 -19294748.20648  20011506.6144   20011510.1404   20011506.765
        53.0004         49.0004
 -15453756.44548 -11992042.88847  21581657.9274   21581663.1994   21581657.674
        50.0004         46.0004
 -19190933.78149 -14906721.49749  20823649.1604   20823656.0474   20823649.042
        58.0004         54.0004
  -3786732.12447  -2899184.15146  24417694.0264   24417702.0094   24417691.999
        43.0004         39.0004
  -7958813.90948  -6157896.55048  22277711.7584   22277718.4264   22277711.912
        53.0004         49.0004
 -13422756.96649 -10407204.39648  21879793.5844   21879797.6994   21879793.310
        55.0004         50.0004
 -15533943.09849 -12025393.65448  21437008.0654   21437015.7834   21437007.697
        56.0004         52.0004
  -7244353.55347  -5608736.50746  23824075.9654   23824081.5384   23824075.671
        44.0004         40.0004
 26  2 22  1  1  0.0000000  0  9G08G16G04G27G28G09G31G26G18
  -7341970.12748  -5674479.01647  22799730.1504   22799739.3454   22799730.064
        50.0004         46.0004
 -24822533.19248 -19285812.18548  20013688.9434   20013692.2324   20013688.988
        53.0004         49.0004
 -15425862.87048 -11970307.65547  21586966.5024   21586971.0224   21586965.935
        50.0004         46.0004
 -19262156.14849 -14962219.39549  20810096.0534   20810102.8084   20810096.064
        58.0004         54.0004
  -3685646.60447  -2820416.39046  24436929.9064   24436938.3394   24436929.046
        43.0004         38.0004
  -7985234.26649  -6178483.83848  22272683.7564   22272690.9904   22272683.820
        54.0004         49.0004
 -13344107.76449 -10345919.38148  21894760.0044   21894764.3384   21894759.967
        55.0004         50.0004
 -15470680.79549 -11976098.39148  21449046.5244   21449053.6734   21449046.729
        56.0004         52.0004
  -7265708.56247  -5625376.73546  23820011.9174   23820018.2344   23820011.280
        45.0004         40.0004
 26  2 22  1  1 30.0000000  0  9G08G16G04G27G28G09G31G26G18
  -7451034.39548  -5759464.05147  22778975.9224   22778984.7514   22778975.801
        50.0004         46.0004
 -24810672.43748 -19276570.03248  20015945.6194   20015949.2344   20015945.759
        53.0004         49.0004
 -15397371.35648 -11948106.48747  21592387.3894   21592392.9194   21592387.170
        50.0004         46.0004
 -19332862.76749 -15017315.41849  20796640.8284   20796647.7314   20796640.369
        58.0004         54.0004
  -3584404.40547  -2741526.55046  24456197.4224   24456204.8694   24456197.206
        43.0004         38.0004
  -8011050.83549  -6198600.63048  22267771.8754   22267778.1234   22267771.894
        54.0004         49.0004
 -13265139.67749 -10284385.88348  21909786.9214   21909791.5254   21909786.740
        55.0004         50.0004
 -15407190.39749 -11926625.39848  21461128.2504   21461135.9864   21461128.036
        56.0004         52.0004
  -7286535.90647  -5641605.81746  23816048.7904   23816054.5844   23816048.474
        45.0004         40.0004
 26  2 22  1  2  0.0000000  0  9G08G16G04G27G28G09G31G26G18
  -7559850.93248  -5844256.05147  22758268.8314   22758277.8234   22758268.444
        50.0004         46.0004
 -24798419.69148 -19267022.43048  20018277.3534   20018280.7784   20018277.582
        53.0004         49.0004
 -15368283.08648 -11925440.32547  21597923.1904   21597928.3624   21597922.898
        50.0004         46.0004
 -19403051.74549 -15072008.09149  20783284.4034   20783291.1594   20783284.148
        58.0004         54.0004
  -3483006.88947  -2662515.66146  24475491.5344   24475501.0754   24475492.156
        42.0004         38.0004
  -8036262.72949  -6218246.26048  22262974.2834   22262980.1594   22262974.423
        54.0004         49.0004
 -13185853.75149 -10222604.73048  21924875.0474   21924879.3174   21924874.268
        55.0004         50.0004
 -15343472.79449 -11876975.34048  21473253.5424   21473261.1654   21473253.853
        56.0004         52.0004
  -7306834.22147  -5657422.64946  23812186.3264   23812193.3484   23812185.405
        45.0004         40.0004
 26  2 22  1  2 30.0000000  0  9G08G16G04G27G28G09G31G26G18
  -7668417.33548  -5928853.14047  22737609.2814   22737617.9154   22737608.182
        50.0004         46.0004
 -24785775.92848 -19257170.14048  20020683.1714   20020686.8594   20020683.392
        53.0004         49.0004
 -15338599.33548 -11902310.14447  21603571.5014   21603576.6524   21603571.571
        50.0004         45.0004
 -19472721.24649 -15126295.97149  20770026.6424   20770033.5634   20770026.409
        58.0004         54.0004
  -3381455.27247  -2583384.69746  24494818.5194   24494824.9144   24494817.783
        42.0004         37.0004
  -8060869.17349  -6237420.10648  22258291.5424   22258297.6634   22258291.289
        54.0004         49.0004
 -13106251.10349 -10160576.76448  21940022.7224   21940027.2354   21940022.515
        55.0004         50.0004
 -15279529.08449 -11827149.10648  21485421.2984   21485428.7564   21485421.129
        56.0004         51.0004
  -7326602.26647  -5672826.26446  23808424.2054   23808430.6184   23808423.868
        44.0004         40.0004
 26  2 22  1  3  0.0000000  0  9G08G16G04G27G28G09G31G26G18
  -7776731.38948  -6013253.60347  22716997.8574   22717006.5514   22716997.971
        50.0004         46.0004
 -24772741.86848 -19247013.72148  20023163.6414   20023167.3644   20023164.134
        53.0004         49.0004
 -15308321.35748 -11878716.93647  21609333.6384   21609338.4944   21609333.390
        50.0004         46.0004
 -19541869.47049 -15180177.66549  20756868.4284   20756874.9064   20756868.095
        58.0004         54.0004
  -3279750.88847  -2504134.72146  24514171.3414   24514178.8834   24514169.382
        42.0004         37.0004
  -8084869.33948  -6256121.52648  22253724.2014   22253730.2494   22253723.912
        53.0004         49.0004
 -13026332.97649 -10098302.97948  21955231.1224   21955235.2354   21955230.537
        55.0004         50.0004
 -15215360.22749 -11777147.43948  21497632.8824   21497639.8494   21497632.851
        56.0004         51.0004
  -7345838.72647  -5687815.66646  23804763.8194   23804769.3014   23804763.221
        44.0004         40.0004
 26  2 22  1  3 30.0000000  0  9G08G16G04G27G28G09G31G26G18
  -7884790.82948  -6097455.65847  22696434.7334   22696443.1154   22696434.935
        50.0004         46.0004
 -24759318.41348 -19236553.88348  20025718.2244   20025721.5794   20025718.328
        53.0004         49.0004
 -15277450.41748 -11854661.68147  21615207.9224   21615212.8534   21615207.411
        50.0004         45.0004
 -19610494.72549 -15233651.85949  20743809.1474   20743815.7904   20743808.837
        58.0004         54.0004
  -3177895.17846  -2424766.81546  24533553.5164   24533560.9964   24533552.864
        41.0004         37.0004
  -8108262.52848  -6274349.97548  22249272.5564   22249278.0904   22249273.099
        53.0004         49.0004
 -12946100.31149 -10035784.09848  21970498.5614   21970502.6284   21970498.169
        55.0004         50.0004
 -15150967.22149 -11726971.10848  21509886.4654   21509893.7504   21509886.405
        56.0004         52.0004
  -7364542.42047  -5702389.94246  23801204.6024   23801211.0174   23801204.465
        44.0004         40.0004
 26  2 22  1  4  0.0000000  0  9G08G16G04G27G28G09G31G26G18
  -7992593.44848  -6181457.59347  22675920.4784   22675929.1424   22675920.483
        51.0004         46.0004
 -24745506.30648 -19225791.20048  20028346.8094   20028350.1124   20028347.097
        53.0004         49.0004
 -15245987.87148 -11830145.43647  21621195.5014   21621200.1344   21621194.990
        50.0004         46.0004
 -19678595.17349 -15286717.10949  20730850.4874   20730856.5264   20730850.657
        58.0004         54.0004
  -3075889.39546  -2345281.96146  24552964.0524   24552973.8394   24552965.658
        41.0004         36.0004
  -8131047.97948  -6292104.84848  22244936.5414   22244942.9434   22244936.603
        53.0004         49.0004
 -12865554.29449  -9973021.04248  21985826.1754   21985830.6564   21985825.469
        54.0004         50.0004
 -15086351.06449 -11676620.88848  21522182.1284   21522189.8914   21522181.760
        56.0004         51.0004
  -7382712.06747  -5716548.06146  23797746.6284   23797753.7774   23797746.682
        45.0004         40.0004
 26  2 22  1  4 30.0000000  0  9G08G16G04G27G28G09G31G26G18
  -8100136.89648  -6265257.56747  22655455.3634   22655464.2144   22655455.616
        51.0004         46.0004
 -24731306.54048 -19214726.43748  20031048.5584   20031051.8894   20031048.907
        53.0004         49.0004
 -15213935.00748 -11805169.20347  21627294.6704   21627299.6634   21627294.313
        50.0004         45.0004
 -19746169.05449 -15339372.04649  20717991.3304   20717997.7584   20717991.184
        58.0004         54.0004
  -2973734.89046  -2265681.23246  24572407.2704   24572413.9584   24572404.497
        41.0004         36.0004
  -8153225.01248  -6309385.63448  22240716.6134   22240722.1204   22240716.817
        53.0004         49.0004
 -12784696.10249  -9910014.73748  22001213.0784   22001217.6894   22001212.936
        54.0004         50.0004
 -15021512.75249 -11626097.56148  21534520.4254   21534528.1754   21534520.575
        56.0004         51.0004
  -7400346.47947  -5730289.13946  23794390.9894   23794397.7324   23794391.007
        45.0004         40.0004
 26  2 22  1  5  0.0000000  0  9G08G16G04G27G28G09G31G26G18
  -8207419.01548  -6348853.91747  22635040.0814   22635048.6884   22635040.590
        51.0004         46.0004
 -24716719.84048 -19203360.16848  20033824.3104   20033827.8524   20033824.643
        53.0004         49.0004
 -15181293.28848 -11779734.12247  21633505.8374   21633511.8434   21633505.999
        50.0004         46.0004
 -19813214.72749 -15391615.38149  20705232.9224   20705239.4084   20705233.012
        58.0004         54.0004
  -2871433.04846  -2185965.67646  24591872.3194   24591881.3884   24591872.260
        41.0004         36.0004
  -8174792.99148  -6326191.83048  22236612.2364   22236618.3754   22236611.622
        53.0004         49.0004
 -12703526.71249  -9846765.92348  22016659.3024   22016663.7684   22016659.159
        55.0004         50.0004
 -14956453.27849 -11575401.91248  21546901.3594   21546908.1784   21546901.124
        56.0004         51.0004
  -7417444.56447  -5743612.28346  23791137.0604   23791144.5114   23791137.729
        45.0004         40.0004
 26  2 22  1  5 30.0000000  0  9G08G16G04G27G28G09G31G26G18
  -8314437.47248  -6432244.81547  22614675.2584   22614684.4364   22614675.321
        51.0004         46.0004
 -24701747.17748 -19191693.14348  20036673.2784   20036676.6794   20036673.567
        53.0004         49.0004
 -15148064.04048 -11753841.22947  21639829.8904   21639834.6534   21639828.846
        50.0004         45.0004
 -19879730.41149 -15443445.73549  20692575.2404   20692581.8574   20692575.126
        58.0004         54.0004
  -2768985.14046  -2106136.32846  24611367.1454   24611372.2984   24611367.163
        41.0004         36.0004
  -8195751.18548  -6342522.87348  22232624.3144   22232629.9394   22232624.199
        53.0004         49.0004
 -12622047.27449  -9783275.50948  22032164.2944   22032168.6444   22032163.650
        54.0004         50.0004
 -14891173.59549 -11524534.67048  21559323.5544   21559330.8154   21559323.322
        56.0004         51.0004
  -7434005.07047  -5756516.54646  23787985.7204   23787992.8664   23787986.622
        45.0004         40.0004
 26  2 22  1  6  0.0000000  0  9G08G16G04G27G28G09G31G26G18
  -8421190.11648  -6515428.58447  22594361.0564   22594369.5364   22594361.572
        51.0004         46.0004
 -24686389.28348 -19179725.94548  20039596.0844   20039599.4384   20039596.164
        53.0004         49.0004
 -15114248.72248 -11727491.65447  21646263.6094   21646268.5184   21646263.714
        50.0004         45.0004
 -19945714.51049 -15494861.87549  20680019.0914   20680025.4874   20680019.326
        59.0004         54.0004
  -2666392.61646  -2026194.30046  24630889.4584   24630898.7354   24630889.468
        41.0004         36.0004
  -8216099.09348  -6358378.37748  22228751.9654   22228758.1274   22228752.366
        53.0004         49.0004
 -12540259.16049  -9719544.55448  22047728.0154   22047732.2654   22047727.395
        54.0004         50.0004
 -14825674.72049 -11473496.62848  21571787.5614   21571794.9334   21571787.602
        56.0004         51.0004
  -7450026.93947  -5769001.08646  23784936.9634   23784944.1624   23784937.539
        45.0004         40.0004
 26  2 22  1  6 30.0000000  0  9G08G16G04G27G28G09G31G26G18
  -8527674.65448  -6598403.43447  22574097.1774   22574105.9564   22574097.106
        51.0004         46.0004
 -24670647.22548 -19167459.39248  20042591.2394   20042595.0474   20042591.768
        53.0004         49.0004
 -15079848.76748 -11700686.51747  21652810.6914   21652815.4034   21652810.016
        50.0004         45.0004
 -20011165.30549 -15545862.44649  20667564.0524   20667570.4004   20667563.770
        59.0004         54.0004
  -2563656.82946  -1946140.63246  24650438.8224   24650450.1454   24650439.008
        41.0004         36.0004
  -8235836.07348  -6373757.83848  22224995.8944   22225002.0294   22224996.078
        53.0004         49.0004
 -12458163.27749  -9655573.78348  22063350.4184   22063354.4954   22063350.204
        54.0004         50.0004
 -14759957.60649 -11422288.51348  21584292.9744   21584300.2044   21584293.151
        56.0004         51.0004
  -7465509.05847  -5781065.04746  23781992.2014   23781998.9874   23781991.607
        45.0004         40.0004
 26  2 22  1  7  0.0000000  0  9G08G16G04G27G28G09G31G26G18
  -8633888.82748  -6681167.62047  22553885.3924   22553894.0134   22553885.782
        51.0004         47.0004
 -24654521.71048 -19154894.04448  20045660.1034   20045663.5924   20045660.298
        53.0004         49.0004
 -15044865.58348 -11673426.92647  21659467.3834   21659472.8064   21659467.187
        50.0004         45.0004
 -20076081.11549 -15596446.14649  20655210.8684   20655217.3414   20655210.762
        59.0004         54.0004
  -2460779.03246  -1865976.32646  24670018.5314   24670027.6344   24670016.868
        41.0004         37.0004
  -8254961.49949  -6388660.75948  22221356.8214   22221362.8054   22221356.282
        54.0004         49.0004
 -12375760.72149  -9591364.02648  22079030.8194   22079035.2564   22079030.830
        54.0004         50.0004
 -14694023.15749 -11370911.04448  21596840.0534   21596847.2604   21596840.281
        56.0004         51.0004
  -7480450.32247  -5792707.57446  23779148.4474   23779155.9184   23779147.965
        45.0004         40.0004
 26  2 22  1  7 30.0000000  0  9G08G16G04G27G28G09G31G26G18
  -8739830.44648  -6763719.41147  22533725.2814   22533733.8864   22533725.129
        51.0004         47.0004
 -24638013.80948 -19142030.74148  20048801.5184   20048804.7954   20048801.789
        53.0004         49.0004
 -15009300.73948 -11645714.07647  21666235.5524   21666240.1334   21666235.030
        50.0004         45.0004
 -20140460.39549 -15646611.76349  20642960.0734   20642966.4694   20642959.865
        59.0004         54.0004
  -2357760.74747  -1785702.53546  24689621.9144   24689628.8214   24689620.937
        42.0004         37.0004
  -8273474.90549  -6403086.78348  22217833.4954   22217840.0274   22217832.854
        54.0004         49.0004
 -12293052.53249  -9526916.13348  22094769.7664   22094774.7454   22094769.606
        54.0004         50.0004
 -14627872.48149 -11319365.08248  21609427.7254   21609435.8294   21609427.414
        56.0004         51.0004
  -7494849.68047  -5803927.83446  23776408.2844   23776414.7624   23776407.902
        45.0004         40.0004
 26  2 22  1  8  0.0000000  0  9G08G16G04G27G28G09G31G26G18
  -8845497.28448  -6846057.07547  22513617.4464   22513626.1344   22513617.442
        51.0004         47.0004
 -24621124.21048 -19128870.00948  20052015.8284   20052019.1494   20052015.843
        53.0004         49.0004
 -14973155.74748 -11617549.18147  21673113.7954   21673118.6344   21673112.996
        50.0004         45.0004
 -20204301.47049 -15696357.99949  20630811.3224   20630817.8364   20630811.131
        59.0004         54.0004
  -2254603.25247  -1705320.24046  24709251.3534   24709260.6704   24709250.968
        42.0004         37.0004
  -8291375.74648  -6417035.48748  22214427.1734   22214433.2024   22214426.805
        53.0004         49.0004
 -12210040.43749  -9462231.44648  22110566.4204   22110571.1064   22110566.468
        54.0004         49.0004
 -14561506.43549 -11267651.30248  21622057.0274   21622064.1244   21622057.071
        56.0004         51.0004
  -7508706.10947  -5814725.03846  23773770.6614   23773777.6494   23773771.075
        45.0004         40.0004
 26  2 22  1  8 30.0000000  0  9G08G16G04G27G28G09G31G26G18
  -8950887.08248  -6928178.86747  22493562.5794   22493570.8934   22493561.472
        52.0004         47.0004
 -24603853.86648 -19115412.59048  20055302.1314   20055305.4564   20055302.287
        53.0004         49.0004
 -14936432.11548 -11588933.38047  21680101.1804   21680107.3394   21680100.696
        50.0004         45.0004
 -20267602.74949 -15745683.60949  20618765.4884   20618772.0874   20618765.347
        59.0004         54.0004
  -2151307.98447  -1624830.62646  24728908.1234   24728916.2404   24728907.792
        42.0004         38.0004
  -8308663.51048  -6430506.47448  22211137.2224   22211143.6264   22211137.280
        53.0004         49.0004
 -12126725.46349  -9397310.74048  22126421.0214   22126425.1014   22126420.683
        54.0004         49.0004
 -14494926.03249 -11215770.48748  21634726.5754   21634734.4174   21634726.775
        56.0004         51.0004
  -7522018.54547  -5825098.34446  23771237.9904   23771243.8194   23771237.801
        44.0004         40.0004
 26  2 22  1  9  0.0000000  0  9G08G16G04G27G28G09G31G26G18
  -9055997.67148  -7010083.08247  22473560.4414   22473568.9164   22473559.820
        52.0004         47.0004
 -24586203.71748 -19101659.22148  20058660.1974   20058664.2554   20058660.895
        53.0004         49.0004
 -14899131.39948 -11559867.91847  21687199.6654   21687205.6814   21687199.386
        50.0004         45.0004
 -20330362.71349 -15794587.41949  20606822.7064   20606829.0594   20606822.387
        59.0004         54.0004
  -2047876.25147  -1544234.64146  24748589.8784   24748599.4474   24748589.231
        43.0004         38.0004
  -8325337.74748  -6443499.38348  22207964.2354   22207970.7744   22207964.136
        53.0004         49.0004
 -12043108.65249  -9332154.84948  22142333.1294   22142336.6594   22142332.733
        54.0004         49.0004
 -14428132.26549 -11163723.43948  21647437.3594   21647445.2184   21647437.202
        56.0004         51.0004
  -7534786.02747  -5835047.02046  23768807.5774   23768815.1294   23768807.608
        44.0004         40.0004
 26  2 22  1  9 30.0000000  0  9G08G16G04G27G28G09G31G26G18
  -9160826.82048  -7091767.98247  22453611.9474   22453620.4364   22453611.112
        52.0004         47.0004
 -24568174.50748 -19087610.47848  20062091.0954   20062094.7734   20062091.535
        53.0004         49.0004
 -14861255.19048 -11530354.00947  21694407.4234   21694411.8724   21694406.786
        50.0004         45.0004
 -20392579.73949 -15843068.16249  20594983.1104   20594989.5964   20594982.968
        59.0004         54.0004
  -1944309.42047  -1463533.42546  24768299.2854   24768308.0924   24768299.172
        43.0004         38.0004
  -8341398.02048  -6456013.87948  22204908.0214   22204913.9724   22204907.626
        53.0004         49.0004
 -11959191.15449  -9266764.63848  22158302.3204   22158306.0614   22158302.087
        54.0004         49.0004
 -14361126.01149 -11111510.79948  21660187.8914   21660195.7994   21660187.638
        56.0004         51.0004
  -7547007.54747  -5844570.27046  23766481.8804   23766488.3024   23766481.702
        44.0004         40.0004
 26  2 22  1 10  0.0000000  0  9G08G16G04G27G28G09G31G26G18
  -9265372.38148  -7173231.91747  22433717.8304   22433725.7874   22433718.121
        52.0004         47.0004
 -24549767.43948 -19073267.30948  20065594.1444   20065597.8034   20065594.605
        53.0004         49.0004
 -14822805.15548 -11500392.97047  21701724.1324   21701729.0314   21701724.163
        50.0004         45.0004
 -20454252.39249 -15891124.71749  20583246.9824   20583253.3564   20583247.113
        59.0004         54.0004
  -1840608.99547  -1382728.10346  24788033.4074   24788040.5024   24788032.872
        43.0004         38.0004
  -8356843.93749  -6468049.67048  22201969.4224   22201975.2544   22201968.737
        54.0004         49.0004
 -11874974.19049  -9201141.08448  22174328.0634   22174332.0244   22174327.929
        54.0004         49.0004
 -14293908.24849 -11059133.33248  21672979.0574   21672986.6214   21672978.933
        55.0004         51.0004
  -7558682.21647  -5853667.39146  23764260.8314   23764267.8064   23764260.486
        44.0004         40.0004
 26  2 22  1 10 30.0000000  0  9G08G16G04G27G28G09G31G26G18
  -9369632.18748  -7254473.17847  22413877.8224   22413885.6104   22413878.192
        52.0004         47.0004
 -24530983.14948 -19058630.19948  20069169.1254   20069171.9324   20069168.975
        53.0004         49.0004
 -14783782.94848 -11469986.07947  21709150.2804   21709154.9734   21709149.717
        50.0004         45.0004
 -20515379.16249 -15938755.91649  20571615.1164   20571621.3624   20571615.263
        59.0004         54.0004
  -1736776.35047  -1301819.71546  24807792.0244   24807799.8824   24807791.069
        43.0004         38.0004
  -8371675.16249  -6479606.46848  22199146.5424   22199153.0294   22199146.156
        54.0004         49.0004
 -11790459.23749  -9135285.33548  22190410.4234   22190414.9594   22190410.109
        54.0004         49.0004
 -14226479.98249 -11006591.84348  21685810.7844   21685818.0024   21685810.769
        55.0004         51.0004
  -7569809.15747  -5862337.69446  23762144.1544   23762150.0824   23762143.511
        44.0004         40.0004
 26  2 22  1 11  0.0000000  0  9G08G16G04G27G28G09G31G26G18
  -9473603.88248  -7335489.93747  22394092.2844   22394100.2624   22394092.551
        52.0004         47.0004
 -24511822.38548 -19043699.73048  20072814.8434   20072818.2914   20072815.169
        53.0004         49.0004
 -14744190.04348 -11439134.49247  21716684.4314   21716689.4994   21716683.901
        50.0004         45.0004
 -20575958.33549 -15985960.40549  20560087.2744   20560093.4404   20560087.594
        59.0004         54.0004
  -1632812.68047  -1220809.26146  24827575.5224   24827584.4814   24827574.730
        43.0004         38.0004
  -8385891.14348  -6490683.85648  22196441.2964   22196447.8944   22196441.343
        53.0004         49.0004
 -11705647.03749  -9069197.97548  22206550.2304   22206554.3844   22206550.590
        54.0004         49.0004
 -14158842.00649 -10953886.95448  21698681.6914   21698689.1824   21698681.343
        55.0004         51.0004
  -7580387.24947  -5870580.33246  23760130.1214   23760136.1574   23760130.267
        45.0004         40.0004
 26  2 22  1 11 30.0000000  0  9G08G16G04G27G28G09G31G26G18
  -9577285.48748  -7416280.64847  22374361.7814   22374370.0004   22374361.791
        52.0004         47.0004
 -24492286.56648 -19028477.01748  20076532.3224   20076536.0104   20076532.534
        53.0004         49.0004
 -14704028.34848 -11407839.69747  21724327.0154   21724332.0924   21724326.605
        50.0004         45.0004
 -20635988.72049 -16032737.27249  20548663.7494   20548670.0024   20548663.459
        59.0004         54.0004
  -1528719.68547  -1139698.03646  24847383.8214   24847391.8814   24847381.195
        42.0004         37.0004
  -8399491.75949  -6501281.74248  22193853.4814   22193859.4674   22193853.138
        54.0004         49.0004
 -11620538.99849  -9002880.08748  22222745.5484   22222749.8424   22222745.315
        54.0004         49.0004
 -14090995.46949 -10901019.56048  21711592.2184   21711600.0154   21711591.928
        55.0004         51.0004
  -7590415.84247  -5878394.77646  23758222.7414   23758228.3954   23758221.884
        45.0004         40.0004
 26  2 22  1 12  0.0000000  0  9G08G16G04G27G28G09G31G26G18
  -9680674.71948  -7496843.55347  22354687.1024   22354695.6324   22354687.134
        52.0004         47.0004
 -24472376.04448 -19012962.32448  20080321.3624   20080324.2764   20080321.577
        53.0004         49.0004
 -14663299.41148 -11376102.88947  21732077.5554   21732082.6794   21732076.569
        50.0004         45.0004
 -20695468.66149 -16079085.22249  20537345.0304   20537351.3304   20537345.225
        59.0004         54.0004
  -1424498.53956  -1058486.97356  24867215.6695   24867226.2075   24867212.527
        41.0004         36.0004
  -8412476.57549  -6511399.78548  22191382.5074   22191388.6604   22191382.398
        54.0004         49.0004
 -11535136.27449  -8936332.57548  22238996.8924   22239001.5154   22238996.566
        54.0004         49.0004
 -14022941.15749 -10847990.24448  21724542.4234   21724550.5124   21724542.376
        55.0004         51.0004
  -7599893.90547  -5885780.24746  23756419.2734   23756424.5624   23756418.918
        45.0004         40.0004
 26  2 22  1 12 30.0000000  0  9G08G16G04G27G28G09G31G26G18
  -9783769.49348  -7577177.00747  22335069.2854   22335077.1764   22335069.936
        52.0004         47.0004
 -24452092.15148 -18997156.69848  20084181.4164   20084184.7074   20084181.735
        53.0004         49.0004
 -14622005.06248 -11343925.50347  21739935.5384   21739940.4564   21739935.042
        50.0004         45.0004
 -20754396.90349 -16125003.28049  20526131.3054   20526137.7204   20526131.303
        59.0004         54.0004
  -1320150.78046   -977177.29246  24887073.0964   24887082.3724   24887073.404
        41.0004         36.0004
  -8424845.43348  -6521037.86848  22189028.6824   22189034.7074   22189028.867
        53.0004         49.0004
 -11449440.34449  -8869556.58848  22255304.4504   22255308.7254   22255303.866
        54.0004         49.0004
 -13954680.06749 -10794799.82848  21737532.4464   21737539.9534   21737532.092
        55.0004         51.0004
  -7608820.82247  -5892736.25046  23754719.4214   23754724.5694   23754720.773
        44.0004         40.0004
 26  2 22  1 13  0.0000000  0  9G08G16G04G27G28G09G31G26G18
  -9886567.55348  -7657279.25747  22315507.1444   22315514.9034   22315507.518
        52.0004         47.0004
 -24431435.64448 -18981060.72848  20088111.8584   20088115.5374   20088112.234
        53.0004         49.0004
 -14580147.00348 -11311308.86647  21747901.0134   21747905.8064   21747900.138
        50.0004         45.0004
 -20812771.91949 -16170490.26249  20515022.8874   20515029.0704   20515022.602
        59.0004         54.0004
  -1215677.80546   -895769.99245  24906954.3214   24906963.5484   24906954.617
        41.0004         35.0004
  -8436597.98348  -6530195.70048  22186792.4034   22186798.5774   22186792.287
        53.0004         49.0004
 -11363452.24349  -8802552.94148  22271667.1954   22271672.2284   22271666.738
        54.0004         49.0004
 -13886213.14949 -10741449.01048  21750561.6014   21750569.0384   21750561.913
        55.0004         51.0004
  -7617195.65247  -5899262.05046  23753125.8594   23753131.2374   23753126.798
        44.0004         39.0004
 26  2 22  1 13 30.0000000  0  9G08G16G04G27G28G09G31G26G18
  -9989066.81048  -7737148.68147  22296001.9004   22296010.1904   22296002.012
        52.0004         47.0004
 -24410407.40348 -18964675.09048  20092113.5354   20092117.1864   20092113.976
        53.0004         49.0004
 -14537726.98948 -11278254.34147  21755973.1694   21755978.2854   21755973.075
        50.0004         45.0004
 -20870592.35649 -16215545.10049  20504019.7814   20504026.3264   20504019.620
        59.0004         55.0004
  -1111081.07056   -814266.28355  24926858.2445   24926867.8945   24926857.593
        40.0004         35.0004
  -8447734.02048  -6538873.13948  22184673.4034   22184679.5014   22184673.232
        53.0004         49.0004
 -11277173.11749  -8735322.52048  22288085.8784   22288090.5944   22288085.595
        54.0004         49.0004
 -13817541.27449 -10687938.48848  21763629.1214   21763637.0014   21763628.958
        55.0004         51.0004
  -7625017.63047  -5905357.04146  23751637.8474   23751643.1044   23751637.065
        44.0004         39.0004
 26  2 22  1 14  0.0000000  0  9G08G16G04G27G28G09G31G26G18
 -10091265.12648  -7816783.60747  22276554.5824   22276562.3884   22276554.904
        52.0004         47.0004
 -24389008.33048 -18948000.49748  20096185.8454   20096189.1564   20096185.930
        53.0004         49.0004
 -14494746.92848 -11244763.41647  21764151.9224   21764156.9964   21764151.507
        50.0004         45.0004
 -20927856.82849 -16260166.72049  20493122.7954   20493129.1154   20493122.636
        59.0004         55.0004
  -1006361.92246   -732667.20146  24946786.7274   24946795.1744   24946785.045
        40.0004         36.0004
  -8458253.40348  -6547070.08448  22182671.1904   22182677.9034   22182671.722
        53.0004         49.0004
 -11190604.73449  -8667866.73148  22304559.3714   22304564.4274   22304559.086
        54.0004         49.0004
 -13748665.43149 -10634269.02948  21776735.6244   21776743.5004   21776735.117
        55.0004         51.0004
  -7632286.03447  -5911020.69546  23750253.8714   23750260.4334   23750253.618
        44.0004         40.0004
 26  2 22  1 14 30.0000000  0  9G08G16G04G27G28G09G31G26G18
 -10193160.26048  -7896182.28847  22257164.0314   22257172.1474   22257164.577
        52.0004         47.0004
 -24367239.31848 -18931037.63748  20100327.9244   20100331.4734   20100328.672
        53.0004         49.0004
 -14451208.43148 -11210837.34247  21772436.5724   21772441.9454   21772436.837
        50.0004         45.0004
 -20984563.91649 -16304354.02249  20482331.6204   20482338.1204   20482331.555
        59.0004         54.0004
   -901521.80146   -650973.82846  24966736.2024   24966744.1234   24966735.691
        41.0004         37.0004
  -8468155.80649  -6554786.25648  22180787.2594   22180793.7684   22180787.034
        54.0004         49.0004
 -11103748.06349  -8600186.26848  22321087.7024   22321092.2924   22321087.349
        54.0004         49.0004
 -13679586.42249 -10580441.25448  21789881.0694   21789888.9164   21789880.692
        55.0004         51.0004
  -7639000.00447  -5916252.31346  23748976.6674   23748983.0184   23748976.570
        45.0004         40.0004
 26  2 22  1 15  0.0000000  0  9G08G16G04G27G28G09G31G26G18
 -10294750.17448  -7975343.15548  22237832.2524   22237840.7414   22237832.139
        52.0004         48.0004
 -24345101.37448 -18913787.29348  20104541.3174   20104544.3534   20104541.344
        53.0004         49.0004
 -14407113.53348 -11176477.71047  21780828.7974   21780832.9364   21780828.237
        50.0004         45.0004
 -21040712.42649 -16348106.06849  20471646.9664   20471653.2824   20471647.013
        59.0004         54.0004
   -796562.24146   -569187.38946  24986710.7774   24986718.9524   24986709.108
        41.0004         36.0004
  -8477441.26249  -6562021.68948  22179020.2384   22179026.7124   22179020.210
        54.0004         49.0004
 -11016604.05249  -8532281.90048  22337670.0414   22337675.0864   22337669.160
        54.0004         49.0004
 -13610305.29949 -10526456.00348  21803064.9954   21803072.6414   21803065.391
        55.0004         51.0004
  -7645159.01147  -5921051.48646  23747804.3544   23747811.0494   23747804.824
        45.0004         40.0004
 26  2 22  1 15 30.0000000  0  9G08G16G04G27G28G09G31G26G18
 -10396032.72248  -8054264.51148  22218559.0704   22218566.5904   22218559.035
        52.0004         48.0004
 -24322595.49348 -18896250.25348  20108823.7884   20108827.3174   20108824.122
        53.0004         49.0004
 -14362463.98248 -11141685.88147  21789324.9424   21789329.1174   21789323.770
        50.0004         45.0004
 -21096300.94049 -16391421.75549  20461068.8744   20461075.2704   20461068.701
        59.0004         55.0004
   -691484.50046   -487308.86145  25006703.6824   25006715.9994   25006706.511
        40.0004         35.0004
  -8486109.57449  -6568776.24548  22177370.6414   22177376.7004   22177370.930
        54.0004         49.0004
 -10929174.23548  -8464154.82948  22354307.4044   22354313.0354   22354306.910
        53.0004         49.0004
 -13540822.91149 -10472313.92448  21816287.1614   21816294.7784   21816287.011
        55.0004         51.0004
  -7650762.24347  -5925417.61846  23746738.4204   23746744.4504   23746738.560
        45.0004         40.0004
 26  2 22  1 16  0.0000000  0  9G08G16G04G27G28G09G31G26G18
 -10497005.73848  -8132944.68448  22199344.2814   22199352.2814   22199343.440
        52.0004         48.0004
 -24299722.34648 -18878427.02748  20113176.1864   20113179.4564   20113176.552
        53.0004         49.0004
 -14317261.73148 -11106463.37947  21797926.2524   21797931.4364   21797926.438
        50.0004         45.0004
 -21151328.17649 -16434300.08449  20450597.6214   20450603.7924   20450597.571
        59.0004         55.0004
   -586290.08246   -405339.42145  25026724.0284   25026731.7364   25026724.319
        40.0004         35.0004
  -8494160.66649  -6575049.84048  22175839.3154   22175845.2444   22175838.760
        54.0004         49.0004
 -10841460.03548  -8395806.16948  22370999.1254   22371004.5844   22370998.790
        53.0004         49.0004
 -13471140.16049 -10418015.70948  21829547.5054   21829554.9284   21829547.326
        55.0004         51.0004
  -7655809.10947  -5929350.19646  23745777.2604   23745782.9854   23745777.758
        45.0004         40.0004
 26  2 22  1 16 30.0000000  0  9G08G16G04G27G28G09G31G26G18
 -10597667.13548  -8211382.04348  22180188.6474   22180196.7344   22180187.891
        53.0004         48.0004
 -24276483.09648 -18860318.53148  20117598.5164   20117602.0244   20117598.861
        53.0004         49.0004
 -14271508.63648 -11070811.64147  21806633.0154   21806637.7994   21806632.732
        50.0004         45.0004
 -21205792.86949 -16476740.05949  20440233.2164   20440239.4274   20440233.180
        59.0004         55.0004
   -480980.50146   -323280.18145  25046763.3454   25046770.8704   25046763.992
        39.0004         34.0004
  -8501594.45149  -6580842.40948  22174424.6184   22174430.5864   22174424.215
        54.0004         49.0004
 -10753462.83748  -8327236.98948  22387744.9164   22387749.1394   22387744.509
        53.0004         49.0004
 -13401257.99449 -10363562.10848  21842844.9804   21842852.6674   21842844.142
        55.0004         50.0004
  -7660298.94747  -5932848.73646  23744922.3744   23744929.6154   23744922.864
        44.0004         40.0004
 26  2 22  1 17  0.0000000  0  9G08G16G04G27G28G09G31G26G18
 -10698014.83948  -8289574.96348  22161093.3174   22161100.9344   22161093.111
        53.0004         48.0004
 -24252878.51748 -18841925.36748  20122090.2924   20122093.3464   20122090.180
        53.0004         49.0004
 -14225206.68148 -11034732.22247  21815443.8224   21815449.7834   21815444.098
        50.0004         45.0004
 -21259693.85049 -16518740.79449  20429976.2354   20429982.3894   20429976.149
        59.0004         55.0004
   -375557.17446   -241132.32745  25066825.4724   25066834.7374   25066824.146
        39.0004         35.0004
  -8508410.95449  -6586153.98948  22173127.4614   22173133.2714   22173126.597
        54.0004         49.0004
 -10665183.58248  -8258448.01748  22404544.2204   22404548.5684   22404543.946
        53.0004         49.0004
 -13331177.28249 -10308953.79548  21856181.5044   21856188.6614   21856181.089
        55.0004         50.0004
  -7664231.09847  -5935912.70646  23744173.4754   23744181.8284   23744173.281
        44.0004         40.0004
 26  2 22  1 17 30.0000000  0  9G08G16G04G27G28G09G31G26G18
 -10798046.66248  -8367521.75748  22142057.8034   22142066.0554   22142057.704
        53.0004         48.0004
 -24228909.54648 -18823248.25348  20126651.5454   20126654.7394   20126651.932
        53.0004         49.0004
 -14178357.71648 -10998226.56147  21824358.5944   21824363.5454   21824358.704
        50.0004         45.0004
 -21313029.75749 -16560301.20749  20419826.5734   20419833.0534   20419826.104
        59.0004         55.0004
   -270021.43146   -158896.87845  25086909.8264   25086916.2584   25086907.865
        40.0004         35.0004
  -8514610.08049  -6590984.48748  22171947.6074   22171953.4774   22171947.805
        54.0004         49.0004
 -10576623.50048  -8189440.21648  22421396.5044   22421401.1804   22421395.861
        53.0004         49.0004
 -13260898.89149 -10254191.43848  21869555.1044   21869562.6414   21869554.921
        55.0004         50.0004
  -7667604.93547  -5938541.65746  23743532.5704   23743540.2814   23743531.701
        44.0004         40.0004
 26  2 22  1 18  0.0000000  0  9G08G16G04G27G28G09G31G26G18
 -10897760.56148  -8445220.81048  22123083.0924   22123090.8644   22123082.872
        53.0004         48.0004
 -24204577.14748 -18804287.95548  20131281.8774   20131284.7254   20131282.096
        53.0004         49.0004
 -14130963.79248 -10961296.25947  21833378.7224   21833383.1464   21833377.732
        50.0004         45.0004
 -21365799.45449 -16601420.41549  20409784.7834   20409791.2554   20409784.799
        59.0004         55.0004
   -164374.83646    -76575.08846  25107013.2924   25107022.5664   25107012.848
        41.0004         36.0004
  -8520191.85749  -6595333.94248  22170885.6074   22170891.4154   22170885.980
        54.0004         49.0004
 -10487784.12648  -8120214.79048  22438302.0344   22438306.5804   22438301.903
        53.0004         49.0004
 -13190423.77649 -10199275.80448  21882966.4424   21882973.6824   21882966.624
        55.0004         50.0004
  -7670419.95947  -5940735.15746  23742996.7074   23743004.2134   23742996.476
        44.0004         40.0004
 26  2 22  1 18 30.0000000  0  9G08G16G04G27G28G09G31G26G18
 -10997154.44948  -8522670.50048  22104168.9174   22104176.9554   22104169.507
        53.0004         48.0004
 -24179882.44848 -18785045.33948  20135980.6424   20135984.3624   20135981.221
        53.0004         49.0004
 -14083026.89248 -10923942.84947  21842500.3074   21842504.8994   21842499.637
        50.0004         45.0004
 -21418001.77649 -16642097.51249  20399851.0694   20399857.3254   20399850.946
        59.0004         55.0004
    -58618.85246      5831.86946  25127136.8514   25127147.0504   25127137.182
        41.0004         36.0004
  -8525156.41449  -6599202.45048  22169940.9464   22169946.7974   22169940.687
        54.0004         49.0004
 -10398666.62948  -8050772.64048  22455260.5044   22455265.7374   22455260.182
        53.0004         49.0004
 -13119752.82049 -10144207.56348  21896414.2304   21896421.6344   21896413.766
        55.0004         50.0004
  -7672675.63847  -5942492.79746  23742567.3794   23742574.0184   23742567.610
        45.0004         40.0004
 26  2 22  1 19  0.0000000  0  9G08G16G04G27G28G09G31G26G18
 -11096226.26548  -8599869.22248  22085315.7824   22085323.7374   22085315.979
        53.0004         48.0004
 -24154826.13948 -18765520.95448  20140749.1064   20140752.4644   20140749.556
        53.0004         49.0004
 -14034549.07648 -10886167.94447  21851724.8684   21851729.9844   21851723.995
        50.0004         45.0004
 -21469635.56249 -16682331.59949  20390025.2684   20390031.6504   20390025.283
        59.0004         55.0004
     47245.07246     88323.02446  25147281.7584   25147291.6644   25147282.100
        41.0004         36.0004
  -8529503.78949  -6602590.02148  22169113.3354   22169119.6854   22169113.868
        54.0004         49.0004
 -10309272.51348  -7981114.95048  22472271.9404   22472276.3704   22472271.462
        53.0004         49.0004
 -13048886.93549 -10088987.43548  21909899.3414   21909907.1344   21909899.221
        55.0004         50.0004
  -7674371.45447  -5943814.19846  23742245.2054   23742252.2464   23742244.472
        45.0004         40.0004
 26  2 22  1 19 30.0000000  0  9G08G16G04G27G28G09G31G26G18
 -11194973.83448  -8676815.30148  22066525.0644   22066532.7234   22066524.934
        53.0004         48.0004
 -24129409.24148 -18745715.59048  20145586.1094   20145589.2994   20145586.281
        53.0004         49.0004
 -13985532.26048 -10847973.04447  21861052.7074   21861057.6754   21861052.007
        50.0004         45.0004
 -21520699.58449 -16722121.71649  20380308.3464   20380314.6994   20380308.029
        59.0004         55.0004
    153215.63646    170897.26945  25167446.7434   25167460.2304   25167447.326
        40.0004         35.0004
  -8533233.98249  -6605496.67948  22168403.4104   22168409.7494   22168403.524
        54.0004         49.0004
 -10219603.05248  -7911242.68548  22489335.4314   22489340.4364   22489335.110
        53.0004         49.0004
 -12977826.89749 -10033616.02348  21923421.4054   21923429.3834   21923421.329
        55.0004         50.0004
  -7675506.84047  -5944698.87446  23742028.5514   23742036.0264   23742028.124
        45.0004         40.0004
 26  2 22  1 20  0.0000000  0  9G08G16G04G27G28G09G31G26G18
 -11293395.20848  -8753507.19848  22047795.7304   22047803.7744   22047795.733
        53.0004         48.0004
 -24103632.85148 -18725630.11448  20150491.0484   20150494.4934   20150491.200
        53.0004         49.0004
 -13935978.54948 -10809359.79147  21870482.1924   21870488.0404   21870482.093
        50.0004         45.0004
 -21571192.79549 -16761467.04249  20370699.4154   20370705.9264   20370699.553
        59.0004         55.0004
    259291.17246    253553.28245  25187633.6734   25187644.4004   25187631.064
        40.0004         35.0004
  -8536347.20649  -6607922.57448  22167810.8054   22167816.8404   22167810.481
        54.0004         49.0004
 -10129659.65348  -7841156.99348  22506451.3404   22506455.7244   22506451.011
        53.0004         49.0004
 -12906573.69949  -9978094.09548  21936980.6364   21936988.5314   21936980.060
        55.0004         50.0004
  -7676081.36647  -5945146.51346  23741919.9004   23741925.4684   23741919.820
        45.0004         40.0004
 26  2 22  1 20 30.0000000  0  9G08G16G04G27G28G09G31G26G18
 -11391488.29948  -8829943.28648  22029129.1624   22029137.1754   22029129.506
        53.0004         48.0004
 -24077497.42748 -18705264.86648  20155464.4054   20155467.7274   20155464.732
        53.0004         49.0004
 -13885890.03348 -10770329.79147  21880013.2924   21880019.2424   21880013.403
        50.0004         45.0004
 -21621114.08949 -16800366.72149  20361199.9064   20361206.2334   20361199.543
        59.0004         55.0004
    365470.30256    336289.97655  25207838.2615   25207846.7635   25207840.318
        40.0004         35.0004
  -8538843.65349  -6609867.87448  22167335.4224   22167341.4264   22167334.995
        54.0004         49.0004
 -10039443.17648  -7770858.49448  22523618.7514   22523622.8414   22523618.112
        53.0004         48.0004
 -12835128.18249  -9922422.29748  21950576.8754   21950584.2254   21950577.231
        55.0004         50.0004
  -7676094.57447  -5945156.78346  23741917.6084   23741923.0414   23741917.021
        45.0004         40.0004
 26  2 22  1 21  0.0000000  0  8G08G16G04G27G09G31G26G18
 -11489251.10948  -8906122.01448  22010525.1544   22010533.4404   22010525.264
        53.0004         48.0004
 -24051004.31548 -18684620.89948  20160505.7884   20160509.2204   20160506.219
        53.0004         49.0004
 -13835268.86148 -10730884.74547  21889646.2924   21889651.6884   21889646.091
        49.0004         45.0004
 -21670462.39249 -16838819.91749  20351809.1764   20351815.4904   20351809.420
        59.0004         55.0004
  -8540723.47149  -6611332.67948  22166977.5804   22166984.2264   22166977.254
        54.0004         49.0004
  -9948955.79348  -7700348.87748  22540837.8674   22540842.9774   22540837.376
        53.0004         49.0004
 -12763491.29749  -9866601.40848  21964208.6824   21964216.1734   21964209.048
        54.0004         50.0004
  -7675546.07247  -5944729.35146  23742022.0844   23742027.3414   23742021.775
        45.0004         40.0004
 26  2 22  1 21 30.0000000  0  8G08G16G04G27G09G31G26G18
 -11586681.46848  -8982041.69948  21991984.9834   21991992.7314   21991984.503
        53.0004         49.0004
 -24024154.31748 -18663698.83348  20165615.0634   20165618.5064   20165615.436
        53.0004         49.0004
 -13784117.02948 -10691026.19247  21899380.3254   21899385.7924   21899379.806
        50.0004         45.0004
 -21719236.59449 -16876825.76449  20342527.6334   20342534.1294   20342527.576
        59.0004         55.0004
  -8541986.82649  -6612317.13448  22166737.4184   22166743.6274   22166737.282
        54.0004         49.0004
  -9858198.19848  -7629628.72248  22558108.7584   22558113.3594   22558108.362
        53.0004         49.0004
 -12691663.76949  -9810631.95648  21977876.8444   21977884.4654   21977877.118
        54.0004         50.0004
  -7674435.33747  -5943863.81746  23742233.5214   23742239.5874   23742233.568
        45.0004         40.0004
 26  2 22  1 22  0.0000000  0  8G08G16G04G27G09G31G26G18
 -11683777.41448  -9057700.80248  21973508.0114   21973515.8144   21973508.108
        53.0004         49.0004
 -23996948.45848 -18642499.48448  20170792.4194   20170795.7154   20170792.544
        53.0004         49.0004
 -13732436.76248 -10650755.87947  21909214.9294   21909220.4134   21909214.744
        50.0004         45.0004
 -21767435.72449 -16914383.50049  20333355.7624   20333362.1124   20333355.870
        59.0004         55.0004
  -8542633.99349  -6612821.43148  22166614.4204   22166620.8984   22166614.053
        54.0004         49.0004
  -9767171.84248  -7558699.13748  22575430.4754   22575435.0894   22575429.602
        53.0004         48.0004
 -12619646.56549  -9754514.69948  21991581.5664   21991589.2294   21991581.402
        54.0004         50.0004
  -7672762.09847  -5942559.96346  23742550.9714   23742557.4024   23742550.029
        44.0004         40.0004
 26  2 22  1 22 30.0000000  0  8G08G16G04G27G09G31G26G18
 -11780536.93348  -9133097.75148  21955095.7104   21955102.8034   21955095.138
        53.0004         49.0004
 -23969387.71448 -18621023.59748  20176036.8994   20176040.6314   20176037.343
        53.0004         49.0004
 -13680230.17748 -10610075.44347  21919149.5644   21919154.4944   21919149.078
        49.0004         45.0004
 -21815058.72749 -16951492.31349  20324293.2274   20324299.6804   20324293.021
        59.0004         55.0004
  -8542665.22149  -6612845.78048  22166608.5184   22166614.6974   22166608.774
        54.0004         49.0004
  -9675878.14648  -7487561.23148  22592803.0784   22592807.7124   22592802.658
        53.0004         48.0004
 -12547440.49949  -9698250.27148  22005321.2294   22005329.4824   22005321.328
        54.0004         50.0004
  -7670526.00447  -5940817.52646  23742976.5994   23742983.3994   23742975.754
        44.0004         40.0004
 26  2 22  1 23  0.0000000  0  8G08G16G04G27G09G31G26G18
 -11876958.04448  -9208231.01148  21936746.9934   21936754.9414   21936747.045
        53.0004         49.0004
 -23941473.11848 -18599271.98348  20181348.9964   20181352.2944   20181349.402
        53.0004         49.0004
 -13627499.46848 -10568986.60647  21929183.7094   21929189.0444   21929183.178
        49.0004         45.0004
 -21862104.63749 -16988151.43949  20315340.9084   20315347.3704   20315340.702
        59.0004         55.0004
  -8542080.81449  -6612390.41448  22166719.8704   22166726.2624   22166719.755
        54.0004         49.0004
  -9584318.68948  -7416216.24848  22610226.1244   22610230.7364   22610225.618
        53.0004         48.0004
 -12475046.52549  -9641839.43248  22019097.6614   22019105.7184   22019097.037
        54.0004         50.0004
  -7667726.71047  -5938636.23546  23743508.3784   23743516.0984   23743508.403
        44.0004         40.0004
 26  2 22  1 23 30.0000000  0  9G08G07G16G04G27G09G31G26G18
 -11973038.66148  -9283098.96048  21918463.5284   21918470.9644   21918462.963
        53.0004         49.0004
   -282223.04448   -169816.36446  25104566.0624   25104570.9914   25104565.429
        48.0004         41.0004
 -23913205.42748 -18577245.21848  20186728.1834   20186731.5704   20186728.461
        53.0004         49.0004
 -13574246.82648 -10527491.06447  21939317.5034   21939322.8274   21939317.396
        49.0004         45.0004
 -21908572.47149 -17024360.11849  20306498.3604   20306504.4764   20306498.214
        59.0004         55.0004
  -8540881.10149  -6611455.59348  22166948.1554   22166954.9294   22166948.119
        54.0004         49.0004
  -9492494.65348  -7344665.10048  22627699.4884   22627704.3274   22627699.185
        53.0004         48.0004
 -12402465.37649  -9585282.74348  22032909.2774   22032917.5584   22032909.338
        54.0004         50.0004
  -7664363.88447  -5936015.81846  23744148.3554   23744156.3854   23744148.215
        44.0004         39.0004
 26  2 22  1 24  0.0000000  0  9G08G07G16G04G27G09G31G26G18
 -12068776.83548  -9357700.05748  21900245.1594   21900252.6984   21900244.967
        53.0004         49.0004
   -378427.34647   -244780.68346  25086258.7854   25086264.3184   25086260.570
        47.0004         41.0004
 -23884585.38948 -18554943.90748  20192174.6104   20192178.0894   20192174.809
        53.0004         49.0004
 -13520474.46348 -10485590.55747  21949549.9784   21949555.4714   21949549.719
        49.0004         45.0004
 -21954461.30849 -17060117.63249  20297765.9484   20297772.1354   20297766.129
        59.0004         55.0004
  -8539066.40149  -6610041.56348  22167293.8564   22167300.1274   22167293.721
        54.0004         49.0004
  -9400407.34848  -7272908.79348  22645223.8584   22645228.6064   22645223.743
        53.0004         48.0004
 -12329697.99349  -9528580.93848  22046757.1494   22046764.7244   22046757.604
        54.0004         50.0004
  -7660437.28847  -5932956.08846  23744896.4404   23744904.2814   23744895.351
        44.0004         40.0004
 26  2 22  1 24 30.0000000  0  9G08G07G16G04G27G09G31G26G18
 -12164170.54148  -9432032.74248  21882092.1024   21882099.9294   21882091.901
        53.0004         49.0004
   -474623.32747   -319738.51846  25067954.0494   25067959.1254   25067953.337
        46.0004         41.0004
 -23855614.32548 -18532369.06348  20197687.1214   20197690.7734   20197687.688
        53.0004         49.0004
 -13466184.61248 -10443286.80347  21959880.5024   21959886.0934   21959881.118
        49.0004         45.0004
 -21999770.16849 -17095423.21649  20289143.8694   20289150.1654   20289143.726
        59.0004         55.0004
  -8536637.08549  -6608148.60848  22167756.0614   22167762.2584   22167755.859
        54.0004         49.0004
  -9308058.33548  -7200948.58348  22662796.8564   22662802.3034   22662796.366
        53.0004         48.0004
 -12256745.20249  -9471734.64848  22060639.9394   22060647.1454   22060640.011
        54.0004         50.0004
  -7655946.60847  -5929456.82146  23745751.1964   23745758.2804   23745750.623
        45.0004         40.0004
 26  2 22  1 25  0.0000000  0  9G08G07G16G04G27G09G31G26G18
 -12259217.85148  -9506095.50648  21864004.9894   21864012.9194   21864005.082
        53.0004         49.0004
   -570809.23147   -394688.52747  25049650.8714   25049655.5464   25049651.820
        46.0004         42.0004
 -23826293.18848 -18509521.42948  20203266.9754   20203270.4944   20203266.932
        53.0004         49.0004
 -13411379.53648 -10400581.58547  21970310.7914   21970315.4904   21970310.094
        49.0004         45.0004
 -22044498.21849 -17130276.22049  20280632.3964   20280638.8994   20280632.612
        59.0004         55.0004
  -8533593.55749  -6605777.04748  22168334.9204   22168341.4854   22168334.793
        54.0004         49.0004
  -9215449.13948  -7128785.63148  22680419.5254   22680425.2184   22680419.326
        53.0004         48.0004
 -12183607.83849  -9414744.54148  22074557.1164   22074565.1324   22074557.329
        54.0004         50.0004
  -7650891.69547  -5925517.89846  23746712.9274   23746719.4134   23746712.967
        45.0004         40.0004
 26  2 22  1 25 30.0000000  0  9G08G07G16G04G27G09G31G26G18
 -12353916.70248  -9579886.74948  21845984.6824   21845991.8304   21845984.825
        53.0004         49.0004
   -666983.89547   -469629.79347  25031348.3704   25031353.3004   25031348.725
        46.0004         42.0004
 -23796622.64348 -18486401.53548  20208913.1674   20208916.6234   20208913.395
        53.0004         49.0004
 -13356061.46848 -10357476.62947  21980836.9984   21980842.3594   21980836.588
        49.0004         45.0004
 -22088644.50349 -17164675.90349  20272231.7554   20272238.0274   20272231.718
        59.0004         55.0004
  -8529936.18949  -6602927.17848  22169030.9384   22169037.9744   22169030.696
        54.0004         49.0004
  -9122581.01048  -7056420.90948  22698091.4614   22698097.1444   22698091.018
        53.0004         48.0004
 -12110286.76349  -9357611.29948  22088509.8434   22088517.2264   22088509.664
        54.0004         50.0004
  -7645272.24947  -5921139.08546  23747782.3924   23747790.1764   23747782.144
        45.0004         40.0004
 26  2 22  1 26  0.0000000  0  9G08G07G16G04G27G09G31G26G18
 -12448265.17949  -9653404.96448  21828030.5434   21828038.2504   21828030.485
        54.0004         49.0004
   -763145.68147   -544561.01147  25013049.6034   25013054.5774   25013049.526
        46.0004         42.0004
 -23766603.95948 -18463010.36148  20214625.3294   20214628.9104   20214625.869
        53.0004         49.0004
 -13300232.71048 -10313973.72247  21991461.2874   21991466.2734   21991460.468
        49.0004         45.0004
 -22132208.22049 -17198621.64049  20263941.7954   20263948.0484   20263941.781
        59.0004         55.0004
  -8525665.53649  -6599599.41948  22169843.5164   22169850.1074   22169843.420
        54.0004         49.0004
  -9029455.18548  -6983855.40848  22715813.0724   22715817.8694   22715812.553
        53.0004         48.0004
 -12036782.82449  -9300335.55448  22102496.7234   22102505.0074   22102496.855
        54.0004         50.0004
  -7639088.12047  -5916320.27146  23748959.8264   23748966.9584   23748958.897
        45.0004         41.0004
 26  2 22  1 26 30.0000000  0  9G08G07G16G04G27G09G31G26G18
 -12542261.35349  -9726648.65148  21810144.0994   21810151.2794   21810144.293
        54.0004         49.0004
   -859292.86847   -619480.87346  24994753.2904   24994758.0854   24994754.047
        46.0004         41.0004
 -23736237.96148 -18439348.55948  20220404.1304   20220407.3904   20220404.047
        53.0004         48.0004
 -13243895.60248 -10270074.70547  22002181.9554   22002186.8394   22002181.036
        49.0004         45.0004
 -22175188.57349 -17232112.81549  20255763.0444   20255769.1044   20255762.894
        59.0004         55.0004
  -8520782.04049  -6595794.13048  22170772.7924   22170779.4614   22170772.820
        54.0004         49.0004
  -8936073.12548  -6911090.23548  22733583.8304   22733588.2624   22733583.618
        52.0004         48.0004
 -11963096.86949  -9242917.97348  22116518.6804   22116527.0824   22116518.196
        54.0004         50.0004
  -7632339.23147  -5911061.37546  23750242.8104   23750250.6084   23750243.112
        45.0004         40.0004
 26  2 22  1 27  0.0000000  0  9G08G07G16G04G27G09G31G26G18
 -12635903.23149  -9799616.27148  21792323.9114   21792331.6294   21792323.500
        54.0004         49.0004
   -955423.99647   -694388.19147  24976460.3304   24976464.6874   24976459.535
        46.0004         42.0004
 -23705525.36748 -18415416.67348  20226248.2864   20226251.8034   20226248.585
        53.0004         49.0004
 -13187052.38248 -10225781.31147  22012998.3104   22013003.0284   22012998.030
        49.0004         44.0004
 -22217584.60949 -17265148.66949  20247695.3274   20247701.3284   20247695.594
        59.0004         55.0004
  -8515286.15549  -6591511.64348  22171818.5184   22171825.4274   22171818.264
        54.0004         49.0004
  -8842436.15348  -6838126.42848  22751402.1404   22751406.9264   22751401.580
        52.0004         48.0004
 -11889229.61849  -9185359.11448  22130575.4414   22130583.1014   22130575.120
        54.0004         50.0004
  -7625025.31747  -5905362.21246  23751635.6094   23751642.9474   23751635.009
        45.0004         41.0004
 26  2 22  1 27 30.0000000  0  9G08G07G16G04G27G09G31G26G18
 -12729188.94849  -9872306.36948  21774572.4284   21774580.4244   21774572.374
        54.0004         49.0004
  -1051537.44747   -769281.77447  24958170.2204   24958175.5224   24958169.712
        46.0004         42.0004
 -23674467.52048 -18391215.77348  20232158.6134   20232161.9074   20232158.746
        53.0004         48.0004
 -13129705.52048 -10181095.47947  22023910.4584   22023915.6194   22023911.037
        49.0004         45.0004
 -22259395.67849 -17297728.71149  20239738.9544   20239745.0694   20239739.188
        59.0004         55.0004
  -8509178.50349  -6586752.46548  22172980.8304   22172987.3604   22172981.124
        54.0004         49.0004
  -8748545.94148  -6764965.28148  22769269.0994   22769274.4364   22769268.931
        52.0004         48.0004
 -11815182.10049  -9127659.79948  22144666.3834   22144674.6114   22144665.759
        54.0004         50.0004
  -7617146.37447  -5899222.76946  23753135.0854   23753141.3424   23753135.093
        45.0004         41.0004
 26  2 22  1 28  0.0000000  0  9G08G07G16G04G27G09G31G26G18
 -12822116.48849  -9944717.35848  21756889.1994   21756896.3984   21756889.142
        54.0004         49.0004
  -1147632.15447   -844160.72047  24939884.1774   24939890.3464   24939884.026
        47.0004         42.0004
 -23643065.12448 -18366746.38948  20238133.8134   20238137.6174   20238134.283
        53.0004         49.0004
 -13071857.29648 -10136018.97347  22034918.9644   22034925.2244   22034919.661
        49.0004         45.0004
 -22300620.92449 -17329852.25849  20231893.9654   20231899.7724   20231893.745
        59.0004         55.0004
  -8502459.53049  -6581516.93248  22174259.4404   22174266.3434   22174259.414
        54.0004         49.0004
  -8654403.98948  -6691607.98947  22787183.4474   22787188.7934   22787182.593
        52.0004         47.0004
 -11740955.00649  -9069820.55248  22158791.0924   22158799.1844   22158791.710
        54.0004         49.0004
  -7608702.21447  -5892642.89846  23754741.7384   23754747.3914   23754741.186
        45.0004         41.0004
 26  2 22  1 28 30.0000000  0  9G08G07G16G04G27G09G31G26G18
 -12914683.96549 -10016847.77948  21739273.5684   21739281.7564   21739273.915
        54.0004         49.0004
  -1243706.01247   -919023.43247  24921602.2454   24921607.2314   24921602.409
        47.0004         42.0004
 -23611319.28648 -18342009.39548  20244175.2284   20244178.6454   20244175.826
        53.0004         48.0004
 -13013510.07748 -10090553.64147  22046022.9104   22046027.5934   22046022.019
        49.0004         45.0004
 -22341259.59949 -17361518.74449  20224160.7574   20224166.7704   20224160.639
        59.0004         55.0004
  -8495129.86549  -6575805.52848  22175654.4644   22175660.9654   22175654.357
        54.0004         49.0004
  -8560011.52748  -6618055.48748  22805146.0054   22805151.5594   22805145.890
        52.0004         48.0004
 -11666549.15649  -9011842.02948  22172949.9804   22172958.3544   22172949.988
        54.0004         49.0004
  -7599692.80947  -5885622.58946  23756455.7444   23756461.9534   23756455.765
        45.0004         41.0004
 26  2 22  1 29  0.0000000  0  9G08G07G16G04G27G09G31G26G18
 -13006889.54749 -10088696.21948  21721728.0784   21721735.3864   21721728.328
        54.0004         49.0004
  -1339757.52347   -993868.73947  24903323.8514   24903328.8874   24903323.500
        46.0004         42.0004
 -23579230.84548 -18317005.43148  20250281.3664   20250284.9734   20250281.851
        53.0004         49.0004
 -12954666.35148 -10044701.41947  22057220.7654   22057225.6884   22057220.426
        49.0004         45.0004
 -22381311.07449 -17392727.66749  20216539.0974   20216545.1424   20216538.857
        59.0004         55.0004
  -8487190.20749  -6569618.80248  22177165.8084   22177171.7744   22177165.318
        54.0004         49.0004
  -8465370.02548  -6544308.93348  22823155.7604   22823160.9724   22823156.431
        52.0004         48.0004
 -11591965.50649  -8953724.95648  22187143.2984   22187151.2394   22187143.514
        54.0004         49.0004
  -7590118.20847  -5878161.85746  23758278.3124   23758284.6274   23758278.593
        45.0004         41.0004
 26  2 22  1 29 30.0000000  0  9G08G07G16G04G27G09G31G26G18
 -13098731.21949 -10160261.08848  21704250.4464   21704258.1664   21704250.530
        54.0004         49.0004
  -1435785.09147  -1068695.39947  24885050.1384   24885055.6224   24885048.507
        46.0004         42.0004
 -23546801.02248 -18291735.45948  20256452.5664   20256456.2614   20256452.951
        53.0004         48.0004
 -12895328.42048  -9998464.10847  22068512.5244   22068518.2024   22068511.589
        49.0004         45.0004
 -22420774.54049 -17423478.40149  20209029.3974   20209035.4834   20209029.223
        59.0004         55.0004
  -8478641.08749  -6562957.17148  22178792.7264   22178798.4204   22178792.622
        54.0004         49.0004
  -8370480.45348  -6470369.08448  22841212.9824   22841217.3214   22841213.392
        52.0004         48.0004
 -11517204.68449  -8895469.82248  22201370.1324   22201377.7804   22201370.431
        54.0004         49.0004
  -7579978.24347  -5870260.57946  23760208.3664   23760214.1624   23760207.597
        45.0004         41.0004
 26  2 22  1 30  0.0000000  0  9G08G07G16G04G27G09G31G26G18
 -13190207.12349 -10231540.94748  21686843.4944   21686850.5164   21686843.943
        54.0004         50.0004
  -1531787.75047  -1143502.64347  24866781.3944   24866787.2644   24866781.773
        47.0004         42.0004
 -23514030.44248 -18266199.97148  20262688.6734   20262692.1934   20262689.286
        53.0004         49.0004
 -12835498.75148  -9951843.61747  22079896.6384   22079902.3614   22079897.007
        49.0004         44.0004
 -22459649.32949 -17453770.42949  20201631.8814   20201637.8984   20201631.985
        59.0004         55.0004
  -8469483.21749  -6555821.19348  22180535.3074   22180541.7124   22180535.361
        54.0004         49.0004
  -8275345.15348  -6396237.75647  22859315.9894   22859321.0804   22859315.939
        52.0004         47.0004
 -11442267.58849  -8837077.32548  22215630.2284   22215637.7804   22215629.928
        54.0004         49.0004
  -7569273.00347  -5861918.82646  23762245.4134   23762251.1404   23762244.953
        45.0004         41.0004
 26  2 22  1 30 30.0000000  0  9G08G07G16G04G27G09G31G26G18
 -13281315.42349 -10302534.36748  21669505.8404   21669513.4474   21669505.699
        54.0004         50.0004
  -1627762.96547  -1218288.47847  24848518.3574   24848523.7124   24848518.142
        47.0004         42.0004
 -23480920.02248 -18240399.66648  20268989.4194   20268993.1834   20268989.595
        53.0004         48.0004
 -12775179.86048  -9904841.91747  22091376.1184   22091380.2354   22091375.276
        49.0004         44.0004
 -22497934.89549 -17483603.31949  20194346.1394   20194352.5304   20194345.888
        59.0004         55.0004
  -8459717.29249  -6548211.41048  22182393.5684   22182399.9694   22182393.611
        54.0004         49.0004
  -8179965.12448  -6321915.72047  22877466.5844   22877471.9604   22877465.762
        52.0004         47.0004
 -11367155.11249  -8778548.17548  22229923.4114   22229931.3184   22229923.372
        54.0004         49.0004
  -7558002.52347  -5853136.63546  23764389.9964   23764396.8094   23764389.280
        45.0004         40.0004
 26  2 22  1 31  0.0000000  0  9G08G07G16G04G27G09G31G26G18
 -13372054.24949 -10373239.88448  21652238.6984   21652246.7344   21652238.586
        54.0004         50.0004
  -1723709.71947  -1293052.14047  24830259.6114   24830265.3924   24830260.352
        47.0004         42.0004
 -23447471.11648 -18214335.61648  20275354.2084   20275358.0304   20275354.913
        53.0004         48.0004
 -12714374.19248  -9857460.91747  22102946.6544   22102951.7644   22102946.078
        49.0004         44.0004
 -22535630.52449 -17512976.52449  20187172.9134   20187179.0344   20187172.732
        59.0004         55.0004
  -8449344.08549  -6540128.42148  22184367.8294   22184373.9184   22184367.741
        54.0004         49.0004
  -8084341.99048  -6247404.26947  22895663.2084   22895668.3694   22895662.898
        52.0004         47.0004
 -11291868.01949  -8719882.96348  22244249.9474   22244258.4224   22244249.815
        54.0004         49.0004
  -7546166.89447  -5843914.07746  23766642.2324   23766648.5244   23766640.421
        45.0004         40.0004
 26  2 22  1 31 30.0000000  0  9G08G07G16G04G27G09G31G26G18
 -13462421.69949 -10443656.02248  21635042.3224   21635049.7504   21635042.668
        54.0004         50.0004
  -1819625.82147  -1367791.91447  24812008.3534   24812012.9844   24812009.817
        47.0004         42.0004
 -23413684.31048 -18188008.26848  20281783.9954   20281787.6374   20281784.157
        53.0004         48.0004
 -12653084.13648  -9809702.47847  22114609.3354   22114614.6064   22114609.737
        49.0004         44.0004
 -22572735.61349 -17541889.56449  20180112.0934   20180118.3104   20180112.110
        59.0004         55.0004
  -8438364.26649  -6531572.74648  22186457.3974   22186463.6424   22186457.357
        54.0004         49.0004
  -7988477.13048  -6172704.46847  22913905.6164   22913911.0134   22913905.921
        52.0004         47.0004
 -11216407.07849  -8661082.28148  22258609.7734   22258617.7784   22258609.713
        54.0004         49.0004
  -7533766.15047  -5834251.16846  23769001.6334   23769008.5734   23769001.337
        45.0004         40.0004
 26  2 22  1 32  0.0000000  0  9G08G07G16G04G27G09G31G26G18
 -13552415.89249 -10513781.30948  21617917.2454   21617924.7654   21617917.478
        54.0004         50.0004
  -1915509.80147  -1442506.64947  24793762.6044   24793767.5984   24793762.652
        47.0004         43.0004
 -23379560.69848 -18161418.46648  20288277.5844   20288280.9544   20288277.858
        53.0004         48.0004
 -12591312.23748  -9761568.56847  22126363.8544   22126369.4904   22126363.239
        49.0004         44.0004
 -22609249.54249 -17570341.96949  20173163.8164   20173169.9244   20173163.715
        60.0004         55.0004
  -8426778.59949  -6522544.98448  22188661.5204   22188668.1574   22188661.558
        54.0004         49.0004
  -7892371.86548  -6097817.31347  22932194.0894   22932199.2014   22932194.409
        52.0004         47.0004
 -11140773.08149  -8602146.76148  22273002.2754   22273010.5464   22273001.994
        54.0004         49.0004
  -7520800.35347  -5824147.95946  23771468.8714   23771474.6514   23771468.277
        45.0004         40.0004
 26  2 22  1 32 30.0000000  0  9G08G07G16G04G27G09G31G26G18
 -13642035.13949 -10583614.43548  21600863.2954   21600870.7444   21600863.224
        54.0004         50.0004
  -2011360.32148  -1517195.34947  24775522.0434   24775526.7084   24775522.284
        48.0004         43.0004
 -23345101.41148 -18134567.10648  20294834.7524   20294838.6834   20294835.186
        53.0004         48.0004
 -12529061.14348  -9713061.26647  22138210.5134   22138215.7924   22138210.695
        49.0004         44.0004
 -22645171.94349 -17598333.43549  20166328.2394   20166334.0414   20166328.086
        60.0004         55.0004
  -8414588.05749  -6513045.89348  22190980.9744   22190988.0174   22190980.878
        54.0004         49.0004
  -7796027.93648  -6022744.21047  22950527.6644   22950533.0444   22950527.683
        52.0004         47.0004
 -11064966.95949  -8543077.12448  22287428.0204   22287436.0534   22287428.187
        54.0004         49.0004
  -7507269.78247  -5813604.67746  23774043.3024   23774050.1344   23774043.050
        45.0004         40.0004
 26  2 22  1 33  0.0000000  0  9G08G07G16G04G27G09G31G26G18
 -13731277.38749 -10653153.78948  21583881.0184   21583888.0524   21583880.770
        54.0004         50.0004
  -2107175.66947  -1591856.62647  24757289.3644   24757294.3274   24757290.336
        47.0004         43.0004
 -23310306.98548 -18107454.59848  20301456.0264   20301459.3274   20301456.376
        53.0004         48.0004
 -12466333.10748  -9664182.31347  22150146.8924   22150152.1164   22150145.922
        49.0004         44.0004
 -22680501.92649 -17625863.27449  20159604.8804   20159610.8624   20159604.684
        60.0004         55.0004
  -8401793.18249  -6503075.89348  22193416.1674   22193422.6394   22193415.971
        54.0004         49.0004
  -7699446.49048  -5947486.02147  22968906.4984   22968911.7494   22968906.608
        52.0004         47.0004
 -10988989.26449  -8483873.77848  22301885.8774   22301893.8074   22301885.819
        54.0004         49.0004
  -7493174.34847  -5802621.25246  23776725.9664   23776731.6334   23776726.017
        45.0004         40.0004
 26  2 22  1 33 30.0000000  0  9G08G07G16G04G27G09G31G26G18
 -13820140.97549 -10722398.09348  21566970.4464   21566977.7594   21566970.693
        54.0004         50.0004
  -2202954.10148  -1666489.15247  24739062.5784   24739068.0294   24739062.625
        48.0004         43.0004
 -23275178.68148 -18080081.93048  20308140.8774   20308144.5294   20308140.800
        53.0004         48.0004
 -12403130.86448  -9614933.84347  22162173.8254   22162178.3254   22162173.577
        49.0004         44.0004
 -22715239.24649 -17652931.30249  20152994.7104   20153000.6774   20152994.559
        60.0004         55.0004
  -8388395.03849  -6492635.81648  22195965.9024   22195972.3194   22195965.710
        54.0004         49.0004
  -7602629.19948  -5872044.04247  22987330.4334   22987335.2324   22987329.860
        52.0004         47.0004
 -10912840.97648  -8424537.51648  22316376.8574   22316384.3774   22316376.681
        53.0004         49.0004
  -7478514.41447  -5791197.94246  23779514.5064   23779521.5144   23779514.579
        45.0004         40.0004
 26  2 22  1 34  0.0000000  0  9G08G07G16G04G27G09G31G26G18
 -13908624.04849 -10791345.89848  21550132.7294   21550140.0254   21550133.094
        54.0004         50.0004
  -2298693.84947  -1741091.53647  24720843.4244   24720848.7944   24720842.509
        47.0004         43.0004
 -23239717.60648 -18052449.95248  20314888.8704   20314892.7754   20314889.216
        53.0004         49.0004
 -12339456.95248  -9565317.84247  22174290.6524   22174296.2334   22174290.530
        49.0004         44.0004
 -22749383.34849 -17679537.08649  20146497.2304   20146503.1964   20146497.132
        60.0004         55.0004
  -8374394.42549  -6481726.28148  22198630.2654   22198636.6474   22198630.189
        54.0004         49.0004
  -7505577.47448  -5796419.40047  23005798.9194   23005804.1104   23005798.540
        51.0004         47.0004
 -10836522.87148  -8365068.92948  22330899.9384   22330907.4584   22330899.598
        53.0004         49.0004
  -7463290.13147  -5779334.88646  23782412.5804   23782418.9694   23782411.513
        44.0004         40.0004
 26  2 22  1 34 30.0000000  0  9G08G07G16G04G27G09G31G26G18
 -13996724.81849 -10859995.79848  21533368.0444   21533374.6094   21533368.260
        54.0004         50.0004
  -2394393.40147  -1815662.59147  24702632.7534   24702638.2274   24702632.348
        47.0004         43.0004
 -23203924.62948 -18024559.35048  20321700.0904   20321703.7274   20321700.240
        53.0004         48.0004
 -12275313.95248  -9515336.32347  22186497.2664   22186502.5154   22186496.709
        49.0004         44.0004
 -22782933.75749 -17705680.24949  20140112.7034   20140118.7884   20140112.594
        60.0004         55.0004
  -8359792.27149  -6470348.00348  22201408.5574   22201415.5364   22201409.006
        54.0004         49.0004
  -7408292.97348  -5720613.38447  23024311.6004   23024316.2334   23024310.873
        51.0004         47.0004
 -10760035.70749  -8305468.62148  22345454.7394   22345463.4554   22345454.070
        54.0004         49.0004
  -7447501.72547  -5767032.24246  23785416.6594   23785423.6354   23785416.110
        44.0004         40.0004
 26  2 22  1 35  0.0000000  0  9G08G07G16G04G27G09G31G26G18
 -14084441.42749 -10928346.35648  21516675.8984   21516683.0754   21516675.710
        54.0004         50.0004
  -2490051.07447  -1890201.00447  24684429.7544   24684434.2384   24684430.158
        47.0004         43.0004
 -23167800.58248 -17996410.77748  20328574.4674   20328577.8194   20328574.871
        53.0004         48.0004
 -12210704.39448  -9464991.25247  22198791.3034   22198797.6594   22198791.707
        49.0004         44.0004
 -22815889.98349 -17731360.41649  20133841.2264   20133847.2014   20133841.387
        60.0004         55.0004
  -8344589.50149  -6458501.72748  22204302.0914   22204307.8524   22204301.955
        54.0004         49.0004
  -7310777.20548  -5644627.13747  23042867.6834   23042872.8164   23042867.773
        51.0004         47.0004
 -10683380.20048  -8245737.14048  22360041.7454   22360049.5764   22360042.228
        53.0004         49.0004
  -7431149.38547  -5754290.16646  23788528.7854   23788533.9334   23788528.324
        44.0004         40.0004
 26  2 22  1 35 30.0000000  0  9G08G07G16G04G27G09G31G26G18
 -14171772.27649 -10996396.32048  21500056.8374   21500064.4424   21500056.842
        55.0004         50.0004
  -2585665.23148  -1964705.51247  24666235.7484   24666239.7734   24666234.866
        48.0004         43.0004
 -23131346.46948 -17968005.00948  20335511.3044   20335515.1124   20335511.599
        53.0004         48.0004
 -12145631.05848  -9414284.79047  22211175.2824   22211179.8004   22211174.116
        49.0004         44.0004
 -22848251.71849 -17756577.34749  20127683.1154   20127689.1974   20127683.065
        60.0004         55.0004
  -8328787.18049  -6446188.26648  22207308.9224   22207315.0874   22207309.194
        54.0004         49.0004
  -7213031.58948  -5568461.81747  23061468.3394   23061473.9504   23061468.527
        51.0004         47.0004
 -10606557.33848  -8185875.24348  22374660.6164   22374668.5574   22374660.085
        53.0004         48.0004
  -7414233.58647  -5741109.03646  23791747.2364   23791752.7694   23791746.283
        44.0004         39.0004
 26  2 22  1 36  0.0000000  0  9G08G07G16G04G27G09G31G26G18
 -14258715.33649 -11064144.10748  21483512.5254   21483519.7904   21483512.864
        55.0004         50.0004
  -2681234.02848  -2039174.69647  24648049.0684   24648052.8814   24648049.429
        48.0004         43.0004
 -23094563.08748 -17939342.66748  20342510.8064   20342514.8994   20342511.169
        53.0004         48.0004
 -12080096.29548  -9363218.77347  22223645.2514   22223651.4384   22223645.151
        49.0004         44.0004
 -22880018.36349 -17781330.57449  20121638.0794   20121644.1314   20121637.954
        60.0004         55.0004
  -8312386.09949  -6433408.25048  22210430.4234   22210437.0374   22210430.370
        54.0004         49.0004
  -7115057.34548  -5492118.33747  23080112.4024   23080117.4204   23080112.770
        51.0004         47.0004
 -10529567.59548  -8125883.32948  22389311.2424   22389319.6744   22389310.618
        53.0004         49.0004
  -7396754.30747  -5727488.82946  23795071.6434   23795079.1784   23795072.538
        44.0004         39.0004
 26  2 22  1 36 30.0000000  0  9G08G07G16G04G27G09G31G26G18
 -14345269.05649 -11131588.51148  21467041.7274   21467048.9464   21467041.786
        55.0004         50.0004
  -2776755.86348  -2113607.27747  24629872.6024   24629877.1744   24629872.332
        48.0004         43.0004
 -23057451.71548 -17910424.74948  20349572.7664   20349576.5924   20349573.271
        53.0004         48.0004
 -12014102.98248  -9311795.46147  22236203.8434   22236209.4984   22236203.270
        48.0004         44.0004
 -22911189.75149 -17805619.96449  20115706.3674   20115712.5244   20115706.157
        60.0004         55.0004
  -8295387.41649  -6420162.56848  22213665.0864   22213671.5004   22213664.943
        54.0004         49.0004
  -7016856.62148  -5415598.39547  23098799.7704   23098804.7834   23098799.503
        51.0004         47.0004
 -10452411.99648  -8065762.17048  22403993.5044   22404001.3814   22403993.633
        53.0004         48.0004
  -7378712.12847  -5713430.00246  23798507.1024   23798513.7144   23798506.496
        44.0004         39.0004
 26  2 22  1 37  0.0000000  0  9G08G07G16G04G27G09G31G26G18
 -14431431.60349 -11198728.11248  21450645.8374   21450652.8094   21450645.404
        55.0004         50.0004
  -2872228.88948  -2188001.82647  24611704.1054   24611709.3514   24611704.198
        48.0004         43.0004
 -23020013.22648 -17881251.93948  20356697.9824   20356701.1744   20356697.823
        53.0004         48.0004
 -11947653.68848  -9260016.82747  22248848.3824   22248854.2514   22248847.771
        48.0004         44.0004
 -22941765.38449 -17829445.13249  20109887.9014   20109894.2094   20109887.887
        60.0004         55.0004
  -8277792.11849  -6406451.97748  22217013.2544   22217019.3454   22217013.062
        54.0004         49.0004
  -6918430.33548  -5338902.67647  23117529.9534   23117534.9444   23117529.672
        51.0004         47.0004
 -10375091.21148  -8005512.27748  22418707.7304   22418715.3594   22418707.872
        53.0004         48.0004
  -7360107.27147  -5698932.73046  23802047.2234   23802055.0844   23802046.097
        44.0004         40.0004
 26  2 22  1 37 30.0000000  0  9G08G07G16G04G27G09G31G26G18
 -14517201.27649 -11265561.57148  21434324.1004   21434331.3174   21434324.560
        55.0004         50.0004
  -2967651.44648  -2262357.03747  24593545.5654   24593551.0334   24593545.709
        48.0004         43.0004
 -22982248.42448 -17851824.85348  20363883.9044   20363887.5874   20363884.339
        53.0004         48.0004
 -11880751.04248  -9207884.93347  22261579.9014   22261585.4634   22261579.796
        48.0004         44.0004
 -22971744.99149 -17852805.86549  20104182.9944   20104189.2094   20104183.036
        60.0004         55.0004
  -8259601.26149  -6392277.33348  22220474.8374   22220481.1604   22220474.905
        54.0004         49.0004
  -6819780.28448  -5262032.61147  23136302.5854   23136307.4584   23136302.258
        51.0004         47.0004
 -10297606.00248  -7945134.27948  22433452.3084   22433460.7904   22433451.777
        53.0004         48.0004
  -7340940.15947  -5683997.33146  23805694.5074   23805701.2214   23805694.834
        45.0004         40.0004
 26  2 22  1 38  0.0000000  0  9G08G07G16G04G27G09G31G26G18
 -14602576.30349 -11332087.51648  21418077.8264   21418084.8964   21418078.249
        55.0004         50.0004
  -3063021.69148  -2336671.47247  24575397.5114   24575403.0904   24575396.491
        48.0004         43.0004
 -22944158.28448 -17822144.25848  20371132.3984   20371135.4934   20371132.339
        53.0004         48.0004
 -11813397.72648  -9155401.87147  22274396.5584   22274402.3764   22274396.417
        48.0004         44.0004
 -23001128.20049 -17875701.87349  20098591.6244   20098597.7064   20098591.500
        60.0004         55.0004
  -8240815.92949  -6377639.46448  22224049.5314   22224056.0194   22224049.265
        54.0004         49.0004
  -6720908.11248  -5184989.45847  23155116.5464   23155122.0304   23155116.086
        51.0004         46.0004
 -10219957.11148  -7884628.73648  22448228.5384   22448237.1794   22448228.289
        53.0004         48.0004
  -7321211.08547  -5668624.04946  23809449.9294   23809455.2064   23809450.357
        45.0004         40.0004
 26  2 22  1 38 30.0000000  0  9G08G07G16G04G27G09G31G26G18
 -14687555.11549 -11398304.72848  21401906.8784   21401913.9234   21401906.747
        55.0004         50.0004
  -3158338.19948  -2410944.03747  24557258.8224   24557264.2894   24557258.581
        48.0004         43.0004
 -22905743.82648 -17792210.94448  20378442.1634   20378446.1744   20378442.329
        53.0004         48.0004
 -11745596.56948  -9102569.85347  22287298.9754   22287304.7284   22287298.362
        49.0004         44.0004
 -23029914.89249 -17898133.07049  20093113.7094   20093119.7394   20093113.418
        60.0004         55.0004
  -8221437.33149  -6362539.31348  22227737.1124   22227744.1954   22227736.803
        54.0004         49.0004
  -6621815.35748  -5107774.44347  23173973.4904   23173978.5964   23173972.507
        51.0004         46.0004
 -10142145.45748  -7823996.37348  22463035.4874   22463044.1834   22463035.629
        53.0004         48.0004
  -7300920.63847  -5652813.33146  23813310.4054   23813316.9744   23813309.901
        45.0004         40.0004
 26  2 22  1 39  0.0000000  0  9G08G07G16G04G27G09G31G26G18
 -14772135.79649 -11464211.71248  21385811.5694   21385818.7174   21385811.931
        55.0004         50.0004
  -3253598.87248  -2485173.11647  24539131.7844   24539136.5194   24539132.271
        48.0004         43.0004
 -22867006.04548 -17762025.70948  20385813.8624   20385817.5234   20385813.969
        53.0004         48.0004
 -11677350.03848  -9049390.79747  22300286.0804   22300290.9604   22300285.960
        49.0004         44.0004
 -23058104.57349 -17920099.05749  20087749.4354   20087755.4864   20087749.307
        60.0004         55.0004
  -8201466.41749  -6346977.61248  22231537.7954   22231544.6544   22231537.284
        54.0004         49.0004
  -6522503.34648  -5030388.56247  23192871.9524   23192877.4554   23192871.812
        51.0004         46.0004
 -10064171.57048  -7763237.59248  22477873.7674   22477881.8844   22477873.713
        53.0004         48.0004
  -7280069.04147  -5636565.36646  23817278.5804   23817284.1624   23817279.280
        45.0004         40.0004
 26  2 22  1 39 30.0000000  0  9G08G07G16G04G27G09G31G26G18
 -14856316.80149 -11529807.26948  21369792.5114   21369799.4474   21369792.046
        55.0004         51.0004
  -3348802.46648  -2559357.70847  24521014.7644   24521019.7614   24521014.591
        48.0004         43.0004
 -22827946.02848 -17731589.36648  20393246.8404   20393250.5344   20393247.243
        53.0004         48.0004
 -11608661.04548  -8995866.95547  22313357.1204   22313362.6174   22313356.624
        49.0004         44.0004
 -23085697.14949 -17941599.77049  20082498.7854   20082504.8224   20082498.921
        60.0004         55.0004
  -8180904.48849  -6330955.38348  22235450.4874   22235457.0114   22235450.328
        54.0004         49.0004
  -6422973.71448  -4952833.13547  23211812.4254   23211817.9464   23211811.719
        51.0004         46.0004
  -9986036.38448  -7702353.12348  22492742.3604   22492750.6934   22492742.475
        53.0004         48.0004
  -7258656.90847  -5619880.62846  23821353.7034   23821358.9764   23821353.474
        45.0004         40.0004
 26  2 22  1 40  0.0000000  0  9G08G07G16G04G27G09G31G26G18
 -14940096.46849 -11595090.09748  21353849.9194   21353857.1124   21353850.070
        55.0004         51.0004
  -3443946.77948  -2633496.12347  24502909.9914   24502913.9764   24502909.078
        48.0004         43.0004
 -22788564.66848 -17700902.62948  20400740.6864   20400744.2004   20400741.037
        53.0004         48.0004
 -11539532.33548  -8942000.47947  22326511.1864   22326517.5884   22326511.528
        48.0004         44.0004
 -23112692.40749 -17962635.04349  20077361.7584   20077367.7684   20077361.792
        60.0004         55.0004
  -8159752.76149  -6314473.57348  22239475.1864   22239482.0834   22239475.079
        54.0004         49.0004
  -6323228.03148  -4875109.33347  23230793.8914   23230799.1774   23230793.767
        51.0004         46.0004
  -9907740.61148  -7641343.53748  22507641.7894   22507650.2284   22507641.970
        53.0004         48.0004
  -7236684.70147  -5602759.44846  23825535.1684   23825541.5644   23825533.957
        45.0004         40.0004
 26  2 22  1 40 30.0000000  0  9G08G07G16G04G27G09G31G26G18
 -15023473.09749 -11660058.87448  21337983.8234   21337991.0484   21337983.980
        55.0004         51.0004
  -3539030.06248  -2707586.99947  24484815.8214   24484820.2354   24484815.136
        48.0004         44.0004
 -22748862.71348 -17669966.07548  20408295.9494   20408299.7194   20408296.265
        53.0004         48.0004
 -11469966.58048  -8887793.45547  22339749.8804   22339754.7634   22339749.256
        48.0004         44.0004
 -23139090.09649 -17983204.67449  20072338.2464   20072344.4984   20072338.384
        60.0004         55.0004
  -8138012.41449  -6297533.11148  22243612.3424   22243618.9674   22243612.498
        54.0004         49.0004
  -6223267.88148  -4797218.41847  23249814.8984   23249820.8694   23249814.840
        51.0004         46.0004
  -9829284.99248  -7580209.38648  22522571.1764   22522579.3924   22522570.928
        53.0004         48.0004
  -7214152.89647  -5585202.23646  23829822.8454   23829828.4124   23829822.521
        45.0004         41.0004
 26  2 22  1 41  0.0000000  0  9G08G07G16G04G27G09G31G26G18
 -15106444.94349 -11724712.23148  21322194.7744   21322201.9554   21322194.716
        55.0004         51.0004
  -3634050.53048  -2781628.92447  24466733.5584   24466739.0044   24466732.442
        48.0004         43.0004
 -22708840.90448 -17638780.29148  20415911.4754   20415915.2794   20415911.722
        53.0004         48.0004
 -11399966.50148  -8833247.99447  22353071.1754   22353075.5914   22353071.193
        48.0004         44.0004
 -23164890.03549 -18003308.53349  20067428.8934   20067434.9814   20067428.880
        60.0004         55.0004
  -8115684.59348  -6280134.86848  22247861.4384   22247867.3934   22247861.963
        53.0004         49.0004
  -6123094.74148  -4719161.55047  23268877.3924   23268883.2544   23268877.254
        51.0004         46.0004
  -9750670.16648  -7518951.16948  22537531.5374   22537539.6014   22537531.401
        53.0004         48.0004
  -7191061.99347  -5567209.33946  23834216.1674   23834222.8174   23834216.218
        45.0004         40.0004
 26  2 22  1 41 30.0000000  0  9G08G07G16G04G27G09G31G26G18
 -15189010.48849 -11789048.99548  21306482.7704   21306490.0504   21306482.475
        55.0004         51.0004
  -3729006.56048  -2855620.61247  24448664.1534   24448669.1394   24448664.072
        48.0004         44.0004
 -22668500.96948 -17607346.62048  20423588.0344   20423591.7494   20423588.758
        53.0004         48.0004
 -11329534.94048  -8778366.32047  22366473.1624   22366478.7834   22366472.385
        48.0004         44.0004
 -23190092.14549 -18022946.54549  20062633.0444   20062639.2534   20062633.125
        60.0004         55.0004
  -8092770.67948  -6262279.93048  22252222.2784   22252228.3514   22252221.846
        53.0004         49.0004
  -6022710.21448  -4640939.94847  23287979.9444   23287985.7444   23287979.886
        50.0004         46.0004
  -9671897.07548  -7457569.63448  22552521.5004   22552530.1724   22552522.117
        53.0004         48.0004
  -7167412.61947  -5548781.29246  23838716.6064   23838722.2324   23838715.823
        45.0004         40.0004
 26  2 22  1 42  0.0000000  0  9G08G07G16G04G27G09G31G26G18
 -15271168.02749 -11853067.83748  21290848.7854   21290856.1974   21290848.802
        55.0004         51.0004
  -3823896.48048  -2929560.80547  24430607.3464   24430612.7364   24430607.438
        48.0004         44.0004
 -22627843.34948 -17575665.39548  20431325.1554   20431329.0024   20431325.165
        53.0004         48.0004
 -11258674.69448  -8723150.60147  22379957.2834   22379963.0474   22379956.425
        48.0004         43.0004
 -23214696.26749 -18042118.59449  20057950.9904   20057957.2094   20057950.905
        60.0004         55.0004
  -8069271.93548  -6243969.27048  22256693.6174   22256700.0714   22256693.174
        53.0004         49.0004
  -5922115.78048  -4562554.81147  23307122.7874   23307128.5774   23307122.573
        50.0004         46.0004
  -9592966.31048  -7396065.24848  22567541.6524   22567549.4294   22567541.998
        53.0004         48.0004
  -7143205.28147  -5529918.48146  23843323.1554   23843329.0034   23843322.533
        45.0004         40.0004
 26  2 22  1 42 30.0000000  0  9G08G07G16G04G27G09G31G26G18
 -15352916.04749 -11916767.57348  21275292.6474   21275299.8774   21275292.382
        56.0004         51.0004
  -3918718.23048  -3003447.90347  24412563.2534   24412568.6014   24412564.604
        49.0004         44.0004
 -22586869.10648 -17543737.45548  20439122.3114   20439125.7434   20439122.385
        53.0004         48.0004
 -11187388.61548  -8667603.08047  22393522.9994   22393528.7884   22393522.875
        48.0004         44.0004
 -23238702.35149 -18060824.64449  20053382.7574   20053388.9194   20053382.683
        60.0004         55.0004
  -8045189.74748  -6225203.99648  22261276.3544   22261282.7914   22261276.155
        53.0004         49.0004
  -5821313.26548  -4484007.52247  23326305.1194   23326310.4124   23326304.572
        50.0004         46.0004
  -9513878.75848  -7334438.66948  22582591.7414   22582599.6144   22582591.953
        53.0004         48.0004
  -7118440.70647  -5510621.45246  23848035.2074   23848041.9664   23848035.907
        45.0004         40.0004
 26  2 22  1 43  0.0000000  0  9G08G07G16G04G27G09G31G26G18
 -15434252.75649 -11980146.81848  21259814.6004   21259822.2574   21259814.986
        56.0004         51.0004
  -4013469.92948  -3077280.35347  24394532.7894   24394538.2274   24394533.091
        49.0004         44.0004
 -22545579.03848 -17511563.41948  20446979.1664   20446983.1084   20446979.763
        53.0004         48.0004
 -11115679.26748  -8611725.72647  22407168.9094   22407174.7284   22407168.758
        48.0004         43.0004
 -23262110.19749 -18079064.53349  20048928.5254   20048934.4904   20048928.345
        60.0004         55.0004
  -8020525.29648  -6205985.01048  22265969.6704   22265976.0344   22265969.767
        53.0004         49.0004
  -5720304.07248  -4405299.17747  23345525.9174   23345532.1734   23345526.030
        50.0004         46.0004
  -9434634.96048  -7272690.36248  22597671.1454   22597679.9724   22597670.521
        53.0004         48.0004
  -7093119.33047  -5490890.56646  23852853.9014   23852860.2594   23852854.163
        45.0004         40.0004
 26  2 22  1 43 30.0000000  0  9G08G07G16G04G27G09G31G26G18
 -15515176.71349 -12043204.43248  21244415.4014   21244423.0594   21244415.449
        56.0004         51.0004
  -4108149.80048  -3151056.85747  24376515.7084   24376521.1904   24376515.774
        49.0004         44.0004
 -22503974.47848 -17479144.32748  20454896.9874   20454900.2044   20454897.237
        53.0004         48.0004
 -11043549.77348  -8555520.99247  22420895.0524   22420899.7514   22420894.904
        48.0004         43.0004
 -23284919.90649 -18096838.34049  20044587.8454   20044594.0904   20044587.783
        60.0004         55.0004
  -7995280.09048  -6186313.49048  22270773.9474   22270780.4384   22270773.668
        53.0004         49.0004
  -5619089.83148  -4326431.06747  23364786.8244   23364792.4444   23364786.479
        50.0004         46.0004
  -9355235.84448  -7210821.01048  22612780.4144   22612789.0294   22612779.873
        53.0004         48.0004
  -7067242.00947  -5470726.47946  23857777.5774   23857784.3284   23857777.410
        44.0004         40.0004
 26  2 22  1 44  0.0000000  0  9G08G07G16G04G27G09G31G26G18
 -15595686.26049 -12105939.13248  21229095.2284   21229102.2544   21229095.012
        56.0004         51.0004
  -4202756.38348  -3224776.26447  24358513.1984   24358517.9234   24358513.541
        49.0004         44.0004
 -22462056.14048 -17446480.73848  20462873.4954   20462877.2364   20462873.771
        53.0004         48.0004
 -10971002.78248  -8498990.93947  22434700.2974   22434705.1994   22434699.500
        48.0004         43.0004
 -23307131.28849 -18114145.92049  20040361.3674   20040367.4694   20040361.212
        60.0004         56.0004
  -7969455.41048  -6166190.43448  22275688.1064   22275694.7904   22275687.837
        53.0004         49.0004
  -5517672.15748  -4247404.43747  23384085.8024   23384092.1444   23384085.194
        50.0004         46.0004
  -9275681.98048  -7148831.10048  22627918.8824   22627926.9294   22627919.200
        52.0004         48.0004
  -7040809.22047  -5450129.55346  23862807.7054   23862814.7664   23862808.311
        44.0004         40.0004
 26  2 22  1 44 30.0000000  0  9G08G07G16G04G27G09G31G26G18
 -15675779.85849 -12168349.72248  21213853.7194   21213861.1504   21213853.472
        56.0004         51.0004
  -4297287.45648  -3298436.83847  24340524.0184   24340528.9454   24340524.572
        49.0004         44.0004
 -22419824.73048 -17413573.18848  20470909.9504   20470913.8464   20470910.464
        53.0004         48.0004
 -10898041.23748  -8442137.85647  22448584.2074   22448590.0324   22448583.841
        48.0004         43.0004
 -23328744.44149 -18130987.34049  20036248.4574   20036254.7634   20036248.514
        60.0004         56.0004
  -7943052.77948  -6145617.01748  22280711.8804   22280719.5264   22280712.180
        53.0004         48.0004
  -5416052.55248  -4168220.46847  23403423.4934   23403429.7444   23403422.636
        50.0004         46.0004
  -9195974.19448  -7086721.22348  22643086.7994   22643095.4574   22643086.762
        52.0004         48.0004
  -7013821.72647  -5429100.40446  23867943.3204   23867950.3654   23867943.785
        45.0004         40.0004
 26  2 22  1 45  0.0000000  0  9G08G07G16G04G27G09G31G26G18
 -15755455.99249 -12230435.01648  21198691.8824   21198699.0014   21198691.806
        56.0004         51.0004
  -4391741.33948  -3372037.24347  24322550.1074   24322555.4534   24322549.792
        49.0004         44.0004
 -22377281.58148 -17380422.73648  20479005.6854   20479009.1864   20479005.961
        53.0004         48.0004
 -10824667.98448  -8384963.96047  22462546.8494   22462552.2154   22462546.360
        48.0004         43.0004
 -23349759.39249 -18147362.63849  20032249.4034   20032255.7284   20032249.369
        60.0004         56.0004
  -7916073.62648  -6124594.37448  22285846.2874   22285852.7384   22285847.033
        53.0004         49.0004
  -5314232.74348  -4088880.49247  23422799.5554   23422805.8574   23422798.965
        50.0004         46.0004
  -9116113.23748  -7024492.01848  22658283.7664   22658292.6994   22658284.264
        52.0004         48.0004
  -6986280.31147  -5407639.62546  23873183.0474   23873192.6324   23873183.079
        45.0004         40.0004
 26  2 22  1 45 30.0000000  0  9G08G07G16G04G27G09G31G26G18
 -15834712.91749 -12292193.65048  21183609.4114   21183616.5044   21183609.502
        56.0004         51.0004
  -4486116.05448  -3445575.95747  24304590.9064   24304596.1734   24304590.810
        49.0004         44.0004
 -22334427.37948 -17347029.90148  20487160.5184   20487164.4224   20487160.869
        53.0004         48.0004
 -10750885.76448  -8327471.40347  22476586.6394   22476592.9114   22476586.195
        48.0004         43.0004
 -23370176.01149 -18163271.70049  20028364.3284   20028370.4694   20028364.159
        60.0004         56.0004
  -7888519.25348  -6103123.49648  22291090.0814   22291096.7764   22291089.743
        53.0004         49.0004
  -5212213.96548  -4009385.48047  23442213.1234   23442219.0914   23442212.677
        50.0004         46.0004
  -9036099.62448  -6962143.83648  22673510.2374   22673518.5074   22673509.992
        52.0004         48.0004
  -6958185.51147  -5385747.65246  23878532.0894   23878538.7274   23878531.869
        45.0004         40.0004
 26  2 22  1 46  0.0000000  0  9G08G07G16G04G27G09G31G26G18
 -15913549.34949 -12353624.62548  21168607.9104   21168615.0104   21168608.112
        56.0004         51.0004
  -4580409.94848  -3519051.70447  24286647.6734   24286652.6674   24286648.256
        49.0004         44.0004
 -22291263.35848 -17313395.64348  20495374.4874   20495378.3724   20495374.777
        53.0004         48.0004
 -10676697.62748  -8269662.54847  22490703.6224   22490710.2394   22490704.454
        48.0004         43.0004
 -23389994.60349 -18178714.76949  20024592.7634   20024599.0774   20024592.739
        60.0004         55.0004
  -7860391.31148  -6081205.69848  22296442.8284   22296448.8244   22296442.896
        53.0004         49.0004
  -5109998.22748  -3929736.97347  23461663.7294   23461669.9694   23461663.641
        50.0004         46.0004
  -8955934.34948  -6899677.48447  22688765.1794   22688773.6744   22688765.467
        52.0004         47.0004
  -6929538.27947  -5363425.22846  23883982.6214   23883988.6514   23883982.783
        45.0004         40.0004
 26  2 22  1 46 30.0000000  0  9G08G07G16G04G27G09G31G26G18
 -15991963.63349 -12414726.65348  21153685.7294   21153692.7484   21153685.471
        56.0004         51.0004
  -4674621.00348  -3592462.90347  24268719.8184   24268724.7614   24268720.531
        49.0004         44.0004
 -22247790.10948 -17279520.41648  20503647.0314   20503650.6384   20503647.660
        53.0004         48.0004
 -10602106.39348  -8211539.59447  22504898.2954   22504904.3014   22504898.916
        48.0004         43.0004
 -23409215.10849 -18193691.79449  20020935.4404   20020941.5124   20020935.175
        60.0004         56.0004
  -7831691.29548  -6058842.11448  22301903.9884   22301910.6234   22301903.399
        53.0004         49.0004
  -5007586.85348  -3849936.04147  23481152.6854   23481159.2524   23481151.981
        50.0004         46.0004
  -8875618.02448  -6837093.43548  22704049.2714   22704057.3354   22704048.685
        52.0004         48.0004
  -6900339.37447  -5340672.90146  23889539.1694   23889545.5714   23889538.687
        45.0004         40.0004
 26  2 22  1 47  0.0000000  0  9G08G07G16G04G27G09G31G26G18
 -16069954.24049 -12475498.54848  21138844.7004   21138851.6024   21138844.327
        56.0004         51.0004
  -4768747.93048  -3665808.54947  24250808.0824   24250813.6524   24250808.566
        49.0004         44.0004
 -22204008.76048 -17245405.11948  20511978.7024   20511982.0764   20511978.888
        53.0004         48.0004
 -10527114.92247  -8153104.75147  22519169.2854   22519174.9804   22519168.757
        47.0004         43.0004
 -23427837.60249 -18208202.83649  20017391.9234   20017397.7934   20017391.808
        60.0004         56.0004
  -7802420.62248  -6036033.85648  22307474.1434   22307481.0134   22307473.548
        53.0004         49.0004
  -4904981.59748  -3769984.02347  23500677.6064   23500683.8914   23500677.724
        50.0004         45.0004
  -8795151.28548  -6774392.18447  22719361.5884   22719370.2984   22719361.175
        52.0004         47.0004
  -6870589.48447  -5317491.26946  23895201.3584   23895206.7464   23895200.926
        45.0004         40.0004
 26  2 22  1 47 30.0000000  0  9G08G07G16G04G27G09G31G26G18
 -16147519.85849 -12535939.27748  21124084.5164   21124091.4914   21124084.541
        56.0004         51.0004
  -4862788.00148  -3739086.50947  24232912.9854   24232918.0244   24232913.104
        49.0004         45.0004
 -22159920.59948 -17211050.75148  20520368.3014   20520372.0764   20520368.485
        53.0004         48.0004
 -10451726.28547  -8094360.44047  22533515.6734   22533521.9094   22533515.788
        47.0004         43.0004
 -23445862.40249 -18222248.14649  20013961.7224   20013967.8414   20013961.612
        60.0004         56.0004
  -7772581.09248  -6012782.33848  22313152.6944   22313159.3734   22313153.717
        53.0004         49.0004
  -4802184.29048  -3689882.35547  23520239.8504   23520245.8244   23520239.152
        50.0004         45.0004
  -8714535.03048  -6711574.42647  22734702.2304   22734710.6254   22734702.612
        52.0004         47.0004
  -6840289.60547  -5293881.06746  23900965.5044   23900973.1384   23900965.340
        45.0004         40.0004
 26  2 22  1 48  0.0000000  0  9G08G07G16G04G27G09G31G26G18
 -16224658.75149 -12596047.49448  21109405.3334   21109412.5464   21109405.489
        56.0004         51.0004
  -4956739.64248  -3812295.57347  24215034.7504   24215040.0234   24215034.790
        49.0004         45.0004
 -22115526.08448 -17176457.65948  20528816.3274   20528820.3454   20528816.516
        53.0004         48.0004
 -10375943.19147  -8035308.75747  22547935.3664   22547941.9674   22547934.856
        47.0004         43.0004
 -23463289.43849 -18235827.66749  20010645.4104   20010651.5014   20010645.685
        60.0004         56.0004
  -7742174.03648  -5989088.59448  22318938.6504   22318945.4254   22318938.605
        53.0004         49.0004
  -4699196.22248  -3609632.06147  23539838.1274   23539843.1804   23539837.050
        50.0004         45.0004
  -8633769.75648  -6648640.53848  22750071.6964   22750080.1674   22750071.133
        52.0004         48.0004
  -6809440.39847  -5269842.81546  23906837.2314   23906843.2934   23906836.994
        44.0004         40.0004
 26  2 22  1 48 30.0000000  0  9G08G07G16G04G27G09G31G26G18
 -16301369.62149 -12655822.18648  21094807.4804   21094815.0254   21094807.296
        56.0004         51.0004
  -5050601.16548  -3885434.40747  24197173.4044   24197178.2934   24197173.777
        49.0004         44.0004
 -22070826.34148 -17141626.73148  20537322.1984   20537326.4224   20537322.598
        52.0004         48.0004
 -10299768.75747  -7975952.13647  22562432.0894   22562437.0144   22562431.291
        47.0004         43.0004
 -23480119.02149 -18248941.64349  20007442.9694   20007449.0234   20007442.929
        60.0004         56.0004
  -7711201.22948  -5964954.00548  22324833.0414   22324839.1944   22324833.351
        53.0004         49.0004
  -4596018.99648  -3529234.35847  23559471.5464   23559478.3374   23559470.750
        50.0004         46.0004
  -8552856.35148  -6585591.23548  22765469.1754   22765477.4644   22765469.277
        52.0004         48.0004
  -6778042.88047  -5245377.30946  23912811.2614   23912818.1434   23912810.845
        44.0004         40.0004
 26  2 22  1 49  0.0000000  0  9G08G07G16G04G27G09G31G26G18
 -16377650.95449 -12715262.18148  21080291.9254   21080298.8554   21080291.823
        56.0004         52.0004
  -5144370.25248  -3958501.21547  24179329.9034   24179334.0324   24179330.279
        49.0004         45.0004
 -22025822.31148 -17106558.69348  20545885.9654   20545890.0774   20545886.604
        52.0004         48.0004
 -10223205.83747  -7916292.80447  22577001.1104   22577007.0544   22577000.804
        47.0004         43.0004
 -23496351.31249 -18261590.19249  20004353.9374   20004360.1704   20004353.936
        60.0004         56.0004
  -7679664.19948  -5940379.74948  22330833.8344   22330841.1974   22330833.308
        53.0004         48.0004
  -4492654.33648  -3448690.61147  23579140.6324   23579147.0164   23579141.018
        50.0004         45.0004
  -8471795.42848  -6522426.97848  22780894.5054   22780903.0204   22780894.530
        52.0004         48.0004
  -6746097.89247  -5220485.20246  23918891.1174   23918897.9274   23918889.712
        44.0004         40.0004
 26  2 22  1 49 30.0000000  0  9G08G07G16G04G27G09G31G26G18
 -16453501.31749 -12774366.35148  21065858.1514   21065865.3194   21065858.339
        56.0004         52.0004
  -5238045.10448  -4031494.59847  24161504.0724   24161508.6144   24161504.020
        49.0004         45.0004
 -21980514.99448 -17071254.33948  20554508.0424   20554511.9874   20554508.501
        52.0004         48.0004
 -10146257.37547  -7856333.04147  22591644.1084   22591649.8324   22591644.323
        47.0004         43.0004
 -23511986.52249 -18273773.48849  20001378.8084   20001384.8404   20001378.649
        60.0004         56.0004
  -7647564.65148  -5915367.17848  22336942.4254   22336949.5544   22336941.944
        53.0004         48.0004
  -4389104.22548  -3368002.36147  23598846.7604   23598852.5914   23598847.080
        50.0004         45.0004
  -8390587.68048  -6459148.30547  22796347.7074   22796356.0294   22796347.317
        52.0004         47.0004
  -6713606.27047  -5195167.14446  23925073.8874   23925081.7864   23925073.881
        44.0004         40.0004
 26  2 22  1 50  0.0000000  0  9G08G07G16G04G27G09G31G26G18
 -16528919.28249 -12833133.58048  21051506.4864   21051513.8554   21051506.571
        56.0004         52.0004
  -5331624.13348  -4104413.30547  24143696.0594   24143700.4364   24143696.446
        49.0004         45.0004
 -21934905.46848 -17035714.48748  20563187.6364   20563191.2734   20563187.624
        52.0004         48.0004
 -10068926.36547  -7796075.19547  22606360.0644   22606365.8284   22606359.334
        47.0004         43.0004
 -23527024.92249 -18285491.74049  19998517.3454   19998523.1894   19998517.315
        60.0004         56.0004
  -7614904.26748  -5889917.59648  22343157.7444   22343164.7764   22343157.517
        53.0004         48.0004
  -4285369.94548  -3287170.61047  23618587.0194   23618592.3034   23618587.415
        50.0004         45.0004
  -8309233.82548  -6395755.78747  22811828.9674   22811837.6474   22811828.549
        52.0004         47.0004
  -6680569.10347  -5169424.00746  23931360.7164   23931368.6164   23931360.570
        45.0004         40.0004
 26  2 22  1 50 30.0000000  0  9G08G07G16G04G27G09G31G26G18
 -16603903.42449 -12891562.77448  21037237.4794   21037244.7004   21037237.422
        56.0004         52.0004
  -5425105.31148  -4177255.77747  24125906.9934   24125912.1314   24125907.634
        49.0004         45.0004
 -21888994.29748 -16999939.58748  20571924.0624   20571928.3974   20571924.165
        52.0004         48.0004
  -9991215.76547  -7735521.55847  22621147.0744   22621153.9194   22621147.541
        47.0004         42.0004
 -23541466.74449 -18296745.11949  19995768.7574   19995774.9984   19995768.754
        60.0004         56.0004
  -7581684.70748  -5864032.28248  22349478.5384   22349486.0894   22349478.289
        53.0004         48.0004
  -4181453.01648  -3206196.50547  23638361.7334   23638367.5554   23638361.771
        50.0004         45.0004
  -8227734.56048  -6332249.95947  22827337.8934   22827346.3714   22827337.484
        52.0004         47.0004
  -6646987.20847  -5143256.40146  23937750.9074   23937757.6484   23937750.364
        44.0004         40.0004
 26  2 22  1 51  0.0000000  0  9G08G07G16G04G27G09G31G26G18
 -16678452.33649 -12949652.82248  21023051.3444   21023058.4954   21023051.189
        56.0004         52.0004
  -5518486.55948  -4250020.37447  24108137.6734   24108142.3254   24108137.337
        49.0004         45.0004
 -21842782.49748 -16963930.43848  20580717.7904   20580721.7954   20580718.221
        52.0004         48.0004
  -9913128.57847  -7674674.48847  22636007.4624   22636013.8944   22636006.901
        47.0004         43.0004
 -23555312.28349 -18307533.86449  19993134.0534   19993140.3604   19993133.956
        60.0004         56.0004
  -7547907.73148  -5837712.61348  22355906.8784   22355913.0114   22355906.521
        53.0004         48.0004
  -4077355.31748  -3125081.57747  23658170.5454   23658176.9894   23658170.572
        50.0004         45.0004
  -8146090.62848  -6268631.40347  22842874.0984   22842882.7524   22842873.776
        52.0004         47.0004
  -6612861.57747  -5116665.11046  23944245.5754   23944251.6544   23944244.877
        44.0004         40.0004
 26  2 22  1 51 30.0000000  0  9G08G07G16G04G27G09G31G26G18
 -16752564.63249 -13007402.65348  21008948.0434   21008955.5094   21008948.183
        56.0004         52.0004
  -5611766.12648  -4322705.73947  24090387.0644   24090391.7314   24090386.404
        50.0004         45.0004
 -21796271.26848 -16927687.96648  20589568.2934   20589572.1744   20589568.997
        52.0004         48.0004
  -9834667.79647  -7613536.28847  22650937.9994   22650943.9804   22650937.492
        47.0004         42.0004
 -23568561.86649 -18317858.22349  19990612.8624   19990618.9744   19990612.640
        60.0004         56.0004
  -7513575.04048  -5810959.91748  22362440.2494   22362446.3594   22362440.110
        53.0004         48.0004
  -3973078.42748  -3043827.00547  23678014.1404   23678020.3384   23678013.988
        49.0004         45.0004
  -8064302.65348  -6204900.59747  22858437.9854   22858446.5794   22858438.007
        52.0004         47.0004
  -6578193.31847  -5089650.98246  23950841.4384   23950849.2364   23950841.591
        44.0004         40.0004
 26  2 22  1 52  0.0000000  0  9G08G07G16G04G27G09G31G26G18
 -16826238.96949 -13064811.22248  20994928.3674   20994935.5684   20994928.545
        56.0004         52.0004
  -5704941.98748  -4395310.28647  24072655.8464   24072661.1884   24072655.800
        50.0004         45.0004
 -21749461.36448 -16891212.77048  20598476.2034   20598480.8394   20598476.672
        52.0004         48.0004
  -9755836.40847  -7552109.31247  22665938.9964   22665945.0204   22665938.767
        47.0004         43.0004
 -23581215.81249 -18327718.45549  19988204.8814   19988210.9934   19988204.744
        60.0004         56.0004
  -7478688.44148  -5783775.61448  22369078.7654   22369085.5064   22369078.350
        53.0004         48.0004
  -3868624.06448  -2962434.12647  23697891.1394   23697897.1204   23697889.660
        49.0004         44.0004
  -7982371.40348  -6141058.15747  22874028.6024   22874037.7134   22874028.948
        52.0004         47.0004
  -6542983.38447  -5062214.76146  23957542.8154   23957549.6874   23957541.663
        44.0004         40.0004
 26  2 22  1 52 30.0000000  0  9G08G07G16G04G27G09G31G26G18
 -16899473.94049 -13121877.42848  20980992.5064   20980999.4484   20980992.903
        56.0004         52.0004
  -5798012.35748  -4467832.62447  24054945.3324   24054950.4524   24054946.014
        50.0004         45.0004
 -21702353.64948 -16854505.50448  20607440.8194   20607444.7894   20607440.728
        52.0004         48.0004
  -9676637.42047  -7490395.91147  22681010.0394   22681016.9204   22681009.584
        47.0004         42.0004
 -23593274.50649 -18337114.85349  19985909.9954   19985916.1894   19985909.865
        60.0004         55.0004
  -7443249.72748  -5756161.08348  22375822.3544   22375829.6854   22375822.065
        53.0004         48.0004
  -3763993.78648  -2880904.19647  23717801.8964   23717808.3264   23717802.543
        49.0004         45.0004
  -7900297.50948  -6077104.58147  22889647.5724   22889656.3844   22889647.159
        52.0004         47.0004
  -6507232.78847  -5034357.26446  23964345.3454   23964352.4824   23964345.634
        44.0004         40.0004
 26  2 22  1 53  0.0000000  0  9G08G07G16G04G27G09G31G26G18
 -16972268.22249 -13178600.23248  20967139.9394   20967147.1864   20967139.641
        56.0004         52.0004
  -5890975.23848  -4540271.21947  24037255.0524   24037259.7914   24037255.131
        50.0004         45.0004
 -21654949.39548 -16817567.16348  20616461.3664   20616465.5454   20616461.541
        52.0004         48.0004
  -9597073.85347  -7428398.40947  22696150.6104   22696157.2614   22696150.188
        47.0004         42.0004
 -23604738.29449 -18346047.68949  19983728.8934   19983734.8034   19983728.766
        60.0004         56.0004
  -7407260.67948  -5728117.72448  22382671.1194   22382678.2514   22382670.756
        53.0004         48.0004
  -3659189.31548  -2799238.53847  23737745.9864   23737751.5594   23737745.892
        49.0004         44.0004
  -7818081.69448  -6013040.40347  22905292.8164   22905301.4564   22905292.317
        52.0004         47.0004
  -6470942.64947  -5006079.34646  23971251.7044   23971258.5434   23971251.960
        44.0004         39.0004
 26  2 22  1 53 30.0000000  0  9G08G07G16G04G27G09G31G26G18
 -17044620.39549 -13234978.53848  20953372.0054   20953378.9994   20953371.854
        57.0004         52.0004
  -5983828.37148  -4612624.28447  24019586.1524   24019591.0154   24019585.870
        50.0004         45.0004
 -21607249.15848 -16780398.19048  20625538.0294   20625542.8484   20625538.762
        52.0004         48.0004
  -9517148.69247  -7366119.14547  22711360.2144   22711365.7594   22711359.903
        47.0004         42.0004
 -23615607.54249 -18354517.24349  19981660.3864   19981666.5394   19981660.250
        60.0004         56.0004
  -7370723.12748  -5699646.95548  22389624.0874   22389631.2844   22389623.852
        53.0004         48.0004
  -3554212.06048  -2717438.22847  23757722.1714   23757728.2704   23757722.686
        49.0004         44.0004
  -7735724.53348  -5948866.08947  22920964.9184   22920973.7234   22920964.791
        52.0004         47.0004
  -6434113.97547  -4977381.79446  23978260.8524   23978267.6544   23978260.043
        44.0004         40.0004
 26  2 22  1 54  0.0000000  0  9G08G07G16G04G27G09G31G26G18
 -17116529.26349 -13291011.41348  20939687.9524   20939695.2514   20939687.367
        57.0004         52.0004
  -6076569.84448  -4684890.34047  24001937.8534   24001942.3924   24001937.780
        50.0004         45.0004
 -21559254.00148 -16742999.41148  20634671.5244   20634675.5784   20634671.868
        52.0004         48.0004
  -9436865.01647  -7303560.52247  22726637.9284   22726643.2644   22726637.673
        47.0004         42.0004
 -23625882.74749 -18362523.90849  19979705.0864   19979711.2974   19979704.832
        60.0004         56.0004
  -7333639.01048  -5670750.29348  22396681.4404   22396687.5154   22396681.089
        53.0004         48.0004
  -3449064.16848  -2635504.95847  23777731.3184   23777737.0534   23777730.576
        49.0004         44.0004
  -7653226.87348  -5884582.30847  22936663.8304   22936673.0254   22936663.868
        52.0004         47.0004
  -6396747.95347  -4948265.53346  23985371.0764   23985377.8884   23985371.121
        44.0004         40.0004
 26  2 22  1 54 30.0000000  0  9G08G07G16G04G27G09G31G26G18
 -17187993.47449 -13346697.81048  20926088.8854   20926095.8194   20926089.150
        57.0004         52.0004
  -6169197.73548  -4757067.91047  23984311.4764   23984315.7604   23984311.438
        50.0004         45.0004
 -21510964.81448 -16705371.52248  20643860.8744   20643864.9964   20643860.865
        52.0004         48.0004
  -9356225.84447  -7240724.87947  22741982.6504   22741989.4594   22741981.715
        47.0004         42.0004
 -23635564.33149 -18370068.01349  19977862.7454   19977868.8564   19977862.610
        60.0004         56.0004
  -7296010.11448  -5641429.13148  22403841.5664   22403848.4744   22403842.173
        53.0004         48.0004
  -3343746.99148  -2553439.77847  23797772.0954   23797779.2954   23797772.384
        49.0004         44.0004
  -7570589.28948  -5820189.47747  22952388.8424   22952397.8664   22952388.968
        51.0004         47.0004
  -6358845.63047  -4918731.36446  23992582.6724   23992590.9884   23992582.011
        44.0004         39.0004
 26  2 22  1 55  0.0000000  0  9G08G07G16G04G27G09G31G26G18
 -17259011.73149 -13402036.70448  20912574.4444   20912581.4514   20912574.482
        57.0004         52.0004
  -6261710.15548  -4829155.49747  23966706.6104   23966711.3174   23966706.580
        50.0004         45.0004
 -21462382.53348 -16667515.23248  20653105.6974   20653110.2704   20653106.185
        52.0004         48.0004
  -9275234.30847  -7177614.68047  22757395.8624   22757401.6484   22757394.805
        47.0004         42.0004
 -23644652.75649 -18377149.91449  19976133.2304   19976139.5224   19976132.898
        60.0004         56.0004
  -7257838.40748  -5611684.99948  22411105.3914   22411112.4064   22411105.289
        53.0004         48.0004
  -3238262.20048  -2471244.01347  23817845.0984   23817852.0844   23817844.897
        49.0004         44.0004
  -7487812.51248  -5755688.19047  22968141.1434   22968150.3354   22968141.288
        51.0004         47.0004
  -6320408.25247  -4888780.27046  23999898.1574   23999904.9054   23999897.581
        44.0004         39.0004
 26  2 22  1 55 30.0000000  0  9G08G07G16G04G27G09G31G26G18
 -17329582.70849 -13457027.06948  20899145.3664   20899152.3234   20899145.216
        57.0004         52.0004
  -6354104.75048  -4901151.25347  23949124.2204   23949129.3034   23949123.709
        50.0004         45.0004
 -21413508.16248 -16629431.35748  20662406.0874   20662410.4754   20662406.565
        52.0004         48.0004
  -9193893.36647  -7114232.20747  22772874.1494   22772880.3984   22772872.598
        47.0004         42.0004
 -23653148.47449 -18383769.96149  19974516.6894   19974522.8754   19974516.723
        60.0004         56.0004
  -7219125.75848  -5581519.35548  22418472.5484   22418479.3414   22418472.724
        53.0004         48.0004
  -3132611.32748  -2388918.80447  23837950.4064   23837956.8794   23837950.660
        49.0004         44.0004
  -7404897.12648  -5691078.89347  22983919.3714   22983928.1954   22983919.642
        51.0004         46.0004
  -6281436.92147  -4858413.11646  24007312.8884   24007320.9254   24007314.057
        44.0004         39.0004
 26  2 22  1 56  0.0000000  0  9G08G07G16G04G27G09G31G26G18
 -17399705.20449 -13511667.96748  20885801.2944   20885808.5754   20885801.609
        57.0004         52.0004
  -6446380.14848  -4973054.14247  23931565.0254   23931569.7384   23931564.828
        50.0004         45.0004
 -21364342.49648 -16591120.50248  20671762.0844   20671766.5354   20671762.459
        52.0004         48.0004
  -9112206.11747  -7050579.89647  22788418.6754   22788424.7304   22788417.855
        47.0004         42.0004
 -23661052.05849 -18389928.61249  19973012.6444   19973018.7354   19973012.637
        60.0004         56.0004
  -7179874.15648  -5550933.75348  22425941.9824   22425948.1954   22425942.072
        53.0004         48.0004
  -3026796.54948  -2306465.91247  23858086.4054   23858092.3294   23858086.843
        49.0004         44.0004
  -7321843.95548  -5626362.22247  22999724.0704   22999732.5674   22999723.866
        51.0004         46.0004
  -6241932.86547  -4827630.85746  24014831.0474   24014838.1774   24014830.569
        44.0004         39.0004
 26  2 22  1 56 30.0000000  0  9G08G07G16G04G27G09G31G26G18
 -17469377.94749 -13565958.40948  20872543.2834   20872550.1874   20872543.156
        57.0004         52.0004
  -6538534.24848  -5044862.50747  23914028.4224   23914033.7054   23914028.352
        50.0004         46.0004
 -21314886.71448 -16552583.57148  20681173.3754   20681177.1004   20681173.758
        52.0004         48.0004
  -9030175.66447  -6986660.13947  22804028.1884   22804034.2254   22804027.903
        47.0004         42.0004
 -23668364.01249 -18395626.25049  19971620.9474   19971627.2304   19971620.643
        60.0004         56.0004
  -7140085.53348  -5519929.68948  22433512.7804   22433519.9324   22433512.402
        53.0004         48.0004
  -2920819.15048  -2223886.28147  23878253.4294   23878259.8464   23878251.688
        49.0004         44.0004
  -7238653.56348  -5561538.63047  23015554.5084   23015563.4524   23015554.857
        51.0004         46.0004
  -6201897.25347  -4796434.40946  24022449.3474   24022456.7974   24022449.647
        44.0004         39.0004
 26  2 22  1 57  0.0000000  0  9G08G07G16G04G27G09G31G26G18
 -17538599.68449 -13619897.42548  20859370.7994   20859377.7524   20859370.669
        57.0004         52.0004
  -6630564.60748  -5116574.44247  23896516.4204   23896521.2544   23896515.574
        50.0004         46.0004
 -21265141.43948 -16513821.06148  20690639.2994   20690643.2574   20690639.895
        52.0004         48.0004
  -8947805.01947  -6922475.30647  22819702.7564   22819709.2024   22819702.662
        47.0004         42.0004
 -23675084.85349 -18400863.27649  19970342.3044   19970348.4304   19970342.078
        60.0004         56.0004
  -7099761.85348  -5488508.70048  22441186.3924   22441193.3354   22441186.206
        53.0004         48.0004
  -2814680.59448  -2141181.08047  23898450.1744   23898457.4524   23898450.197
        49.0004         44.0004
  -7155326.60248  -5496608.62547  23031411.0884   23031419.8444   23031411.476
        51.0004         47.0004
  -6161331.28447  -4764824.67846  24030168.3164   24030176.5324   24030168.720
        44.0004         39.0004
 26  2 22  1 57 30.0000000  0  9G08G07G16G04G27G09G31G26G18
 -17607369.21049 -13673484.06848  20846284.2684   20846291.3124   20846284.440
        57.0004         52.0004
  -6722469.48148  -5188188.60647  23879027.3114   23879031.9834   23879027.251
        51.0004         46.0004
 -21215107.83548 -16474833.88348  20700160.9844   20700165.1314   20700161.188
        52.0004         48.0004
  -8865097.31447  -6858027.82147  22835442.0094   22835448.2344   22835441.375
        47.0004         42.0004
 -23681215.22449 -18405640.19849  19969175.6084   19969181.8944   19969175.445
        60.0004         56.0004
  -7058905.16148  -5456672.36548  22448961.2394   22448968.2774   22448960.485
        53.0004         48.0004
  -2708383.22448  -2058352.12247  23918678.2214   23918686.2074   23918678.561
        49.0004         44.0004
  -7071863.86348  -5431572.81347  23047293.7144   23047302.8224   23047293.999
        51.0004         47.0004
  -6120236.29047  -4732802.70946  24037988.7124   24037996.1774   24037987.996
        44.0004         39.0004
 26  2 22  1 58  0.0000000  0  9G08G07G16G04G27G09G31G26G18
 -17675685.31849 -13726717.39148  20833284.3304   20833291.3524   20833284.842
        57.0004         52.0004
  -6814247.18648  -5259703.68947  23861562.6814   23861567.2704   23861562.763
        51.0004         46.0004
 -21164786.67448 -16435622.63348  20709736.8134   20709740.9904   20709737.580
        52.0004         48.0004
  -8782055.67647  -6793320.14747  22851244.2024   22851250.3474   22851244.097
        47.0004         42.0004
 -23686755.71849 -18409957.47749  19968121.3774   19968127.5724   19968121.253
        60.0004         56.0004
  -7017517.52648  -5424422.33148  22456836.7714   22456844.2194   22456836.375
        53.0004         48.0004
  -2601928.36348  -1975400.46447  23938936.9834   23938944.5754   23938937.834
        49.0004         44.0004
  -6988265.91148  -5366431.64547  23063201.7894   23063211.4894   23063202.280
        51.0004         47.0004
  -6078613.49147  -4700369.47346  24045909.7814   24045916.8124   24045908.958
        44.0004         39.0004
 26  2 22  1 58 30.0000000  0  9G08G07G16G04G27G09G31G26G18
 -17743546.76049 -13779596.43148  20820370.5124   20820377.5204   20820370.232
        57.0004         52.0004
  -6905894.97848  -5331117.51447  23844122.2464   23844127.1614   23844121.797
        50.0004         46.0004
 -21114178.98948 -16396188.12048  20719367.0414   20719370.9874   20719367.085
        52.0004         48.0004
  -8698683.06847  -6728354.54547  22867109.8414   22867116.1524   22867109.149
        46.0004         42.0004
 -23691706.83849 -18413815.49949  19967179.1314   19967185.3594   19967178.832
        60.0004         56.0004
  -6975600.87048  -5391760.07548  22464813.7894   22464820.7494   22464813.984
        53.0004         48.0004
  -2495317.70848  -1892327.39247  23959225.0674   23959231.2814   23959224.377
        49.0004         44.0004
  -6904533.37848  -5301185.60847  23079135.6874   23079145.5624   23079135.592
        51.0004         47.0004
  -6036464.09547  -4667525.90046  24053930.0144   24053938.1844   24053930.076
        44.0004         39.0004
 26  2 22  1 59  0.0000000  0  9G08G07G16G04G27G09G31G26G18
 -17810952.41149 -13832120.31048  20807543.4494   20807550.7614   20807543.404
        57.0004         52.0004
  -6997411.20248  -5402428.83047  23826707.7024   23826712.3754   23826707.926
        51.0004         46.0004
 -21063285.52948 -16356530.92648  20729051.8424   20729055.8924   20729052.297
        52.0004         48.0004
  -8614982.74947  -6663133.60547  22883036.9004   22883044.0304   22883036.943
        46.0004         42.0004
 -23696069.37349 -18417214.88849  19966349.0354   19966355.3214   19966349.056
        60.0004         56.0004
  -6933157.37648  -5358687.28448  22472890.9704   22472897.8384   22472890.767
        53.0004         48.0004
  -2388553.04948  -1809134.31447  23979541.5164   23979548.5084   23979541.401
        49.0004         44.0004
  -6820667.00848  -5235835.28247  23095095.4464   23095104.3734   23095095.875
        51.0004         47.0004
  -5993789.55447  -4634273.10746  24062052.1264   24062060.2474   24062051.257
        44.0004         39.0004
 26  2 22  1 59 30.0000000  0  9G08G07G16G04G27G09G31G26G18
 -17877901.08849 -13884288.10448  20794803.8934   20794810.8854   20794803.537
        57.0004         52.0004
  -7088793.80548  -5473636.02647  23809318.5204   23809322.7144   23809318.356
        51.0004         46.0004
 -21012107.13048 -16316651.70348  20738790.6344   20738794.7474   20738791.001
        52.0004         48.0004
  -8530957.73747  -6597659.64246  22899026.6004   22899033.5324   22899026.783
        46.0004         41.0004
 -23699843.87549 -18420156.06649  19965630.7654   19965637.0974   19965630.960
        60.0004         56.0004
  -6890189.07248  -5325205.55748  22481067.3824   22481074.1954   22481067.911
        53.0004         48.0004
  -2281636.07148  -1725822.55447  23999887.5234   23999894.2524   23999887.196
        49.0004         44.0004
  -6736667.41048  -5170381.13947  23111079.7464   23111089.4114   23111079.978
        51.0004         47.0004
  -5950591.06647  -4600612.06346  24070273.4074   24070280.0294   24070272.552
        44.0004         39.0004
 26  2 22  2  0  0.0000000  0  9G08G07G16G04G27G09G31G26G18
 -17944391.69849 -13936098.97248  20782151.2904   20782158.2584   20782150.938
        57.0004         53.0004
  -7180040.74248  -5544737.50847  23791953.6084   23791958.5644   23791954.084
        51.0004         46.0004
 -20960645.13148 -16276551.49348  20748583.9964   20748587.3754   20748583.927
        52.0004         48.0004
  -8446611.26647  -6531935.21346  22915077.4884   22915083.1584   22915076.949
        46.0004         41.0004
 -23703031.13949 -18422639.65649  19965024.2734   19965030.6014   19965024.204
        60.0004         56.0004
  -6846698.12848  -5291316.57448  22489343.1664   22489350.3444   22489342.611
        52.0004         48.0004
  -2174568.40148  -1642393.41347  24020261.1354   24020268.2944   24020261.280
        49.0004         44.0004
  -6652535.29848  -5104823.74647  23127089.3624   23127099.0024   23127089.517
        51.0004         46.0004
  -5906870.11847  -4566543.88946  24078591.4764   24078599.1014   24078591.492
        44.0004         39.0004
 26  2 22  2  0 30.0000000  0  9G08G07G16G04G27G09G31G26G18
 -18010423.01849 -13987551.95048  20769585.9404   20769593.0504   20769586.115
        57.0004         53.0004
  -7271149.87048  -5615731.60847  23774616.3334   23774621.4434   23774616.360
        51.0004         46.0004
 -20908900.23348 -16236230.85148  20758430.6544   20758434.5224   20758430.900
        52.0004         48.0004
  -8361946.32947  -6465962.62246  22931188.9504   22931195.8134   22931187.875
        46.0004         41.0004
 -23705631.75349 -18424666.11749  19964529.2994   19964535.6304   19964529.312
        60.0004         56.0004
  -6802686.61348  -5257021.94448  22497718.2374   22497725.5574   22497717.448
        52.0004         48.0004
  -2067351.88248  -1558848.23747  24040663.8394   24040671.2234   24040663.813
        49.0004         44.0004
  -6568271.26148  -5039163.55647  23143124.1854   23143134.0174   23143124.648
        51.0004         46.0004
  -5862627.99347  -4532069.59946  24087012.0754   24087018.7374   24087011.048
        44.0004         39.0004
 26  2 22  2  1  0.0000000  0  9G08G07G16G04G27G09G31G26G18
 -18075993.97849 -14038646.20548  20757108.1634   20757115.4584   20757107.865
        57.0004         53.0004
  -7362119.12148  -5686616.70847  23757305.5764   23757310.3904   23757305.523
        51.0004         46.0004
 -20856873.25748 -16195690.39548  20768330.9474   20768334.5354   20768331.293
        52.0004         48.0004
  -8276966.11847  -6399744.37146  22947359.8174   22947366.9224   22947359.422
        46.0004         41.0004
 -23707646.54249 -18426236.09549  19964145.9704   19964152.2064   19964145.983
        60.0004         56.0004
  -6758156.70448  -5222323.38948  22506191.8854   22506199.3054   22506192.003
        52.0004         48.0004
  -1959987.82448  -1475188.11247  24061094.5184   24061101.9894   24061093.350
        49.0004         44.0004
  -6483876.04348  -4973401.15047  23159183.8024   23159193.7924   23159184.013
        51.0004         46.0004
  -5817866.08647  -4497190.28446  24095529.7384   24095536.2064   24095529.811
        44.0004         39.0004
 26  2 22  2  1 30.0000000  0  9G08G07G16G04G27G09G31G26G18
 -18141103.40649 -14089380.81848  20744717.8944   20744725.1384   20744717.963
        57.0004         53.0004
  -7452946.61148  -5757391.35247  23740021.6544   23740026.4314   23740021.464
        51.0004         46.0004
 -20804565.11348 -16154930.85647  20778284.9194   20778288.4904   20778285.268
        52.0004         47.0004
  -8191673.73847  -6333282.85646  22963590.5144   22963597.6004   22963590.288
        46.0004         41.0004
 -23709076.14749 -18427350.08649  19963873.9614   19963880.3124   19963874.080
        60.0004         56.0004
  -6713110.48248  -5187222.51348  22514764.2454   22514771.0184   22514764.128
        52.0004         48.0004
  -1852478.12848  -1391414.52447  24081553.0624   24081560.4674   24081552.598
        49.0004         44.0004
  -6399350.13448  -4907536.90647  23175268.9344   23175278.9324   23175269.098
        51.0004         46.0004
  -5772585.76547  -4461907.01946  24104147.0714   24104152.4924   24104145.913
        44.0004         39.0004
 26  2 22  2  2  0.0000000  0  9G08G07G16G04G27G09G31G26G18
 -18205750.28749 -14139755.00748  20732416.1434   20732422.9904   20732415.924
        57.0004         53.0004
  -7543630.22148  -5828053.89247  23722765.4204   23722769.8714   23722764.968
        51.0004         46.0004
 -20751976.84548 -16113953.03847  20788291.9374   20788296.0384   20788292.015
        52.0004         47.0004
  -8106072.39847  -6266580.60646  22979879.7804   22979886.3934   22979879.462
        46.0004         41.0004
 -23709921.42449 -18428008.75149  19963713.0444   19963719.4254   19963713.266
        60.0004         56.0004
  -6667550.24448  -5151721.10648  22523434.2034   22523440.9884   22523433.726
        52.0004         48.0004
  -1744824.89148  -1307529.07247  24102039.8634   24102047.2074   24102040.032
        49.0004         44.0004
  -6314694.35948  -4841571.47247  23191378.9634   23191388.5064   23191379.937
        51.0004         46.0004
  -5726788.59547  -4426221.00946  24112861.4214   24112868.1694   24112860.880
        44.0004         39.0004
 26  2 22  2  2 30.0000000  0  9G08G07G16G04G27G09G31G26G18
 -18269933.51449 -14189767.90348  20720202.4074   20720209.7584   20720202.355
        57.0004         53.0004
  -7634167.77448  -5898602.60047  23705536.0914   23705541.4514   23705536.087
        51.0004         46.0004
 -20699109.02448 -16072757.38847  20798352.3014   20798356.7354   20798352.782
        52.0004         47.0004
  -8020165.17647  -6199639.99846  22996227.8654   22996233.8234   22996227.369
        46.0004         41.0004
 -23710183.13049 -18428212.69349  19963663.4044   19963669.5604   19963663.128
        60.0004         56.0004
  -6621478.17648  -5115820.85648  22532201.2394   22532208.3154   22532201.271
        52.0004         48.0004
  -1637029.32348  -1223532.73447  24122552.4954   24122559.0424   24122553.258
        48.0004         44.0004
  -6229909.28848  -4775505.28147  23207512.8914   23207522.2444   23207512.798
        50.0004         46.0004
  -5680475.90247  -4390133.28646  24121674.4594   24121682.1214   24121673.898
        44.0004         39.0004
 26  2 22  2  3  0.0000000  0  9G08G07G16G04G27G09G31G26G18
 -18333652.07149 -14239418.72648  20708077.3794   20708084.3814   20708077.319
        57.0004         53.0004
  -7724556.99948  -5969035.72747  23688335.9244   23688340.9294   23688335.943
        51.0004         46.0004
 -20645962.86648 -16031344.83747  20808465.8134   20808469.9304   20808466.145
        52.0004         47.0004
  -7933955.26747  -6132463.53546  23012632.2154   23012638.5304   23012632.731
        46.0004         41.0004
 -23709862.08649 -18427962.54849  19963724.4784   19963730.6024   19963724.590
        60.0004         56.0004
  -6574896.52248  -5079523.53548  22541065.9944   22541073.2444   22541066.217
        52.0004         48.0004
  -1529093.48448  -1139427.06947  24143092.1844   24143098.9434   24143092.269
        48.0004         43.0004
  -6144995.58048  -4709338.86647  23223671.7464   23223680.6944   23223671.683
        50.0004         46.0004
  -5633649.19847  -4353645.04546  24130584.8064   24130592.5954   24130584.064
        44.0004         39.0004
 26  2 22  2  3 30.0000000  0  9G08G07G16G04G27G09G31G26G18
 -18396904.81249 -14288706.57048  20696040.5894   20696047.7274   20696040.654
        57.0004         53.0004
  -7814796.14048  -6039351.92847  23671164.5424   23671169.2184   23671163.941
        51.0004         47.0004
 -20592539.28848 -15989716.11647  20818632.1954   20818636.2654   20818632.762
        52.0004         47.0004
  -7847445.76247  -6065053.61546  23029095.4094   23029101.7254   23029095.550
        46.0004         41.0004
 -23708959.07249 -18427258.91949  19963896.3174   19963902.4534   19963896.186
        60.0004         56.0004
  -6527807.46448  -5042830.82948  22550026.5604   22550033.7094   22550026.477
        53.0004         48.0004
  -1421019.04248  -1055213.40847  24163657.9224   24163664.5914   24163657.604
        48.0004         43.0004
  -6059953.87248  -4643072.70747  23239854.8564   23239863.6554   23239854.304
        50.0004         46.0004
  -5586309.91547  -4316757.37646  24139592.6134   24139600.4714   24139592.579
        44.0004         39.0004
 26  2 22  2  4  0.0000000  0  9G08G07G16G04G27G09G31G26G18
 -18459690.77349 -14337630.69048  20684092.9384   20684100.0924   20684092.638
        57.0004         53.0004
  -7904882.95548  -6109549.42347  23654020.9604   23654026.0174   23654020.886
        51.0004         46.0004
 -20538839.03848 -15947871.81547  20828850.5834   20828854.6544   20828851.449
        52.0004         47.0004
  -7760639.89847  -5997412.78446  23045613.5974   23045620.3434   23045614.358
        46.0004         41.0004
 -23707474.99749 -18426102.51349  19964178.6154   19964184.9794   19964178.375
        60.0004         56.0004
  -6480213.29848  -5005744.53248  22559083.3304   22559090.7604   22559083.237
        53.0004         48.0004
  -1312807.80648   -970893.17647  24184249.8524   24184257.0364   24184249.653
        48.0004         43.0004
  -5974784.80848  -4576707.31847  23256061.9214   23256070.7404   23256062.410
        50.0004         46.0004
  -5538459.57947  -4279471.50346  24148699.9524   24148706.7184   24148699.691
        44.0004         39.0004
 26  2 22  2  4 30.0000000  0  9G08G07G16G04G27G09G31G26G18
 -18522008.87549 -14386190.23848  20672233.9404   20672241.4494   20672234.010
        57.0004         53.0004
  -7994815.24348  -6179626.49247  23636906.5964   23636912.4534   23636906.784
        51.0004         47.0004
 -20484863.01648 -15905812.61847  20839122.1984   20839126.4094   20839122.803
        52.0004         47.0004
  -7673540.73747  -5929543.39246  23062187.5504   23062194.3544   23062187.496
        46.0004         41.0004
 -23705410.62249 -18424493.92449  19964571.6414   19964577.7624   19964571.658
        60.0004         56.0004
  -6432116.22448  -4968266.36448  22568236.4224   22568243.4384   22568236.600
        52.0004         48.0004
  -1204461.31047   -886467.53547  24204867.4864   24204875.0414   24204867.263
        47.0004         42.0004
  -5889488.95048  -4510243.11947  23272293.1454   23272301.5854   23272293.410
        50.0004         45.0004
  -5490099.65447  -4241788.56446  24157902.1534   24157908.3704   24157900.573
        44.0004         39.0004
 26  2 22  2  5  0.0000000  0 10G08G07G16G04G02G27G09G31G26G18
 -18583858.20549 -14434384.51448  20660464.3734   20660471.8334   20660464.584
        57.0004         53.0004
  -8084591.13548  -6249581.70247  23619823.1174   23619827.8804   23619823.025
        51.0004         46.0004
 -20430612.33548 -15863539.40847  20849445.3244   20849449.6834   20849445.982
        52.0004         47.0004
  -7586151.57347  -5861448.01946  23078818.1294   23078824.8384   23078817.139
        46.0004         41.0004
                                                                  24501536.499

 -23702766.96749 -18422433.95649  19965074.7994   19965080.9174   19965074.752
        60.0004         56.0004
  -6383518.69548  -4930398.21348  22577483.5164   22577491.2274   22577483.590
        52.0004         48.0004
  -1095981.23647   -801937.81147  24225511.0804   24225517.3564   24225510.328
        47.0004         42.0004
  -5804067.11348  -4443680.75547  23288548.5874   23288557.8594   23288548.636
        50.0004         46.0004
  -5441231.83247  -4203709.86046  24167200.3934   24167207.7364   24167199.619
        43.0004         39.0004
 26  2 22  2  5 30.0000000  0 10G08G07G16G04G02G27G09G31G26G18
 -18645237.75049 -14482212.71648  20648784.3494   20648791.5064   20648784.328
        57.0004         53.0004
  -8174208.22148  -6319413.17347  23602769.8704   23602774.5334   23602769.554
        51.0004         46.0004
 -20376087.75748 -15821052.77647  20859821.4034   20859825.7304   20859821.383
        52.0004         47.0004
  -7498475.50847  -5793129.10846  23095502.5104   23095509.2494   23095501.494
        46.0004         41.0004
                                                                  24480106.374

 -23699544.88449 -18419923.26549  19965687.8314   19965694.0274   19965688.073
        60.0004         56.0004
  -6334422.94548  -4892141.85947  22586826.7234   22586833.3454   22586825.872
        52.0004         47.0004
   -987369.57947   -717305.56447  24246179.1794   24246187.1514   24246179.874
        47.0004         42.0004
  -5718519.82248  -4377020.65247  23304827.8464   23304836.8294   23304827.904
        50.0004         46.0004
  -5391857.51147  -4165236.49146  24176596.9504   24176603.9164   24176596.131
        43.0004         39.0004
 26  2 22  2  6  0.0000000  0 10G08G07G16G04G02G27G09G31G26G18
 -18706146.48449 -14529674.06448  20637193.9154   20637201.0264   20637194.149
        57.0004         53.0004
  -8263664.61348  -6389119.42947  23585746.8704   23585752.1144   23585746.083
        51.0004         47.0004
 -20321289.89148 -15778353.19547  20870249.0634   20870254.0514   20870249.802
        52.0004         47.0004
  -7410515.72347  -5724589.10846  23112241.4404   23112246.1174   23112240.699
        46.0004         41.0004
   -261313.10048   -144059.83646  24458675.8524   24458685.8834   24458677.605
        50.0004         36.0004
 -23695745.27849 -18416962.55749  19966410.8804   19966417.1854   19966410.894
        60.0004         56.0004
  -6284831.29448  -4853499.09947  22596263.8904   22596270.8594   22596264.654
        52.0004         47.0004
   -878627.93347   -632572.01047  24266871.4864   24266879.8164   24266871.614
        47.0004         42.0004
  -5632847.68348  -4310263.26047  23321131.4354   23321139.8564   23321131.962
        50.0004         46.0004
  -5341978.30147  -4126369.70946  24186088.3184   24186095.3634   24186088.483
        43.0004         39.0004
 26  2 22  2  6 30.0000000  0 10G08G07G16G04G02G27G09G31G26G18
 -18766583.56649 -14576767.89048  20625692.8354   20625700.4294   20625692.612
        58.0004         53.0004
  -8352958.63448  -6458699.16447  23568754.8074   23568759.1534   23568755.241
        51.0004         47.0004
 -20266219.96648 -15735441.60447  20880729.0514   20880732.9934   20880729.164
        52.0004         47.0004
  -7322275.45747  -5655830.54846  23129032.4204   23129038.7734   23129031.710
        46.0004         41.0004
   -373902.05747   -231790.97746  24437253.0394   24437262.4624   24437252.195
        45.0004         36.0004
 -23691369.16549 -18413552.62349  19967243.5354   19967249.9294   19967243.275
        60.0004         56.0004
  -6234746.18248  -4814471.81647  22605794.4844   22605802.0744   22605794.470
        52.0004         47.0004
   -769758.04047   -547738.53147  24287589.7374   24287598.4204   24287588.003
        47.0004         42.0004
  -5547051.44848  -4243409.15047  23337457.6844   23337466.5384   23337456.491
        50.0004         45.0004
  -5291595.92147  -4087110.83246  24195676.7014   24195684.4334   24195675.939
        44.0004         39.0004
 26  2 22  2  7  0.0000000  0 10G08G07G16G04G02G27G09G31G26G18
 -18826547.96649 -14623493.38948  20614282.1194   20614289.5694   20614281.963
        58.0004         53.0004
  -8442087.27748  -6528150.03947  23551794.3524   23551799.2134   23551794.134
        51.0004         47.0004
 -20210879.07548 -15692318.88947  20891259.9814   20891263.6654   20891260.206
        52.0004         47.0004
  -7233757.81647  -5586855.87446  23145876.6954   23145882.3824   23145876.314
        46.0004         41.0004
   -486470.81647   -319506.38246  24415831.8484   24415838.1184   24415830.784
        42.0004         36.0004
 -23686417.46649 -18409694.18349  19968186.2224   19968192.2944   19968186.209
        60.0004         56.0004
  -6184169.89248  -4775061.78947  22615418.2274   22615426.7174   22615417.960
        52.0004         47.0004
   -660761.55847   -462806.48947  24308330.6714   24308338.7334   24308329.408
        47.0004         42.0004
  -5461131.64748  -4176458.76147  23353807.3744   23353816.9954   23353807.147
        50.0004         45.0004
  -5240711.78747  -4047460.99746  24205359.5454   24205367.6104   24205359.315
        44.0004         39.0004
 26  2 22  2  7 30.0000000  0 10G08G07G16G04G02G27G09G31G26G18
 -18886038.73949 -14669849.82848  20602961.5894   20602968.5974   20602961.959
        58.0004         53.0004
  -8531048.79148  -6597470.70247  23534866.0314   23534870.3564   23534865.182
        51.0004         47.0004
 -20155267.64348 -15648985.36047  20901842.0344   20901846.6444   20901842.482
        52.0004         47.0004
  -7144966.03047  -5517667.56346  23162774.0254   23162780.1934   23162773.283
        46.0004         41.0004
   -599016.79546   -407204.00046  24394412.8424   24394422.0184   24394414.116
        41.0004         36.0004
 -23680891.11649 -18405387.96649  19969237.6094   19969243.8894   19969237.768
        60.0004         56.0004
  -6133104.78648  -4735270.89847  22625136.5994   22625143.8004   22625136.300
        52.0004         47.0004
   -551640.14047   -377777.03847  24329096.4474   24329103.5674   24329096.261
        47.0004         43.0004
  -5375088.93948  -4109412.61247  23370180.8424   23370189.5464   23370180.659
        50.0004         45.0004
  -5189327.59247  -4007421.51646  24215136.8864   24215145.9164   24215137.959
        44.0004         39.0004
 26  2 22  2  8  0.0000000  0 10G08G07G16G04G02G27G09G31G26G18
 -18945055.04349 -14715836.55548  20591731.0754   20591738.2664   20591730.640
        58.0004         53.0004
  -8619840.96548  -6666659.39747  23517968.8154   23517973.2544   23517969.809
        51.0004         47.0004
 -20099386.86048 -15605441.93947  20912476.1014   20912480.2114   20912476.274
        51.0004         47.0004
  -7055903.29847  -5448268.15146  23179721.6654   23179728.0744   23179722.092
        46.0004         41.0004
   -711536.85646   -494881.42446  24373002.5604   24373009.6094   24373002.043
        41.0004         37.0004
 -23674791.21449 -18400634.82549  19970398.3594   19970404.7124   19970398.311
        60.0004         56.0004
  -6081553.37848  -4695101.04947  22634946.1624   22634953.5334   22634946.039
        52.0004         47.0004
   -442395.69848   -292651.74747  24349886.0134   24349892.7034   24349885.642
        48.0004         43.0004
  -5288923.99248  -4042271.20447  23386577.3664   23386587.1744   23386576.814
        50.0004         45.0004
  -5137445.01347  -3966993.67846  24225009.2794   24225017.8504   24225009.731
        43.0004         39.0004
 26  2 22  2  8 30.0000000  0 10G08G07G16G04G02G27G09G31G26G18
 -19003595.97549 -14761452.86748  20580591.2564   20580598.1614   20580591.375
        58.0004         53.0004
  -8708461.87548  -6735714.63247  23501104.8734   23501109.5414   23501104.661
        51.0004         47.0004
 -20043237.28348 -15561689.07047  20923161.2494   20923165.2434   20923161.622
        51.0004         47.0004
  -6966572.83347  -5378660.10946  23196720.1024   23196726.9394   23196720.208
        45.0004         41.0004
   -824028.05946   -582536.34946  24351595.2584   24351602.5814   24351595.281
        41.0004         36.0004
 -23668118.76449 -18395435.54249  19971668.2244   19971674.3854   19971668.268
        60.0004         56.0004
  -6029518.06348  -4654554.12547  22644848.5554   22644855.2914   22644847.985
        52.0004         47.0004
   -333030.21348   -207432.14847  24370698.0134   24370705.2024   24370695.967
        48.0004         43.0004
  -5202637.41648  -3975035.03247  23402997.4194   23403007.0534   23402996.399
        50.0004         45.0004
  -5085065.70447  -3926178.76746  24234977.7514   24234986.3284   24234977.090
        43.0004         38.0004
 26  2 22  2  9  0.0000000  0 10G08G07G16G04G02G27G09G31G26G18
 -19061660.60849 -14806698.03748  20569541.8104   20569548.8154   20569541.512
        58.0004         53.0004
  -8796909.13648  -6804634.56247  23484273.5274   23484278.4014   23484273.610
        51.0004         46.0004
 -19986820.03648 -15517727.62547  20933897.4644   20933900.8724   20933897.378
        51.0004         47.0004
  -6876977.77747  -5308845.89046  23213770.8924   23213776.9484   23213770.609
        46.0004         41.0004
   -936487.60046   -670166.65146  24330193.3604   24330201.8694   24330193.825
        41.0004         36.0004
 -23660874.74049 -18389790.87249  19973046.7284   19973052.9254   19973046.714
        60.0004         56.0004
  -5977001.20548  -4613631.98647  22654842.2434   22654849.6974   22654842.066
        52.0004         47.0004
   -223545.04048   -122119.28247  24391531.1284   24391539.2594   24391531.569
        48.0004         44.0004
  -5116229.80048  -3907704.53747  23419440.2134   23419450.0784   23419440.529
        50.0004         46.0004
  -5032191.29547  -3884978.08446  24245039.1784   24245047.9684   24245038.344
        43.0004         39.0004
 26  2 22  2  9 30.0000000  0 10G08G07G16G04G02G27G09G31G26G18
 -19119248.09149 -14851571.40048  20558583.1204   20558590.4464   20558583.084
        58.0004         53.0004
  -8885180.41448  -6873417.35247  23467476.0974   23467480.9984   23467476.605
        51.0004         47.0004
 -19930135.81248 -15473558.14847  20944683.6404   20944688.0494   20944684.178
        51.0004         47.0004
  -6787121.30547  -5238827.97946  23230869.0944   23230876.1704   23230869.517
        46.0004         41.0004
  -1048912.81746   -757770.22346  24308798.8904   24308806.6814   24308798.847
        41.0004         37.0004
 -23653060.27649 -18383701.70349  19974533.8694   19974539.9774   19974533.917
        60.0004         56.0004
  -5924005.32648  -4572336.59247  22664927.0204   22664934.2084   22664926.753
        52.0004         47.0004
   -113942.14748    -36714.70347  24412388.5214   24412397.1084   24412388.240
        48.0004         44.0004
  -5029701.77648  -3840280.22047  23435905.8944   23435916.3324   23435906.125
        50.0004         46.0004
  -4978823.50147  -3843392.90946  24255194.7604   24255203.5754   24255193.698
        43.0004         38.0004
 26  2 22  2 10  0.0000000  0 10G08G07G16G04G02G27G09G31G26G18
 -19176357.63849 -14896072.35248  20547715.6684   20547722.7394   20547715.864
        58.0004         53.0004
  -8973273.81448  -6942061.52547  23450712.4994   23450717.6124   23450712.603
        51.0004         47.0004
 -19873185.73848 -15429181.52347  20955520.7664   20955525.2664   20955521.046
        51.0004         47.0004
  -6697006.73347  -5168608.94346  23248017.0444   23248024.4004   23248016.732
        45.0004         41.0004
  -1161300.48546   -845344.52646  24287410.6994   24287418.4204   24287410.878
        41.0004         36.0004
 -23644676.41649 -18377168.84749  19976129.2314   19976135.3744   19976128.916
        60.0004         56.0004
  -5870532.89648  -4530669.84647  22675102.6424   22675110.5004   22675102.351
        52.0004         47.0004
     -4223.36348     48780.19947  24433267.7864   24433275.7614   24433268.425
        49.0004         44.0004
  -4943054.03848  -3772762.62347  23452394.8704   23452404.8934   23452394.535
        50.0004         46.0004
  -4924964.05947  -3801424.63746  24265444.3984   24265452.4454   24265444.497
        43.0004         38.0004
 26  2 22  2 10 30.0000000  0 10G08G07G16G04G02G27G09G31G26G18
 -19232988.38049 -14940200.21048  20536939.2794   20536946.3134   20536939.370
        58.0004         53.0004
  -9061187.31948  -7010565.54447  23433983.2014   23433987.8934   23433983.039
        51.0004         47.0004
 -19815970.55948 -15384598.31447  20966408.6464   20966412.7364   20966408.974
        51.0004         47.0004
  -6606637.20747  -5098191.25346  23265214.1434   23265221.2094   23265212.735
        45.0004         41.0004
  -1273647.90446   -932887.49946  24266033.1974   24266040.6094   24266033.332
        41.0004         37.0004
 -23635724.32149 -18370193.19849  19977832.7214   19977839.0524   19977832.765
        60.0004         56.0004
  -5816586.41448  -4488633.71347  22685368.2284   22685375.0134   22685368.612
        52.0004         47.0004
    105609.73548    134364.19047  24454168.1714   24454176.8074   24454167.275
        48.0004         43.0004
  -4856287.17348  -3705152.20747  23468905.7954   23468916.0274   23468905.497
        50.0004         45.0004
  -4870614.65847  -3759074.61446  24275788.1374   24275794.2744   24275787.575
        43.0004         38.0004
 26  2 22  2 11  0.0000000  0 10G08G07G16G04G02G27G09G31G26G18
 -19289139.43549 -14983954.28648  20526254.0924   20526261.0914   20526253.997
        58.0004         53.0004
  -9148918.52948  -7078927.50647  23417288.9044   23417293.6244   23417289.076
        51.0004         47.0004
 -19758491.19448 -15339809.26447  20977346.7004   20977351.1804   20977347.118
        51.0004         47.0004
  -6516015.85147  -5027577.31746  23282458.1134   23282465.7334   23282458.597
        45.0004         40.0004
  -1385951.95046  -1020396.68446  24244662.7214   24244670.2044   24244662.062
        41.0004         37.0004
 -23626205.01049 -18362775.57349  19979644.2634   19979650.6434   19979643.964
        60.0004         56.0004
  -5762168.27548  -4446230.05947  22695723.0214   22695730.2174   22695722.767
        52.0004         47.0004
    215555.38248    220035.86447  24475090.5444   24475098.9684   24475090.476
        48.0004         43.0004
  -4769401.73048  -3637449.39147  23485438.8184   23485449.4504   23485439.741
        50.0004         45.0004
  -4815776.97847  -3716344.11646  24286223.3394   24286230.4844   24286222.220
        43.0004         38.0004
 26  2 22  2 11 30.0000000  0 10G08G07G16G04G02G27G09G31G26G18
 -19344810.12749 -15027334.04948  20515660.0514   20515667.2714   20515660.464
        58.0004         53.0004
  -9236465.32248  -7147145.76047  23400628.9804   23400633.7664   23400628.733
        52.0004         47.0004
 -19700748.38548 -15294814.92447  20988334.7024   20988339.7054   20988334.923
        51.0004         47.0004
  -6425146.07547  -4956769.82846  23299750.4194   23299758.4244   23299750.907
        45.0004         41.0004
  -1498209.89346  -1107869.99346  24223299.2814   24223308.2134   24223298.989
        41.0004         37.0004
 -23616119.76349 -18354916.96249  19981563.4634   19981569.6734   19981563.588
        60.0004         56.0004
  -5707281.19848  -4403460.99147  22706168.3174   22706175.4014   22706168.402
        52.0004         47.0004
    325611.68248    305793.75547  24496034.5394   24496041.1864   24496033.837
        48.0004         43.0004
  -4682398.49248  -3569654.78147  23501995.5574   23502005.9514   23501996.025
        50.0004         45.0004
  -4760452.96247  -3673234.63446  24296751.6134   24296757.9434   24296750.709
        43.0004         38.0004
 26  2 22  2 12  0.0000000  0 10G08G07G16G04G02G27G09G31G26G18
 -19399999.57549 -15070338.81848  20505158.0544   20505165.1724   20505158.277
        58.0004         53.0004
  -9323825.37948  -7215218.50247  23384004.5514   23384010.1124   23384004.213
        52.0004         47.0004
 -19642742.94748 -15249615.91647  20999372.9734   20999377.4034   20999373.498
        51.0004         47.0004
  -6334030.92447  -4885771.12246  23317089.9324   23317097.1634   23317090.462
        45.0004         40.0004
  -1610418.79947  -1195305.10846  24201946.8334   24201956.1964   24201947.436
        42.0004         37.0004
 -23605469.61049 -18346618.16249  19983590.0874   19983596.3394   19983589.799
        60.0004         56.0004
  -5651927.57148  -4360328.38247  22716701.6724   22716709.1704   22716701.828
        51.0004         47.0004
    435777.10448    391636.67447  24516998.2394   24517005.3104   24516998.143
        48.0004         43.0004
  -4595277.88348  -3501768.72347  23518574.1584   23518584.8364   23518574.441
        50.0004         45.0004
  -4704644.23647  -3629747.45446  24307370.8344   24307378.0984   24307369.939
        43.0004         38.0004
 26  2 22  2 12 30.0000000  0 10G08G07G16G04G02G27G09G31G26G18
 -19454707.01449 -15112968.00148  20494747.7614   20494754.8074   20494747.670
        58.0004         53.0004
  -9410996.73748  -7283144.21547  23367416.5264   23367421.5274   23367416.505
        52.0004         47.0004
 -19584476.06148 -15204213.18947  21010460.5244   21010464.6284   21010460.964
        51.0004         47.0004
  -6242673.65847  -4814583.74246  23334474.6744   23334481.7044   23334474.887
        45.0004         40.0004
  -1722575.45647  -1282699.54746  24180605.6874   24180612.5384   24180605.040
        42.0004         38.0004
 -23594255.74449 -18337880.09449  19985723.8834   19985730.3264   19985724.048
        60.0004         56.0004
  -5596109.96348  -4316834.23547  22727323.9904   22727330.5494   22727323.281
        51.0004         47.0004
    546049.77447    477563.16947  24537982.3254   24537990.5524   24537982.123
        47.0004         42.0004
  -4508040.63148  -3433791.76847  23535175.5524   23535185.1274   23535175.642
        50.0004         45.0004
  -4648352.60447  -3585883.98446  24318082.5124   24318090.9644   24318082.554
        43.0004         39.0004
 26  2 22  2 13  0.0000000  0 10G08G07G16G04G02G27G09G31G26G18
 -19508931.76249 -15155221.05749  20484429.0974   20484436.0524   20484428.989
        58.0004         54.0004
  -9497977.21548  -7350921.18047  23350864.6464   23350869.2124   23350864.490
        52.0004         47.0004
 -19525948.38748 -15158607.26247  21021598.2814   21021602.8354   21021598.723
        51.0004         47.0004
  -6151077.54847  -4743210.26346  23351905.6114   23351911.1944   23351905.326
        45.0004         40.0004
  -1834676.85047  -1370050.96446  24159269.6074   24159278.0904   24159271.579
        42.0004         38.0004
 -23582479.44649 -18328703.77649  19987964.7674   19987971.2474   19987964.766
        60.0004         56.0004
  -5539831.05548  -4272980.61747  22738032.7954   22738040.3274   22738032.701
        51.0004         47.0004
    656427.73647    563571.69947  24558985.5364   24558993.9634   24558985.504
        47.0004         42.0004
  -4420687.35448  -3365724.40047  23551798.6384   23551808.0964   23551798.665
        50.0004         45.0004
  -4591579.97247  -3541645.69746  24328886.3094   24328894.7444   24328885.595
        44.0004         39.0004
 26  2 22  2 13 30.0000000  0 10G08G07G16G04G02G27G09G31G26G18
 -19562673.03149 -15197097.37549  20474202.3864   20474209.4224   20474202.575
        58.0004         54.0004
  -9584764.42248  -7418547.55647  23334349.9114   23334354.2524   23334349.530
        52.0004         47.0004
 -19467160.83048 -15112798.84047  21032785.0974   21032789.8204   21032785.465
        51.0004         47.0004
  -6059245.75447  -4671653.13046  23369380.6674   23369386.7784   23369380.154
        45.0004         40.0004
  -1946720.01847  -1457357.07546  24137951.8764   24137958.2194   24137951.640
        42.0004         38.0004
 -23570141.82749 -18319090.06549  19990312.8324   19990319.0954   19990312.922
        60.0004         56.0004
  -5483093.30848  -4228769.48947  22748830.7274   22748837.8844   22748830.368
        51.0004         47.0004
    766909.34147    649661.00946  24580008.9144   24580018.1824   24580008.608
        46.0004         41.0004
  -4333218.63248  -3297567.08147  23568443.9204   23568453.1174   23568444.009
        49.0004         45.0004
  -4534328.03047  -3497033.93746  24339781.1404   24339789.8394   24339780.403
        44.0004         39.0004
 26  2 22  2 14  0.0000000  0 10G08G07G16G04G02G27G09G31G26G18
 -19615930.03649 -15238596.34248  20464067.8154   20464074.8134   20464068.036
        58.0004         53.0004
  -9671356.01148  -7486021.49747  23317872.0134   23317876.2834   23317872.399
        52.0004         47.0004
 -19408114.63248 -15066788.86347  21044021.6304   21044026.3794   21044021.393
        51.0004         47.0004
  -5967181.44447  -4599914.80846  23386899.5084   23386906.7554   23386899.492
        45.0004         40.0004
  -2058702.52747  -1544615.91846  24116640.6674   24116647.5284   24116641.197
        42.0004         38.0004
 -23557244.09949 -18309039.89549  19992766.9604   19992773.4484   19992766.907
        60.0004         56.0004
  -5425899.30548  -4184202.81547  22759713.9244   22759721.7814   22759713.351
        51.0004         47.0004
    877492.97447    735829.76646  24601053.2324   24601062.8094   24601054.078
        46.0004         41.0004
  -4245635.06448  -3229320.27447  23585109.5594   23585119.3814   23585109.330
        49.0004         44.0004
  -4476598.58147  -3452050.12346  24350766.8684   24350775.4164   24350766.030
        44.0004         39.0004
 26  2 22  2 14 30.0000000  0 10G08G07G16G04G02G27G09G31G26G18
 -19668702.20949 -15279717.51549  20454025.5994   20454032.7694   20454025.564
        58.0004         54.0004
  -9757750.16148  -7553341.58347  23301431.0914   23301436.3214   23301431.549
        52.0004         47.0004
 -19348810.14048 -15020577.62147  21055306.8134   21055311.2604   21055306.949
        51.0004         46.0004
  -5874887.95447  -4527997.91546  23404462.8984   23404468.6634   23404461.860
        45.0004         40.0004
  -2170621.29747  -1631825.13046  24095342.4844   24095350.3394   24095343.938
        43.0004         38.0004
 -23543787.62649 -18298554.34149  19995327.7264   19995334.1974   19995327.849
        60.0004         56.0004
  -5368251.76348  -4139282.74547  22770684.0674   22770691.2744   22770683.953
        51.0004         47.0004
    988176.74047    822076.58046  24622117.2834   24622125.6254   24622117.215
        45.0004         41.0004
  -4157937.33448  -3160984.51647  23601798.4644   23601808.2144   23601798.816
        49.0004         44.0004
  -4418393.66247  -3406695.75546  24361841.9634   24361852.2024   24361841.724
        43.0004         39.0004
 26  2 22  2 15  0.0000000  0 10G08G07G16G04G02G27G09G31G26G18
 -19720988.75349 -15320460.28249  20444076.0054   20444083.0544   20444075.900
        58.0004         54.0004
  -9843944.53948  -7620506.00747  23285029.4394   23285034.0974   23285029.515
        52.0004         47.0004
 -19289248.22848 -14974165.79647  21066640.6984   21066645.4874   21066640.838
        51.0004         47.0004
  -5782368.49147  -4455904.92546  23422068.8834   23422076.7494   23422067.454
        45.0004         40.0004
  -2282473.11847  -1718982.21146  24074059.1234   24074064.8624   24074060.152
        43.0004         39.0004
 -23529773.57149 -18287634.30849  19997994.5494   19998000.7834   19997994.464
        60.0004         55.0004
  -5310153.25448  -4094011.26847  22781740.0714   22781747.1914   22781740.047
        51.0004         47.0004
   1098959.18647    908400.29746  24643198.8904   24643206.7014   24643200.112
        45.0004         40.0004
  -4070126.03948  -3092560.26547  23618509.1114   23618518.5064   23618509.207
        49.0004         44.0004
  -4359715.02447  -3360972.23446  24373008.9014   24373017.7624   24373008.772
        43.0004         38.0004
 26  2 22  2 15 30.0000000  0 10G08G07G16G04G02G27G09G31G26G18
 -19772789.03849 -15360824.13849  20434218.6204   20434225.5854   20434218.381
        58.0004         54.0004
  -9929936.77148  -7687512.93847  23268665.6634   23268669.8324   23268665.215
        52.0004         47.0004
 -19229429.71448 -14927554.02047  21078024.1164   21078028.3974   21078024.579
        51.0004         46.0004
  -5689626.22247  -4383638.34646  23439716.0594   23439724.3514   23439716.277
        45.0004         40.0004
  -2394255.02047  -1806084.85246  24052786.5394   24052793.5894   24052787.655
        43.0004         39.0004
 -23515203.27049 -18276280.83349  20000767.0854   20000773.5434   20000767.012
        60.0004         56.0004
  -5251606.42248  -4048390.44747  22792881.0604   22792888.7974   22792880.871
        52.0004         47.0004
   1209837.99647    994799.11246  24664298.8494   24664306.4894   24664299.096
        45.0004         40.0004
  -3982201.75948  -3024047.97447  23635239.4064   23635249.4114   23635239.665
        49.0004         44.0004
  -4300564.54747  -3314881.08246  24384265.1524   24384273.8714   24384265.397
        43.0004         39.0004
 26  2 22  2 16  0.0000000  0 10G08G07G16G04G02G27G09G31G26G18
 -19824102.44249 -15400808.61049  20424453.9864   20424460.9924   20424454.171
        58.0004         54.0004
 -10015724.77548  -7754360.71147  23252340.3244   23252345.4374   23252340.439
        52.0004         47.0004
 -19169355.72448 -14880743.17047  21089455.5894   21089459.4954   21089456.059
        51.0004         46.0004
  -5596664.45447  -4311200.70946  23457407.2194   23457413.6594   23457406.011
        44.0004         39.0004
  -2505964.09447  -1893130.76146  24031528.5094   24031536.1184   24031529.123
        43.0004         38.0004
 -23500078.03249 -18264494.95049  20003645.4884   20003651.9304   20003645.524
        60.0004         56.0004
  -5192613.99048  -4002422.41847  22804107.1204   22804115.1714   22804107.436
        52.0004         47.0004
   1320811.81047   1081271.98546  24685416.0754   24685425.2554   24685414.125
        45.0004         40.0004
  -3894165.15548  -2955448.15447  23651992.0254   23652002.5484   23651991.909
        49.0004         44.0004
  -4240944.19847  -3268423.80046  24395610.8614   24395618.5364   24395610.449
        43.0004         38.0004
 26  2 22  2 16 30.0000000  0 10G08G07G16G04G02G27G09G31G26G18
 -19874928.40949 -15440413.25349  20414782.0704   20414789.4004   20414782.255
        58.0004         54.0004
 -10101306.23048  -7821047.53647  23236054.7184   23236059.3814   23236054.552
        52.0004         47.0004
 -19109027.08948 -14833733.88847  21100936.2394   21100941.0244   21100936.407
        51.0004         46.0004
  -5503486.33047  -4238594.50046  23475138.0074   23475145.1414   23475137.803
        44.0004         40.0004
  -2617597.32947  -1980117.60746  24010285.6224   24010291.1064   24010285.995
        43.0004         38.0004
 -23484399.14549 -18252277.64849  20006629.0514   20006635.4924   20006628.930
        60.0004         55.0004
  -5133178.58748  -3956109.20947  22815417.4594   22815425.2964   22815417.763
        51.0004         47.0004
   1431878.55847   1167817.24946  24706550.9294   24706560.0334   24706550.185
        45.0004         40.0004
  -3806016.77748  -2886761.24147  23668766.5154   23668776.6614   23668766.238
        49.0004         44.0004
  -4180855.88447  -3221601.84746  24407045.5054   24407052.7494   24407043.475
        43.0004         38.0004
 26  2 22  2 17  0.0000000  0 10G08G07G16G04G02G27G09G31G26G18
 -19925266.03949 -15479637.37349  20405203.1724   20405210.5184   20405203.084
        58.0004         54.0004
 -10186679.04948  -7887571.78547  23219808.5524   23219813.6784   23219808.038
        52.0004         47.0004
 -19048444.30448 -14786526.57747  21112465.0844   21112470.0204   21112465.329
        51.0004         46.0004
  -5410095.11647  -4165822.22146  23492909.8374   23492916.7644   23492908.243
        44.0004         39.0004
  -2729151.76947  -2067043.04746  23989057.6714   23989063.8924   23989056.887
        42.0004         37.0004
 -23468167.91649 -18239629.94449  20009717.8274   20009723.9824   20009717.936
        60.0004         55.0004
  -5073302.89348  -3909452.92447  22826811.2324   22826818.9044   22826810.821
        51.0004         47.0004
   1543036.33847   1254433.42146  24727704.1784   24727713.0294   24727702.858
        45.0004         41.0004
  -3717757.21348  -2817987.69647  23685562.3364   23685572.7604   23685561.982
        49.0004         44.0004
  -4120301.44047  -3174416.68846  24418568.0044   24418574.9574   24418568.846
        43.0004         38.0004
 26  2 22  2 17 30.0000000  0 10G08G07G16G04G02G27G09G31G26G18
 -19975114.88349 -15518480.62449  20395717.0854   20395724.2604   20395717.153
        58.0004         54.0004
 -10271841.04648  -7953931.74747  23203603.1944   23203608.1694   23203603.220
        52.0004         47.0004
 -18987608.50048 -14739122.10947  21124041.5404   21124045.7624   21124041.279
        51.0004         46.0004
  -5316493.99847  -4092886.42746  23510721.8534   23510728.3134   23510721.445
        44.0004         39.0004
  -2840624.43147  -2153904.78046  23967846.0214   23967853.1034   23967844.992
        42.0004         37.0004
 -23451385.73949 -18226552.94049  20012911.2824   20012917.5664   20012911.250
        60.0004         55.0004
  -5012989.54748  -3862455.61547  22838288.0274   22838296.3434   22838287.909
        51.0004         47.0004
   1654283.33047   1341119.13347  24748873.1454   24748882.4584   24748873.374
        46.0004         42.0004
  -3629387.16648  -2749128.03947  23702378.4574   23702389.3064   23702378.698
        49.0004         45.0004
  -4059282.90647  -3126869.87546  24430180.3624   24430187.0274   24430179.923
        43.0004         38.0004
