     2.11           OBSERVATION DATA    G (GPS)             RINEX VERSION / TYPE
teqc  2019Feb25     Observatoire de Pari20250225 00:53:36UTCPGM / RUN BY / DATE
Linux 2.6.32-573.12.1.x86_64|x86_64|gcc|Linux 64|=+         COMMENT
BIT 2 OF LLI FLAGS DATA COLLECTED UNDER A/S CONDITION       COMMENT
OPMT                                                        MARKER NAME
10001S006                                                   MARKER NUMBER
Pierre Uhrich       Observatoire de Paris                   OBSERVER / AGENCY
02942               ASHTECH Z-XII3T     1L01-1D04           REC # / TYPE / VERS
00019               3S-02-TSADM     NONE                    ANT # / TYPE
  4202777.3831   171367.9881  4778660.1844                  APPROX POSITION XYZ
        0.0000        0.0000        0.0000                  ANTENNA: DELTA H/E/N
     1     1                                                WAVELENGTH FACT L1/2
     7    L1    L2    C1    P1    P2    S1    S2            # / TYPES OF OBSERV
 SNR is mapped to RINEX snr flag value [0-9]                COMMENT
  L1 & L2: min(max(int(snr_dBHz/6), 0), 9)                  COMMENT
pseudorange smoothing corrections not applied               COMMENT
  2025     2    24     0     0    0.0000000     GPS         TIME OF FIRST OBS
                                                            END OF HEADER
 25  2 24  0  0  0.0000000  0  7G04G19G09G07G11G03G06
 -17263957.52346 -13439599.29347  20882328.553    20882329.0484   20882332.7294
        47.0004         43.9004
  -1169706.19643   -896263.40946  23578697.690    23578696.6494   23578698.4284
        38.5004         36.4004
 -22432413.18048 -17455811.73748  19976429.918    19976429.7924   19976434.2334
        54.7004         52.0004
  -5297182.40645  -4103579.58647  23259181.415    23259180.8194   23259184.1304
        45.3004         42.5004
  -6521858.78145  -5065939.95946  22513073.944    22513074.2994   22513077.7284
        43.6004         40.7004
  -3308229.50345  -2557542.51946  23256271.692    23256271.4954   23256276.7244
        44.1004         41.2004
 -12311024.77648  -9583340.49048  20813627.890    20813628.0904   20813633.5564
        53.6004         50.8004
 25  2 24  0  0 30.0000000  0  7G04G19G09G07G11G03G06
 -17208229.67546 -13396174.99847  20892933.333    20892933.7344   20892937.0314
        47.0004         44.0004
  -1072239.12743   -820315.08546  23597242.502    23597242.0664   23597244.1344
        38.5004         36.2004
 -22436647.37048 -17459111.10348  19975623.899    19975624.1424   19975628.5144
        54.7004         52.0004
  -5387434.67245  -4173905.96447  23242006.886    23242006.1924   23242009.5974
        45.3004         42.5004
  -6597484.44045  -5124869.02646  22498681.759    22498682.3534   22498686.9974
        43.7004         40.7004
  -3214936.78845  -2484846.93646  23274025.580    23274024.5114   23274029.8124
        44.1004         41.2004
 -12322367.26848  -9592178.80148  20811469.318    20811469.6674   20811474.9314
        53.5004         50.6004
 25  2 24  0  1  0.0000000  0  7G04G19G09G07G11G03G06
 -17152136.79846 -13352466.27547  20903608.169    20903608.4364   20903611.2524
        47.2004         44.0004
   -974566.52943   -744206.63345  23615830.493    23615830.8584   23615831.3554
        38.0004         35.5004
 -22440404.55248 -17462038.76748  19974908.870    19974909.2054   19974913.5234
        54.7004         52.0004
  -5477474.75445  -4244067.02047  23224871.810    23224871.8054   23224875.2434
        45.3004         42.5004
  -6672716.26245  -5183491.20646  22484366.338    22484367.0304   22484371.1184
        43.7004         41.1004
  -3121499.84745  -2412038.93646  23291802.403    23291804.7744   23291809.8314
        44.1004         41.2004
 -12333128.19548  -9600563.93748  20809421.191    20809421.9384   20809427.2254
        53.5004         50.6004
 25  2 24  0  1 30.0000000  0  7G04G19G09G07G11G03G06
 -17095680.75746 -13308474.55247  20914351.336    20914351.5064   20914354.5304
        47.0004         44.0004
   -876691.56543   -667940.46145  23634454.466    23634453.3024   23634455.2564
        37.6004         35.3004
 -22443685.01748 -17464594.96848  19974284.948    19974284.9524   19974289.2054
        54.7004         52.0004
  -5567300.30745  -4314060.91047  23207778.636    23207778.5224   23207781.9614
        45.1004         42.3004
  -6747551.78745  -5241804.58946  22470125.673    22470125.9054   22470130.2564
        43.9004         41.1004
  -3027919.37945  -2339119.11546  23309613.054    23309612.8064   23309618.7634
        44.2004         41.4004
 -12343306.67148  -9608495.21848  20807484.599    20807485.0934   20807490.1844
        53.5004         50.6004
 25  2 24  0  2  0.0000000  0  7G04G19G09G07G11G03G06
 -17038863.35646 -13264201.26247  20925162.996    20925163.2374   20925166.8984
        47.2004         44.0004
   -778617.83743   -591519.41545  23653117.579    23653117.3964   23653118.4864
        37.6004         35.7004
 -22446489.50648 -17466780.27648  19973751.282    19973751.3554   19973755.6134
        54.7004         52.2004
  -5656909.17545  -4383885.95047  23190725.538    23190726.0754   23190730.3344
        45.3004         42.3004
  -6821988.51445  -5299807.21046  22455961.234    22455961.2804   22455965.4514
        44.1004         41.2004
  -2934196.24145  -2266088.12846  23327448.027    23327447.9124   23327453.3034
        44.2004         41.2004
 -12352901.89548  -9615972.01848  20805658.453    20805659.0534   20805664.1854
        53.5004         50.6004
 25  2 24  0  2 30.0000000  0  7G04G19G09G07G11G03G06
 -16981686.39046 -13219647.78547  20936042.847    20936043.2754   20936047.2874
        47.2004         44.0004
   -680348.42043   -514945.91545  23671817.101    23671816.1304   23671819.3714
        37.6004         35.5004
 -22448818.59348 -17468595.14148  19973308.276    19973308.2144   19973312.3394
        54.8004         52.2004
  -5746298.19445  -4453539.68447  23173714.831    23173715.8324   23173719.7054
        45.3004         42.5004
  -6896024.00645  -5357497.17846  22441872.511    22441872.6734   22441876.1194
        44.1004         41.2004
  -2840331.28745  -2192946.60046  23345306.737    23345308.1694   23345315.0864
        44.1004         40.9004
 -12361913.11448  -9622993.74248  20803944.047    20803944.5174   20803949.5974
        53.5004         50.6004
 25  2 24  0  3  0.0000000  0  7G04G19G09G07G11G03G06
 -16924151.69646 -13174815.55747  20946991.937    20946992.0514   20946995.7614
        47.0004         44.0004
   -581886.99743   -438222.78646  23690554.092    23690552.6894   23690556.8024
        38.2004         36.0004
 -22450672.90348 -17470040.05048  19972955.267    19972955.1924   19972959.4234
        54.8004         52.2004
  -5835465.63545  -4523020.76547  23156747.300    23156747.7684   23156751.0314
        45.3004         42.3004
  -6969655.82345  -5414872.61146  22427861.641    22427861.9824   22427864.6214
        44.2004         41.4004
  -2746325.25445  -2119695.18746  23363198.733    23363198.8524   23363204.2504
        43.9004         41.1004
 -12370339.51848  -9629559.76748  20802340.512    20802340.9694   20802346.2314
        53.5004         50.8004
 25  2 24  0  3 30.0000000  0  7G04G19G09G07G11G03G06
 -16866261.09846 -13129705.99847  20958007.378    20958007.7684   20958011.8584
        47.0004         43.9004
   -483236.83043   -361352.59246  23709326.300    23709326.2304   23709329.4444
        38.7004         36.6004
 -22452053.05748 -17471115.48748  19972692.410    19972692.5154   19972696.8324
        54.8004         52.2004
  -5924408.84245  -4592327.12147  23139821.721    23139822.5204   23139825.3564
        45.3004         42.5004
  -7042881.50845  -5471931.57946  22413926.967    22413927.4694   22413929.9724
        44.2004         41.4004
  -2652179.00245  -2046334.49546  23381114.365    23381114.1614   23381119.5944
        44.1004         41.2004
 -12378180.38748  -9635669.53548  20800848.109    20800848.5954   20800853.9344
        53.5004         50.8004
 25  2 24  0  4  0.0000000  0  7G04G19G09G07G11G03G06
 -16808016.38446 -13084320.51247  20969091.054    20969091.5664   20969095.8714
        47.0004         43.9004
   -384401.42443   -284338.04446  23728135.971    23728133.8334   23728138.1914
        39.0004         36.7004
 -22452959.67848 -17471821.93748  19972519.841    19972519.9564   19972524.3714
        54.8004         52.2004
  -6013125.75645  -4661457.13347  23122940.783    23122940.5684   23122944.1324
        45.3004         42.5004
  -7115698.63145  -5528672.19346  22400071.156    22400070.8674   22400073.5174
        44.4004         41.6004
  -2557893.30145  -1972865.14546  23399054.765    23399055.5424   23399060.1784
        43.9004         40.7004
 -12385434.95748  -9641322.44948  20799467.630    20799467.8884   20799473.7564
        53.5004         50.6004
 25  2 24  0  4 30.0000000  0  7G04G19G09G07G11G03G06
 -16749419.41346 -13038660.53447  20980242.127    20980242.1514   20980246.3224
        47.0004         43.9004
   -285384.18843   -207181.80646  23746975.933    23746975.8434   23746981.0084
        39.2004         36.7004
 -22453393.42048 -17472159.91248  19972437.155    19972437.3604   19972441.9364
        54.8004         52.2004
  -6101613.99945  -4730408.97447  23106102.368    23106101.8484   23106105.8114
        45.5004         42.6004
  -7188104.79045  -5585092.55646  22386292.119    22386292.1674   22386294.9974
        44.6004         41.8004
  -2463468.96145  -1899287.75746  23417025.571    23417024.6204   23417030.3084
        43.7004         41.1004
 -12392102.54948  -9646517.97448  20798198.603    20798199.1774   20798204.9554
        53.5004         50.6004
 25  2 24  0  5  0.0000000  0  7G04G19G09G07G11G03G06
 -16690471.95246 -12992727.45347  20991459.360    20991459.8594   20991463.4404
        46.9004         43.9004
   -186188.40943   -129886.45446  23765853.721    23765853.0714   23765856.2084
        39.2004         36.7004
 -22453354.94248 -17472129.91748  19972444.448    19972444.5404   19972449.3434
        54.8004         52.2004
  -6189870.99845  -4799180.62247  23089308.163    23089307.1964   23089310.6344
        45.5004         42.6004
  -7260097.51345  -5641190.77046  22372591.590    22372592.8654   22372595.2364
        44.6004         41.8004
  -2368906.82445  -1825602.97746  23435017.128    23435018.4564   23435024.0764
        43.7004         40.9004
 -12398182.46948  -9651255.57848  20797042.039    20797042.3374   20797047.9924
        53.5004         50.8004
 25  2 24  0  5 30.0000000  0  7G04G19G09G07G11G03G06
 -16631175.89146 -12946522.73347  21002743.554    21002743.4134   21002746.8464
        46.9004         43.9004
    -86817.36543    -52454.54346  23784763.699    23784762.7594   23784766.4164
        39.2004         36.7004
 -22452844.88648 -17471732.46048  19972541.590    19972541.5044   19972546.2474
        54.8004         52.2004
  -6277894.52145  -4867770.34247  23072556.754    23072556.5704   23072559.7574
        45.5004         42.6004
  -7331674.39545  -5696964.96146  22358971.882    22358972.3144   22358974.7104
        44.8004         41.8004
  -2274207.71745  -1751811.49846  23453039.588    23453039.5344   23453045.1784
        43.7004         41.1004
 -12403674.04448  -9655534.72948  20795996.918    20795997.2694   20796003.0464
        53.5004         50.6004
 25  2 24  0  6  0.0000000  0  7G04G19G09G07G11G03G06
 -16571533.00846 -12900047.76447  21014092.918    21014093.0034   21014096.5694
        46.9004         43.9004
     12725.42543     25111.21546  23803705.794    23803703.6494   23803708.5054
        38.9004         36.4004
 -22451863.93548 -17470968.07848  19972728.499    19972728.4364   19972732.6814
        54.8004         52.2004
  -6365682.31345  -4936176.37447  23055850.849    23055850.8464   23055854.4734
        45.6004         42.6004
  -7402833.05145  -5752413.23846  22345430.383    22345430.9784   22345434.1754
        44.8004         41.9004
  -2179372.43245  -1677913.90946  23471087.213    23471087.4034   23471092.6844
        44.1004         41.4004
 -12408576.65748  -9659354.94948  20795064.316    20795064.5934   20795069.8404
        53.5004         50.8004
 25  2 24  0  6 30.0000000  0  7G04G19G09G07G11G03G06
 -16511545.15846 -12853303.99447  21025508.674    21025508.9314   21025512.1134
        46.9004         43.7004
    112436.77243    102808.31846  23822681.299    23822679.8144   23822684.0404
        38.7004         36.4004
 -22450412.80648 -17469837.32448  19973004.414    19973004.6484   19973008.8254
        54.8004         52.2004
  -6453231.60745  -5004396.55747  23039189.237    23039190.7274   23039194.8604
        45.6004         42.8004
  -7473571.06545  -5807533.76647  22331970.605    22331970.8164   22331973.4254
        44.9004         42.1004
  -2084401.79545  -1603910.83746  23489156.358    23489158.0584   23489164.6914
        44.1004         41.2004
 -12412889.66248  -9662715.73348  20794243.523    20794243.9244   20794249.2374
        53.6004         50.8004
 25  2 24  0  7  0.0000000  0  7G04G19G09G07G11G03G06
 -16451214.15546 -12806292.82247  21036988.851    21036989.2564   21036992.6424
        46.9004         43.7004
    212313.06043    180633.92546  23841686.066    23841684.4794   23841689.0924
        38.5004         36.0004
 -22448492.17248 -17468340.72248  19973369.822    19973369.9034   19973374.2894
        54.8004         52.2004
  -6540540.67445  -5072429.55847  23022575.172    23022576.7694   23022580.3234
        45.8004         43.0004
  -7543886.04545  -5862324.62646  22318589.193    22318589.1434   22318592.8484
        44.9004         41.9004
  -1989296.56445  -1529802.90546  23507257.713    23507256.1104   23507262.9664
        43.9004         40.9004
 -12416612.49048  -9665616.64148  20793535.454    20793535.7954   20793540.7794
        53.6004         50.8004
 25  2 24  0  7 30.0000000  0  7G04G19G09G07G11G03G06
 -16390541.83646 -12759015.70147  21048534.635    21048534.8184   21048538.4894
        46.9004         43.9004
    312351.00643    258585.48146  23860723.329    23860722.6344   23860725.8164
        38.3004         36.2004
 -22446102.74348 -17466478.82348  19973824.434    19973824.5754   19973829.0054
        54.7004         52.0004
  -6627606.78945  -5140273.24347  23006009.585    23006009.2504   23006012.0894
        46.0004         43.2004
  -7613775.56645  -5916783.97246  22305289.876    22305289.6174   22305293.0464
        44.8004         41.8004
  -1894057.62045  -1455590.76246  23525375.855    23525378.7284   23525385.3194
        43.6004         40.7004
 -12419744.59148  -9668057.23148  20792939.356    20792939.4814   20792944.7594
        53.6004         50.8004
 25  2 24  0  8  0.0000000  0  7G04G19G09G07G11G03G06
 -16329530.01546 -12711474.02747  21060144.905    21060144.9474   21060148.4574
        46.9004         43.9004
    412547.16943    336660.35845  23879789.947    23879788.5594   23879793.3414
        38.3004         35.9004
 -22443245.25748 -17464252.20148  19974368.120    19974368.0824   19974372.9184
        54.7004         52.2004
  -6714427.82145  -5207925.94747  22989487.201    22989487.1524   22989490.2744
        46.0004         43.2004
  -7683237.25145  -5970909.94346  22292071.428    22292072.0124   22292074.1454
        44.6004         41.6004
  -1798685.73945  -1381275.01446  23543527.233    23543527.6854   23543534.9984
        43.6004         40.7004
 -12422285.35748  -9670037.05448  20792455.464    20792456.0154   20792460.7774
        53.6004         50.8004
 25  2 24  0  8 30.0000000  0  7G04G19G09G07G11G03G06
 -16268180.52546 -12663669.23447  21071818.363    21071819.0164   21071822.4064
        46.9004         43.7004
    512898.33743    414856.02045  23898886.418    23898884.4214   23898889.0934
        38.2004         35.9004
 -22439920.44148 -17461661.43048  19975000.556    19975000.9494   19975005.8414
        54.7004         52.2004
  -6801001.12445  -5275385.62747  22973012.261    22973012.2744   22973016.4434
        46.2004         43.3004
  -7752268.69045  -6024700.66846  22278935.260    22278935.5864   22278938.0164
        44.6004         41.8004
  -1703181.73745  -1306856.35846  23561702.694    23561702.3394   23561708.8634
        43.6004         40.7004
 -12424234.28548  -9671555.70048  20792084.663    20792085.1264   20792090.1704
        53.6004         50.8004
 25  2 24  0  9  0.0000000  0  7G04G19G09G07G11G03G06
 -16206495.18746 -12615602.74047  21083557.254    21083557.5584   21083561.3124
        46.9004         43.7004
    613401.15143    493169.81445  23918010.521    23918009.8984   23918014.5214
        38.0004         35.7004
 -22436129.03548 -17458707.08248  19975722.511    19975722.4114   19975727.3114
        54.8004         52.2004
  -6887324.63345  -5342650.67047  22956586.070    22956586.2414   22956589.2704
        46.3004         43.5004
  -7820867.54645  -6078154.31046  22265881.361    22265881.4044   22265884.0954
        44.6004         41.8004
  -1607546.48545  -1232335.40046  23579900.773    23579901.6184   23579907.2434
        43.6004         40.7004
 -12425590.85448  -9672612.77148  20791826.824    20791826.9924   20791831.8774
        53.6004         50.8004
 25  2 24  0  9 30.0000000  0  7G04G19G09G07G11G03G06
 -16144475.85446 -12567275.99447  21095359.235    21095359.3744   21095363.1124
        46.7004         43.5004
    714052.05442    571599.01845  23937163.789    23937163.2064   23937167.8514
        37.5004         35.2004
 -22431871.76748 -17455389.72348  19976532.599    19976532.7364   19976537.2914
        54.8004         52.2004
  -6973395.92145  -5409719.17447  22940207.110    22940207.2564   22940210.4234
        46.3004         43.5004
  -7889031.40545  -6131269.00346  22252910.134    22252910.1514   22252912.9844
        44.6004         41.6004
  -1511780.77244  -1157712.79746  23598126.161    23598124.9134   23598130.4184
        43.4004         40.4004
 -12426354.59848  -9673207.90048  20791680.929    20791681.5644   20791686.6184
        53.6004         50.8004
 25  2 24  0 10  0.0000000  0  7G04G19G09G07G11G03G06
 -16082124.34146 -12518690.39947  21107224.436    21107224.5834   21107228.3564
        46.7004         43.7004
    814847.71442    650141.04645  23956344.748    23956343.2674   23956346.7154
        36.8004         34.5004
 -22427149.44448 -17451709.98548  19977431.409    19977431.2404   19977435.8204
        54.8004         52.2004
  -7059212.97145  -5476589.56047  22923875.409    22923876.3704   22923879.5324
        46.3004         43.5004
  -7956757.94145  -6184042.92246  22240022.060    22240022.1504   22240025.6624
        44.6004         41.8004
  -1415885.42544  -1082989.18146  23616371.651    23616373.8104   23616378.4524
        43.4004         40.6004
 -12426525.03648  -9673340.71248  20791649.096    20791649.0974   20791654.3504
        53.6004         50.8004
 25  2 24  0 10 30.0000000  0  7G04G19G09G07G11G03G06
 -16019442.47846 -12469847.39147  21119151.925    21119152.4134   21119155.5934
        46.7004         43.5004
    915784.96242    728793.38745  23975552.596    23975550.8654   23975554.7854
        36.1004         34.0004
 -22421962.80348 -17447668.44048  19978417.715    19978418.0634   19978422.6854
        54.8004         52.2004
  -7144773.51946  -5543260.06847  22907595.737    22907595.0904   22907598.0864
        46.5004         43.7004
  -8024044.78645  -6236474.21246  22227217.151    22227218.0484   22227221.1654
        44.6004         41.8004
  -1319861.22444  -1008165.17646  23634645.213    23634645.8564   23634651.5384
        43.2004         40.2004
 -12426101.69748  -9673010.83948  20791729.021    20791729.6094   20791734.9954
        53.6004         50.8004
 25  2 24  0 11  0.0000000  0  7G04G19G09G07G11G03G06
 -15956432.09046 -12420748.38947  21131142.477    21131142.8934   21131147.0554
        46.5004         43.5004
   1016860.60742    807553.56545  23994786.424    23994785.5404   23994787.9604
        35.7004         34.0004
 -22416312.62348 -17443265.69648  19979493.183    19979493.2504   19979497.7794
        54.7004         52.2004
  -7230074.61446  -5609728.40547  22891363.930    22891362.8444   22891366.6094
        46.7004         43.9004
  -8090889.59845  -6288561.06446  22214497.610    22214497.6504   22214500.1144
        44.6004         41.8004
  -1223709.04744   -933241.42946  23652942.324    23652942.8464   23652948.6144
        43.0004         40.2004
 -12425084.24848  -9672218.02348  20791922.652    20791923.1634   20791928.7764
        53.8004         51.0004
 25  2 24  0 11 30.0000000  0  7G04G19G09G07G11G03G06
 -15893095.03146 -12371394.83847  21143195.137    21143195.9034   21143199.0334
        46.7004         43.5004
   1118070.84442    886418.64845  24014046.929    24014045.0394   24014048.7044
        35.6004         33.8004
 -22410199.74348 -17438502.41148  19980656.142    19980656.5744   19980661.2394
        54.7004         52.2004
  -7315114.25746  -5675993.03847  22875180.237    22875180.4534   22875183.9354
        46.7004         43.9004
  -8157290.05845  -6340301.67546  22201861.721    22201861.9054   22201864.8504
        44.6004         41.8004
  -1127429.63044   -858218.54046  23671264.925    23671264.8234   23671269.1964
        42.7004         39.9004
 -12423472.22248  -9670961.90548  20792229.879    20792229.9754   20792235.5544
        53.8004         51.0004
 25  2 24  0 12  0.0000000  0  7G04G19G09G07G11G03G06
 -15829433.12346 -12321788.15247  21155310.368    21155309.9684   21155313.7734
        46.5004         43.7004
   1219412.53042    965386.12745  24033331.785    24033329.3914   24033333.5264
        35.6004         34.0004
 -22403624.91248 -17433379.16648  19981907.523    19981907.8264   19981912.3234
        54.7004         52.2004
  -7399890.22646  -5742052.19447  22859047.532    22859047.8914   22859050.9744
        46.7004         43.7004
  -8223243.82545  -6391694.21446  22189310.846    22189311.4504   22189314.2014
        44.6004         41.6004
  -1031023.79644   -783097.13746  23689610.064    23689610.3304   23689615.8284
        42.5004         39.9004
 -12421265.25248  -9669242.19648  20792649.572    20792649.9414   20792655.5484
        53.8004         50.8004
 25  2 24  0 12 30.0000000  0  7G04G19G09G07G11G03G06
 -15765448.15446 -12271929.74547  21167485.437    21167486.3744   21167489.8424
        46.7004         43.5004
   1320882.26842   1044453.40645  24052639.632    24052640.4774   24052644.8904
        35.7004         34.1004
 -22396589.00448 -17427896.63048  19983246.675    19983246.5794   19983251.3254
        54.8004         52.2004
  -7484400.39246  -5807904.24247  22842965.194    22842965.7494   22842969.4434
        46.5004         43.7004
  -8288748.57745  -6442736.86546  22176846.287    22176846.0954   22176849.8784
        44.6004         41.9004
   -934492.44644   -707877.93446  23707977.508    23707979.2304   23707984.8184
        42.5004         39.7004
 -12418463.00248  -9667058.63348  20793182.599    20793182.9524   20793188.8154
        53.6004         50.8004
 25  2 24  0 13  0.0000000  0  7G04G19G09G07G11G03G06
 -15701142.03146 -12221821.08147  21179723.296    21179722.9784   21179726.6034
        46.7004         43.5004
   1422476.86142   1123617.97545  24071974.424    24071973.9504   24071975.1844
        35.6004         33.6004
 -22389092.79748 -17422055.42848  19984672.787    19984673.0894   19984677.7454
        54.8004         52.2004
  -7568642.78046  -5873547.62747  22826933.653    22826934.2384   22826938.6144
        46.5004         43.5004
  -8353801.96045  -6493427.80346  22164467.279    22164467.5634   22164470.4564
        44.8004         41.8004
   -837836.35844   -632561.52146  23726372.776    23726372.1174   23726377.6084
        42.3004         39.5004
 -12415065.13448  -9664410.94948  20793828.894    20793829.6114   20793835.1684
        53.6004         50.8004
 25  2 24  0 13 30.0000000  0  7G04G19G09G07G11G03G06
 -15636516.50746 -12171463.54147  21192020.550    21192021.1504   21192024.9414
        46.5004         43.5004
   1524193.08142   1202877.30145  24091328.958    24091330.2124   24091331.2874
        35.2004         33.4004
 -22381137.11948 -17415856.19848  19986186.972    19986187.1564   19986191.6374
        54.8004         52.2004
  -7652614.36346  -5938979.99447  22810955.655    22810955.1144   22810958.7544
        46.5004         43.5004
  -8418401.70445  -6543765.25646  22152173.863    22152174.1394   22152177.3974
        44.6004         41.6004
   -741056.36244   -557148.58346  23744786.554    23744787.9894   23744794.1544
        42.0004         39.2004
 -12411071.34948  -9661298.92048  20794589.252    20794589.9604   20794595.3484
        53.6004         50.8004
 25  2 24  0 14  0.0000000  0  7G04G19G09G07G11G03G06
 -15571573.45646 -12120858.56147  21204379.215    21204379.4244   21204383.6774
        46.5004         43.5004
   1626027.52942   1282228.76245  24110707.933    24110706.2644   24110710.8744
        35.0004         33.4004
 -22372722.83648 -17409299.61148  19987788.190    19987788.4594   19987792.7584
        54.8004         52.2004
  -7736313.29346  -6004199.90547  22795027.763    22795028.2274   22795030.7184
        46.5004         43.5004
  -8482545.47545  -6593747.40746  22139967.456    22139967.6334   22139971.0794
        44.8004         41.8004
   -644153.30944   -481639.73246  23763228.203    23763228.7204   23763235.4314
        42.2004         39.5004
 -12406481.38048  -9657722.32148  20795463.292    20795463.4804   20795468.9934
        53.8004         51.0004
 25  2 24  0 14 30.0000000  0  7G04G19G09G07G11G03G06
 -15506314.67045 -12070007.56847  21216796.530    21216797.5074   21216801.2124
        46.3004         43.3004
   1727976.80142   1361669.70445  24130107.709    24130106.7724   24130109.0964
        34.7004         33.3004
 -22363850.80748 -17402386.33348  19989476.141    19989476.5074   19989480.9194
        54.7004         52.2004
  -7819737.45746  -6069205.70747  22779152.300    22779152.7514   22779156.4564
        46.5004         43.7004
  -8546231.03445  -6643372.50746  22127848.941    22127848.8624   22127851.9644
        44.8004         41.9004
   -547127.96344   -406035.60546  23781691.313    23781691.5144   23781698.3134
        42.2004         39.3004
 -12401294.94248  -9653680.94748  20796449.973    20796450.1404   20796455.9724
        53.8004         51.0004
 25  2 24  0 15  0.0000000  0  7G04G19G09G07G11G03G06
 -15440742.03745 -12018912.01547  21229274.587    21229275.1744   21229279.5104
        46.3004         43.3004
   1830037.44242   1441197.39845  24149529.032    24149528.7204   24149532.1864
        34.9004         33.3004
 -22354521.88648 -17395117.03848  19991251.270    19991251.4514   19991256.1094
        54.7004         52.2004
  -7902884.09546  -6133995.26447  22763329.978    22763330.6894   22763334.6714
        46.5004         43.7004
  -8609456.08545  -6692638.77946  22115817.017    22115816.9694   22115820.2634
        44.8004         41.8004
   -449981.17644   -330336.85246  23800180.549    23800179.4174   23800184.5464
        42.3004         39.7004
 -12395511.83148  -9649174.63448  20797550.380    20797550.5544   20797556.2394
        53.6004         50.8004
 25  2 24  0 15 30.0000000  0  7G04G19G09G07G11G03G06
 -15374857.32145 -11967573.29147  21241812.683    21241812.8224   21241816.4974
        46.3004         43.3004
   1932206.33542   1520809.43345  24168971.485    24168972.2744   24168975.8394
        34.5004         33.1004
 -22344736.94548 -17387492.39748  19993113.651    19993113.4624   19993118.2404
        54.7004         52.2004
  -7985751.36846  -6198567.13747  22747561.581    22747561.4624   22747564.8654
        46.7004         43.7004
  -8672218.35445  -6741544.43346  22103874.284    22103874.9074   22103877.2374
        44.8004         41.9004
   -352713.83844   -254544.14546  23818687.009    23818687.7444   23818693.8754
        42.2004         39.5004
 -12389131.80448  -9644203.19548  20798763.883    20798764.7844   20798770.2604
        53.6004         50.8004
 25  2 24  0 16  0.0000000  0  7G04G19G09G07G11G03G06
 -15308662.39645 -11915992.83147  21254409.380    21254409.1364   21254413.2284
        46.2004         43.2004
   2034479.99842   1600503.15145  24188434.930    24188434.5304   24188435.4304
        34.5004         33.1004
 -22334496.86148 -17379513.10948  19995062.223    19995062.4864   19995066.9444
        54.7004         52.2004
  -8068337.05846  -6262919.58247  22731845.514    22731845.7664   22731849.1184
        46.7004         43.9004
  -8734515.53745  -6790087.69047  22092019.397    22092019.5814   22092022.9844
        44.9004         42.1004
   -255326.70444   -178658.09746  23837218.680    23837219.8994   23837226.5994
        42.3004         39.7004
 -12382154.67848  -9638766.47948  20800091.910    20800092.3874   20800098.1214
        53.6004         50.8004
 25  2 24  0 16 30.0000000  0  7G04G19G09G07G11G03G06
 -15242159.04445 -11864172.03747  21267064.235    21267064.4284   21267068.8194
        46.2004         43.2004
   2136855.44542   1680276.13845  24207917.350    24207913.4394   24207917.1394
        34.5004         33.4004
 -22323802.53948 -17371179.86448  19997097.842    19997097.5244   19997102.0464
        54.7004         52.2004
  -8150638.71246  -6327050.70947  22716184.493    22716184.7474   22716188.4184
        46.9004         44.0004
  -8796345.44445  -6838266.82546  22080253.534    22080253.9674   22080256.7514
        44.9004         41.9004
   -157820.59244   -102679.34846  23855776.581    23855774.5794   23855781.1274
        42.3004         39.5004
 -12374580.28048  -9632864.35448  20801532.835    20801533.5624   20801539.1024
        53.5004         50.5004
 25  2 24  0 17  0.0000000  0  7G04G19G09G07G11G03G06
 -15175349.12545 -11812112.35447  21279777.860    21279777.6684   21279781.6694
        46.2004         43.0004
   2239329.17141   1760125.73745  24227415.741    24227411.9544   24227418.6154
        34.3004         32.9004
 -22312654.86448 -17362493.36448  19999218.935    19999218.9164   19999223.4614
        54.7004         52.2004
  -8232654.25946  -6390958.88447  22700577.410    22700577.4544   22700581.2244
        47.0004         44.2004
  -8857705.81345  -6886080.09447  22068576.984    22068577.1104   22068579.6574
        44.9004         42.1004
    -60196.40444    -26608.59346  23874350.376    23874352.0304   23874359.0104
        42.3004         39.7004
 -12366408.46348  -9626496.71348  20803088.130    20803088.7064   20803094.2654
        53.3004         50.5004
 25  2 24  0 17 30.0000000  0  7G04G19G09G07G11G03G06
 -15108234.44345 -11759815.20347  21292549.161    21292549.8494   21292553.5354
        46.2004         43.2004
   2341897.80351   1840049.30155  24246933.502    24246935.6484   24246936.6874
        34.2004         32.9004
 -22301054.73448 -17353454.29848  20001426.059    20001426.1784   20001430.8234
        54.7004         52.0004
  -8314381.54446  -6454642.45447  22685024.968    22685025.3374   22685028.9364
        47.2004         44.4004
  -8918594.40845  -6933525.74947  22056990.509    22056990.6794   22056993.3714
        45.1004         42.3004
     37545.07244     49553.59146  23892948.432    23892950.2244   23892958.3224
        42.3004         39.5004
 -12357639.11848  -9619663.46448  20804757.693    20804757.8514   20804763.1624
        53.5004         50.6004
 25  2 24  0 18  0.0000000  0  7G04G19G09G07G11G03G06
 -15040816.83145 -11707282.00247  21305378.219    21305378.5844   21305382.4554
        46.2004         43.2004
   2444558.16041   1920044.35145  24266470.937    24266467.0874   24266472.7214
        34.2004         32.7004
 -22289003.08148 -17344063.39448  20003719.108    20003719.4304   20003724.0694
        54.7004         52.0004
  -8395818.33046  -6518099.66147  22669528.720    22669528.9574   22669531.2574
        47.2004         44.4004
  -8979009.02445  -6980602.05847  22045494.056    22045493.8434   22045497.0554
        45.3004         42.5004
    135403.02844    125806.47946  23911573.780    23911573.3414   23911579.9514
        42.2004         39.5004
 -12348272.16948  -9612364.54448  20806539.684    20806540.1574   20806545.4414
        53.5004         50.5004
 25  2 24  0 18 30.0000000  0  7G04G19G09G07G11G03G06
 -14973098.06245 -11654514.13647  21318264.934    21318265.5034   21318268.5914
        46.2004         43.0004
   2547306.99041   2000108.31045  24286021.795    24286020.7864   24286021.7684
        33.8004         32.7004
 -22276500.85548 -17334321.39448  20006098.221    20006098.4354   20006103.0674
        54.7004         52.0004
  -8476962.27446  -6581328.67647  22654087.376    22654087.5544   22654090.4154
        47.2004         44.4004
  -9038947.43445  -7027307.29547  22034087.895    22034088.3074   22034091.2844
        45.5004         42.5004
    233376.63244    202149.50746  23930216.623    23930216.6444   23930224.0464
        42.2004         39.3004
 -12338307.50448  -9604599.87548  20808435.990    20808436.3374   20808441.7604
        53.5004         50.5004
 25  2 24  0 19  0.0000000  0  7G04G19G09G07G11G03G06
 -14905080.00945 -11601513.05847  21331208.537    21331208.9484   21331212.1674
        46.0004         43.0004
   2650140.64651   2080238.34955  24305591.953    24305587.1734   24305592.0064
        34.3004         33.1004
 -22263548.94548 -17324228.99548  20008562.916    20008563.1994   20008567.7054
        54.7004         52.2004
  -8557811.30546  -6644327.89547  22638702.047    22638702.1014   22638705.0704
        47.2004         44.2004
  -9098407.43845  -7073639.75647  22022773.374    22022773.3404   22022776.3194
        45.5004         42.5004
    331464.98444    278581.95646  23948881.076    23948882.8234   23948889.7904
        42.2004         39.5004
 -12327745.07048  -9596369.41948  20810445.807    20810446.3824   20810451.7144
        53.5004         50.6004
 25  2 24  0 19 30.0000000  0  7G04G19G09G07G11G03G06
 -14836764.46445 -11548280.17747  21344208.282    21344208.5114   21344212.2754
        46.0004         43.0004
   2753056.39051   2160432.32555  24325174.312    24325176.1764   24325177.3674
        33.8004         32.4004
 -22250148.35648 -17313786.97448  20011113.407    20011113.2854   20011117.7854
        54.7004         52.2004
  -8638363.20046  -6707095.57747  22623374.351    22623374.0004   22623375.8964
        47.2004         44.2004
  -9157386.83545  -7119597.71947  22011548.996    22011549.2954   22011552.8134
        45.3004         42.5004
    429667.33244    355103.22446  23967568.855    23967570.3484   23967576.8494
        42.3004         39.7004
 -12316584.88548  -9587673.17648  20812569.568    20812569.8584   20812575.4154
        53.5004         50.5004
 25  2 24  0 20  0.0000000  0  7G04G19G09G07G11G03G06
 -14768153.24345 -11494816.89547  21357264.970    21357265.6014   21357268.5814
        46.0004         42.8004
   2856050.81351   2240687.60955  24344776.126    24344774.0464   24344778.8314
        34.3004         33.4004
 -22236299.99248 -17302996.04248  20013748.333    20013748.7044   20013753.1534
        54.7004         52.2004
  -8718615.79146  -6769630.02147  22608102.752    22608102.1804   22608104.9794
        47.2004         44.4004
  -9215883.45945  -7165179.48847  22000417.845    22000418.7284   22000421.2454
        45.3004         42.5004
    527982.83844    431712.67546  23986278.718    23986279.6774   23986284.5124
        42.3004         39.5004
 -12304826.90848  -9578511.12848  20814807.032    20814807.5644   20814812.9154
        53.5004         50.6004
 25  2 24  0 20 30.0000000  0  7G04G19G09G07G11G03G06
 -14699248.18545 -11441124.64747  21370376.195    21370376.7724   21370380.1514
        45.8004         42.6004
   2959120.70052   2321001.69255  24364388.275    24364385.9554   24364390.3654
        34.9004         33.4004
 -22222004.82248 -17291856.94548  20016468.592    20016468.8934   20016473.2744
        54.7004         52.2004
  -8798566.82546  -6831929.50447  22592887.326    22592888.0674   22592891.1334
        47.4004         44.5004
  -9273895.11145  -7210383.36947  21989379.261    21989378.6794   21989382.0124
        45.3004         42.3004
    626410.57844    508409.61246  24005010.323    24005009.7904   24005015.2704
        42.3004         39.5004
 -12292471.14948  -9568883.27348  20817158.440    20817158.8914   20817163.9054
        53.5004         50.5004
 25  2 24  0 21  0.0000000  0  7G04G19G09G07G11G03G06
 -14630051.06945 -11387204.82847  21383544.878    21383544.8284   21383548.0734
        45.6004         42.6004
   3062262.63252   2401371.94555  24384013.568    24384014.4464   24384015.2494
        35.0004         33.6004
 -22207263.83848 -17280370.46148  20019274.371    20019274.1024   20019278.5664
        54.7004         52.2004
  -8878214.34046  -6893992.47047  22577731.013    22577731.6814   22577734.7314
        47.5004         44.7004
  -9331419.64345  -7255207.67847  21978432.108    21978432.3914   21978435.9624
        45.1004         42.1004
    724949.84444    585193.41146  24023763.217    24023762.3974   24023765.9304
        42.0004         39.2004
 -12279517.69148  -9558789.67948  20819623.016    20819623.8204   20819628.9594
        53.5004         50.5004
 25  2 24  0 21 30.0000000  0  7G04G19G09G07G11G03G06
 -14560563.72045 -11333058.85847  21396766.466    21396767.4304   21396771.3704
        45.6004         42.6004
   3165473.39542   2481795.83545  24403656.222    24403652.7614   24403659.6304
        35.2004         33.6004
 -22192078.01348 -17268537.34348  20022163.768    20022163.7724   20022168.4214
        54.7004         52.2004
  -8957555.98446  -6955817.09247  22562634.217    22562633.4704   22562635.9544
        47.7004         44.7004
  -9388454.95445  -7299650.77047  21967578.690    21967578.9724   21967582.2914
        45.1004         42.3004
    823599.69344    662063.40046  24042531.217    24042533.4084   24042538.6374
        42.0004         39.3004
 -12265966.56548  -9548230.37148  20822202.186    20822202.7894   20822207.5594
        53.5004         50.6004
 25  2 24  0 22  0.0000000  0  7G04G19G09G07G11G03G06
 -14490787.94545 -11278688.12647  21410045.949    21410045.4404   21410049.2564
        45.5004         42.5004
   3268749.62442   2562270.77345  24423306.967    24423304.9334   24423308.2274
        34.9004         33.4004
 -22176448.32148 -17256358.35848  20025137.760    20025137.9384   20025142.5174
        54.7004         52.2004
  -9036589.49446  -7017401.61647  22547593.139    22547593.7454   22547597.0114
        47.9004         44.9004
  -9444998.88945  -7343710.96447  21956818.724    21956818.9054   21956822.7604
        45.1004         42.1004
    922359.29844    739018.91446  24061323.319    24061325.6994   24061331.3884
        41.8004         39.0004
 -12251817.89048  -9537205.44248  20824894.645    20824894.8494   20824900.0204
        53.5004         50.6004
 25  2 24  0 22 30.0000000  0  7G04G19G09G07G11G03G06
 -14420725.55145 -11224094.05947  21423377.946    21423378.0754   21423381.2624
        45.5004         42.3004
   3372088.33042   2642794.41545  24442972.547    24442972.4334   24442977.0434
        34.7004         33.1004
 -22160375.75748 -17243834.28048  20028196.301    20028196.5724   20028201.1184
        54.8004         52.2004
  -9115313.06546  -7078744.62347  22532614.005    22532613.6334   22532616.1344
        47.9004         45.1004
  -9501049.28445  -7387386.59247  21946152.866    21946153.3384   21946156.1544
        45.1004         42.1004
   1021227.86944    816059.34546  24080141.539    24080140.5854   24080147.0514
        41.6004         38.8004
 -12237071.75548  -9525714.95448  20827700.195    20827700.9264   20827706.3334
        53.5004         50.6004
 25  2 24  0 23  0.0000000  0  7G04G19G09G07G11G03G06
 -14350378.34645 -11169278.07147  21436763.961    21436764.6604   21436768.2164
        45.5004         42.3004
   3475486.12542   2723364.03445  24462650.437    24462648.7814   24462651.5794
        34.5004         33.1004
 -22143861.33748 -17230965.89948  20031339.085    20031339.1044   20031343.8184
        54.8004         52.2004
  -9193724.54646  -7139844.43747  22517691.356    22517691.9834   22517694.4254
        48.1004         45.1004
  -9556604.04245  -7430676.01546  21935581.397    21935581.4494   21935584.0844
        44.9004         41.9004
   1120204.54744    893183.96246  24098977.665    24098975.0134   24098982.2754
        41.5004         38.8004
 -12221728.30048  -9513759.02748  20830620.661    20830621.0184   20830626.2574
        53.5004         50.8004
 25  2 24  0 23 30.0000000  0  7G04G19G09G07G11G03G06
 -14279748.11045 -11114241.53447  21450205.335    21450205.7054   21450208.4924
        45.5004         42.3004
   3578939.69041   2803977.14945  24482334.584    24482333.1664   24482337.7694
        34.2004         32.7004
 -22126906.08648 -17217754.01048  20034565.392    20034565.5924   20034570.2894
        54.8004         52.2004
  -9271821.67546  -7200699.31547  22502830.149    22502830.5424   22502833.3524
        48.1004         45.1004
  -9611661.13145  -7473577.62946  21925103.725    21925104.1014   21925107.2454
        44.8004         41.9004
   1219288.44944    970392.14346  24117831.714    24117830.2614   24117837.2754
        41.5004         38.8004
 -12205787.67748  -9501337.77548  20833653.937    20833654.2604   20833659.7934
        53.6004         50.8004
 25  2 24  0 24  0.0000000  0  7G04G19G09G07G11G03G06
 -14208836.65245 -11058985.85947  21463699.143    21463699.4484   21463702.9664
        45.5004         42.5004
   3682446.04042   2884631.32745  24502032.562    24502031.8954   24502036.5584
        35.2004         33.8004
 -22109510.99648 -17204199.38948  20037875.690    20037875.7394   20037880.5634
        54.7004         52.2004
  -9349602.29246  -7261307.55447  22488030.129    22488029.8424   22488032.5624
        48.1004         45.2004
  -9666218.41745  -7516089.78946  21914721.921    21914722.2834   21914725.7094
        44.8004         41.9004
   1318478.78844   1047683.29246  24136703.337    24136704.7044   24136711.5584
        41.3004         38.8004
 -12189250.08048  -9488451.34148  20836800.617    20836801.2674   20836806.5084
        53.5004         50.6004
 25  2 24  0 24 30.0000000  0  7G04G19G09G07G11G03G06
 -14137645.78045 -11003512.46247  21477246.429    21477247.0924   21477249.9764
        45.5004         42.5004
   3786001.79342   2965324.01745  24521739.418    24521737.4804   24521741.9894
        36.1004         34.5004
 -22091677.09548 -17190302.84248  20041269.376    20041269.6524   20041274.1934
        54.7004         52.2004
  -9427064.32146  -7321667.55347  22473288.356    22473289.1374   22473291.5044
        48.1004         45.2004
  -9720273.78645  -7558210.83346  21904435.155    21904435.6844   21904439.9124
        44.9004         41.9004
   1417774.69944   1125056.68446  24155601.707    24155601.1594   24155606.4474
        41.3004         38.5004
 -12172115.73548  -9475099.91348  20840061.503    20840062.1494   20840067.1374
        53.5004         50.6004
 25  2 24  0 25  0.0000000  0  7G04G19G09G07G11G03G06
 -14066177.28645 -10947822.72647  21490847.230    21490846.6804   21490849.8024
        45.5004         42.5004
   3889603.69842   3046052.68645  24541452.661    24541451.1314   24541456.4704
        36.6004         34.8004
 -22073405.42248 -17176065.17348  20044746.502    20044746.4174   20044751.0174
        54.7004         52.2004
  -9504205.93346  -7381777.87147  22458610.545    22458609.8894   22458612.1994
        48.2004         45.2004
  -9773825.21045  -7599939.20047  21894245.233    21894245.0624   21894248.9564
        45.1004         42.3004
   1517175.33844   1202511.67446  24174517.300    24174517.5244   24174523.0204
        41.3004         38.6004
 -12154384.83448  -9461283.63748  20843435.658    20843435.9094   20843441.0874
        53.5004         50.6004
 25  2 24  0 25 30.0000000  0  7G04G19G09G07G11G03G06
 -13994432.94645 -10891918.04847  21504499.183    21504498.9414   21504502.3434
        45.5004         42.3004
   3993248.77842   3126814.98445  24561175.861    24561174.0364   24561179.5124
        37.0004         35.0004
 -22054697.04748 -17161487.22048  20048306.149    20048306.4844   20048311.0404
        54.7004         52.2004
  -9581024.41346  -7441636.39747  22443991.422    22443991.2804   22443993.6784
        48.1004         45.1004
  -9826870.64045  -7641273.29647  21884150.275    21884150.6124   21884153.6694
        45.1004         42.1004
   1616679.71644   1280047.54446  24193447.451    24193450.7704   24193456.8954
        41.3004         38.6004
 -12136057.65148  -9447002.72048  20846922.796    20846923.0004   20846928.6844
        53.5004         50.5004
 25  2 24  0 26  0.0000000  0  7G04G19G09G07G11G03G06
 -13922414.54845 -10835799.81947  21518203.617    21518203.7344   21518206.5824
        45.3004         42.3004
   4096933.70842   3207608.32545  24580906.305    24580905.4144   24580910.2224
        37.1004         35.0004
 -22035552.98448 -17146569.76848  20051949.369    20051949.4224   20051954.1274
        54.7004         52.2004
  -9657518.12546  -7501241.86247  22429435.283    22429434.9974   22429437.4854
        47.9004         44.9004
  -9879408.08445  -7682211.54547  21874152.457    21874152.8214   21874156.9274
        45.1004         42.3004
   1716287.27544   1357663.78346  24212403.834    24212405.7764   24212412.8474
        41.3004         38.6004
 -12117134.47148  -9432257.39548  20850523.542    20850524.0854   20850529.6814
        53.3004         50.5004
 25  2 24  0 26 30.0000000  0  7G04G19G09G07G11G03G06
 -13850123.89245 -10779469.44147  21531959.670    21531960.0164   21531963.7954
        45.3004         42.3004
   4200655.32242   3288430.26545  24600645.188    24600643.7494   24600646.6084
        37.3004         35.2004
 -22015974.32948 -17131313.67148  20055674.877    20055675.0104   20055679.7544
        54.7004         52.2004
  -9733685.10146  -7560592.72047  22414941.991    22414940.9534   22414943.3224
        47.7004         44.7004
  -9931435.44645  -7722752.34647  21864252.083    21864253.2144   21864255.7064
        45.3004         42.5004
   1815996.99944   1435359.62146  24231383.283    24231381.3504   24231386.5114
        41.1004         38.5004
 -12097615.56048  -9417047.87748  20854238.062    20854238.4304   20854243.9404
        53.3004         50.6004
 25  2 24  0 27  0.0000000  0  7G04G19G09G07G11G03G06
 -13777562.78945 -10722928.32147  21545767.078    21545767.0914   21545771.5794
        45.1004         42.1004
   4304410.42142   3369278.29445  24620389.758    24620388.3294   24620391.6494
        37.0004         34.8004
 -21995962.08848 -17115719.71948  20059482.847    20059483.3464   20059487.7604
        54.7004         52.0004
  -9809522.84346  -7619687.03647  22400509.671    22400509.1794   22400511.8244
        47.7004         44.7004
  -9982950.75545  -7762894.13347  21854450.446    21854450.0084   21854453.4344
        45.5004         42.5004
   1915808.00444   1513134.38746  24250376.068    24250373.6064   24250380.1174
        41.1004         38.5004
 -12077501.27848  -9401374.41948  20858065.337    20858065.8064   20858071.9644
        53.3004         50.6004
 25  2 24  0 27 30.0000000  0  7G04G19G09G07G11G03G06
 -13704732.95245 -10666177.81447  21559626.359    21559626.9774   21559631.3914
        45.1004         42.1004
   4408195.96442   3450150.05745  24640138.275    24640138.6764   24640140.3804
        37.0004         34.6004
 -21975517.37748 -17099788.77548  20063374.045    20063374.0744   20063378.2524
        54.7004         52.2004
  -9885029.77546  -7678523.57447  22386140.832    22386140.9694   22386143.1554
        47.7004         44.9004
 -10033951.98845  -7802635.34147  21844745.086    21844744.7594   21844748.1154
        45.5004         42.6004
   2015719.50944   1590987.46246  24269386.120    24269385.5314   24269391.8274
        40.8004         38.1004
 -12056791.99848  -9385237.32848  20862006.636    20862006.9294   20862012.6074
        53.3004         50.5004
 25  2 24  0 28  0.0000000  0  7G04G19G09G07G11G03G06
 -13631636.23445 -10609219.32946  21573535.904    21573537.0974   21573540.4924
        44.9004         41.9004
   4512008.51342   3531042.86145  24659892.545    24659891.9494   24659897.7164
        36.4004         34.5004
 -21954641.27348 -17083521.68048  20067346.635    20067346.6204   20067351.1124
        54.7004         52.2004
  -9960203.60246  -7737100.55247  22371835.826    22371835.4174   22371838.4734
        47.9004         45.1004
 -10084437.19245  -7841974.45047  21835137.863    21835137.9334   21835141.0864
        45.6004         42.6004
   2115730.55843   1668918.13346  24288414.341    24288417.0654   24288422.5444
        40.4004         37.6004
 -12035488.03948  -9368636.85548  20866060.609    20866061.1274   20866066.3084
        53.3004         50.5004
 25  2 24  0 28 30.0000000  0  7G04G19G09G07G11G03G06
 -13558274.36645 -10552054.23446  21587495.922    21587496.3664   21587501.1824
        44.9004         41.9004
   4615844.90742   3611954.22645  24679651.228    24679647.8554   24679658.2614
        35.9004         34.0004
 -21933334.87748 -17066919.28848  20071400.665    20071400.9694   20071405.4434
        54.7004         52.2004
 -10035042.45946  -7795416.52147  22357593.750    22357594.3394   22357597.6394
        48.1004         45.2004
 -10134404.38145  -7880909.90947  21825629.566    21825629.8974   21825632.0914
        45.6004         42.6004
   2215840.41843   1746925.79646  24307468.094    24307467.3814   24307472.0494
        40.3004         37.6004
 -12013589.81448  -9351573.31648  20870227.593    20870228.1524   20870233.6524
        53.3004         50.5004
 25  2 24  0 29  0.0000000  0  7G04G19G09G07G11G03G06
 -13484649.11745 -10494683.91746  21601506.085    21601507.1694   21601511.6974
        44.9004         41.9004
   4719702.42542   3692882.04845  24699416.853    24699414.3744   24699419.6204
        35.0004         33.3004
 -21911599.23448 -17049982.42148  20075537.065    20075537.2744   20075541.5844
        54.7004         52.2004
 -10109544.12446  -7853469.73647  22343416.293    22343417.0204   22343419.7044
        48.2004         45.2004
 -10183851.59445  -7919440.21247  21816220.012    21816220.5964   21816223.2364
        45.6004         42.6004
   2316048.25943   1825009.74946  24326536.115    24326536.7164   24326542.1194
        40.4004         37.8004
 -11991097.74948  -9334047.03448  20874507.569    20874508.1504   20874513.9134
        53.5004         50.6004
 25  2 24  0 29 30.0000000  0  7G04G19G09G07G11G03G06
 -13410762.28145 -10437109.76647  21615567.452    21615567.8034   21615571.8284
        44.9004         42.1004
   4823577.50842   3773823.54545  24719181.705    24719183.4944   24719189.4024
        34.7004         33.3004
 -21889435.47448 -17032711.95748  20079754.794    20079754.8424   20079759.2674
        54.7004         52.2004
 -10183706.31046  -7911258.42447  22329303.544    22329304.1414   22329307.0814
        48.1004         45.1004
 -10232776.93645  -7957563.84447  21806910.373    21806910.5814   21806912.6024
        45.6004         42.6004
   2416353.10943   1903169.33246  24345623.524    24345625.5734   24345629.7344
        40.4004         37.8004
 -11968012.27148  -9316058.36148  20878901.451    20878901.4894   20878906.6804
        53.5004         50.5004
 25  2 24  0 30  0.0000000  0  7G04G19G09G07G11G03G06
 -13336615.58745 -10379333.12146  21629676.709    21629677.1334   21629681.1504
        44.9004         41.9004
   4927467.27841   3854776.52345  24738953.714    24738950.5464   24738955.8294
        34.2004         32.7004
 -21866844.67448 -17015108.73548  20084053.718    20084053.7134   20084058.2744
        54.7004         52.2004
 -10257527.69646  -7968781.54647  22315256.191    22315256.1344   22315259.8814
        48.1004         45.2004
 -10281178.44845  -7995279.30547  21797699.028    21797699.7554   21797701.5004
        45.5004         42.3004
   2516754.18443   1981403.91446  24364728.669    24364729.9264   24364735.0624
        40.4004         37.9004
 -11944333.87048  -9297607.66948  20883406.902    20883407.3604   20883412.5684
        53.5004         50.5004
 25  2 24  0 30 30.0000000  0  7G04G19G09G07G11G03G06
 -13262210.85045 -10321355.40747  21643835.730    21643836.1774   21643840.6284
        44.9004         42.1004
   5031368.39351   3935738.33955  24758722.979    24758718.9024   24758727.3664
        33.3004         32.0004
 -21843828.04648 -16997173.69248  20088433.612    20088433.5094   20088438.1404
        54.7004         52.0004
 -10331005.50946  -8026036.94847  22301273.828    22301273.5984   22301277.3144
        48.2004         45.4004
 -10329054.25345  -8032585.12147  21788589.406    21788589.2534   21788591.9524
        45.5004         42.5004
   2617250.55043   2059712.73046  24383853.898    24383852.9604   24383860.2614
        40.4004         37.8004
 -11920063.02348  -9278695.32848  20888025.777    20888026.1094   20888031.2914
        53.5004         50.6004
 25  2 24  0 31  0.0000000  0  7G04G19G09G07G11G03G06
 -13187549.79945 -10263177.95747  21658043.713    21658044.0314   21658048.2714
        45.1004         42.1004
   5135277.68151   4016706.51055  24778500.809    24778498.0714
        31.9004         31.5004
 -21820386.57948 -16978907.61148  20092894.139    20092894.2864   20092898.6734
        54.7004         52.0004
 -10404138.43346  -8083023.61047  22287356.819    22287357.0594   22287360.4264
        48.4004         45.6004
 -10376402.41345  -8069479.77647  21779578.771    21779579.3454   21779581.4104
        45.5004         42.5004
   2717841.40943   2138095.16646  24402994.530    24402994.9994   24403002.0524
        40.4004         37.8004
 -11895200.22248  -9259321.72448  20892756.767    20892757.2184   20892762.7344
        53.5004         50.8004
 25  2 24  0 31 30.0000000  0  7G04G19G09G07G11G03G06
 -13112634.19745 -10204802.17546  21672300.252    21672300.5044   21672303.4124
        45.1004         41.9004
                   4097678.81155  24798273.941
                        31.0004
 -21796521.51948 -16960311.45548  20097435.708    20097435.7694   20097440.0304
        54.7004         52.0004
 -10476924.11746  -8139739.69347  22273506.067    22273506.3864   22273509.9144
        48.6004         45.9004
 -10423221.04645  -8105961.82547  21770669.964    21770670.2424   21770672.5864
        45.5004         42.6004
   2818525.89744   2216550.60146  24422156.017    24422156.3014   24422161.5084
        40.6004         37.9004
 -11869746.01448  -9239487.29148  20897600.692    20897600.8264   20897606.4174
        53.5004         50.6004
 25  2 24  0 32  0.0000000  0  8G30G04G19G09G07G11G03G06
   -407469.96753   -294761.60856  24423956.929    24423957.2294   24423966.2254
        40.1004         38.6004
 -13037465.80545 -10146229.39746  21686603.304    21686604.0584   21686607.9094
        44.9004         41.8004
                   4178652.73155  24818051.387
                        30.3004
 -21772233.91148 -16941386.04548  20102057.103    20102057.3554   20102061.9294
        54.5004         52.0004
 -10549360.53246  -8196183.62547  22259721.928    22259722.5494   22259725.8994
        48.8004         45.9004
 -10469508.34345  -8142029.82347  21761860.629    21761861.1534   21761864.2414
        45.6004         42.8004
   2919303.16644   2295078.29846  24441335.776    24441334.4054   24441338.7104
        40.6004         38.1004
 -11843700.97348  -9219192.46948  20902556.351    20902556.8924   20902562.8264
        53.5004         50.6004
 25  2 24  0 32 30.0000000  0  7G30G04G09G07G11G03G06
   -516162.62444   -379457.15346  24403272.917    24403274.2164   24403282.6174
        40.9004         38.6004
 -12962046.36645 -10087461.00846  21700955.140    21700955.9574   21700959.5444
        44.8004         41.8004
 -21747524.94148 -16922132.29948  20106759.123    20106759.2764   20106763.8734
        54.5004         52.0004
 -10621446.06646  -8252354.13947  22246004.749    22246005.1264   22246008.3184
        48.8004         45.8004
 -10515262.39045  -8177682.32247  21753154.807    21753154.7314   21753157.2134
        45.8004         43.0004
   3020172.39344   2373677.65246  24460530.461    24460528.5994   24460533.3754
        40.6004         37.8004
 -11817065.66848  -9198437.70348  20907624.862    20907625.1964   20907631.4234
        53.3004         50.6004
 25  2 24  0 33  0.0000000  0  7G30G04G09G07G11G03G06
   -624792.06654   -464103.40856  24382602.771    24382602.9694   24382610.1164
        41.5004         39.0004
 -12886377.64745 -10028498.36846  21715354.969    21715354.9584   21715357.8004
        44.6004         41.6004
 -21722395.74348 -16902551.10048  20111541.068    20111541.1204   20111545.8574
        54.5004         51.8004
 -10693178.87946  -8308249.80447  22232354.915    22232354.2694   22232357.2644
        48.6004         45.6004
 -10560481.37445  -8212917.89147  21744549.806    21744550.2024   21744553.1084
        46.0004         43.0004
   3121132.57344   2452347.89746  24479739.333    24479740.0804   24479745.8694
        40.6004         37.9004
 -11789840.71548  -9177223.47048  20912805.594    20912806.1964   20912812.1054
        53.3004         50.6004
 25  2 24  0 33 30.0000000  0  7G30G04G09G07G11G03G06
   -733356.03244   -548698.65546  24361944.400    24361944.3314   24361950.1584
        41.5004         38.8004
 -12810461.33845  -9969342.80646  21729800.925    21729801.3184   21729804.5914
        44.6004         41.6004
 -21696847.47048 -16882643.35248  20116402.883    20116402.8354   20116407.5784
        54.5004         51.8004
 -10764556.63746  -8363868.80947  22218771.912    22218771.7974   22218774.1504
        48.4004         45.4004
 -10605163.48145  -8247735.11847  21736047.069    21736046.5644   21736050.1434
        46.2004         43.2004
   3222182.94344   2531088.41446  24498971.109    24498969.4684   24498976.3394
        40.8004         38.3004
 -11762026.75448  -9155550.26948  20918099.459    20918099.3784   20918105.0544
        53.5004         50.8004
 25  2 24  0 34  0.0000000  0  7G30G04G09G07G11G03G06
   -841852.08444   -633240.98846  24341297.065    24341296.8764   24341303.8724
        41.5004         38.8004
 -12734299.19645  -9909995.68446  21744294.125    21744294.5724   21744297.8824
        44.4004         41.4004
 -21670881.25448 -16862409.93548  20121344.031    20121344.1524   20121348.7774
        54.5004         52.0004
 -10835577.32246  -8419209.57347  22205257.245    22205256.5364   22205259.5184
        48.4004         45.2004
 -10649306.91645  -8282132.59047  21727646.441    21727647.0584   21727649.7964
        46.2004         43.3004
   3323322.63844   2609898.49846  24518219.972    24518216.2434   24518223.1664
        40.6004         37.8004
 -11733624.44648  -9133418.61248  20923503.522    20923504.0774   20923509.7634
        53.5004         50.6004
 25  2 24  0 34 30.0000000  0  7G30G04G09G07G11G03G06
   -950277.91344   -717728.57846  24320663.050    24320662.9274   24320671.0294
        41.5004         38.8004
 -12657892.96845  -9850458.35646  21758833.469    21758834.1924   21758837.4544
        44.2004         41.4004
 -21644498.30948 -16841851.78948  20126364.974    20126364.6624   20126369.3094
        54.7004         52.0004
 -10906239.05446  -8474270.64247  22191808.885    22191809.9604   22191813.2004
        48.2004         45.4004
 -10692909.86645  -8316108.90447  21719349.783    21719349.5844   21719352.7634
        46.2004         43.2004
   3424550.66944   2688777.47046  24537478.093    24537479.4134   24537485.0454
        40.6004         37.9004
 -11704634.42348  -9110828.99348  20929020.452    20929020.6834   20929026.4064
        53.5004         50.6004
 25  2 24  0 35  0.0000000  0  7G30G04G09G07G11G03G06
  -1058631.25344   -802159.67946  24300043.704    24300044.0514   24300052.3834
        41.6004         39.0004
 -12581244.39945  -9790732.19546  21773420.141    21773419.4694   21773423.5614
        44.2004         41.2004
 -21617699.76948 -16820969.80848  20131464.308    20131464.3254   20131468.9184
        54.7004         52.0004
 -10976540.48746  -8529050.95547  22178431.272    22178431.8234   22178435.6014
        48.4004         45.4004
 -10735970.60045  -8349662.71547  21711155.185    21711155.2354   21711157.9144
        46.0004         43.0004
   3525866.27643   2767724.69946  24556753.842    24556757.7894   24556763.9304
        40.1004         37.4004
 -11675057.39548  -9087781.97148  20934648.487    20934649.1124   20934654.4264
        53.5004         50.6004
 25  2 24  0 35 30.0000000  0  7G30G04G09G07G11G03G06
  -1166909.65844   -886532.38546  24279438.590    24279439.9784   24279447.3544
        41.6004         38.8004
 -12504355.18245  -9730818.52446  21788050.860    21788051.2764   21788054.9944
        44.1004         41.2004
 -21590486.81348 -16799764.90448  20136642.537    20136642.9514   20136647.3454
        54.7004         52.0004
 -11046478.85746  -8583548.36647  22165122.234    22165123.5854   22165126.7854
        48.6004         45.8004
 -10778487.33545  -8382792.62847  21703064.612    21703064.9924   21703067.4914
        46.0004         43.0004
   3627268.63943   2846739.46446  24576053.041    24576054.3544   24576059.4774
        39.9004         37.4004
 -11644894.08148  -9064278.10648  20940388.354    20940389.0264   20940394.3574
        53.5004         50.6004
 25  2 24  0 36  0.0000000  0  7G30G04G09G07G11G03G06
  -1275110.72844   -970844.85746  24258851.303    24258851.3844   24258857.0474
        41.8004         39.2004
 -12427227.07845  -9670718.69646  21802727.689    21802727.7904   21802731.3184
        44.1004         41.1004
 -21562860.65148 -16778238.02648  20141899.615    20141899.9914   20141904.3294
        54.7004         52.0004
 -11116052.82046  -8637761.81047  22151882.936    22151884.1004   22151887.1034
        48.8004         46.1004
 -10820458.30345  -8415497.27247  21695077.951    21695078.0804   21695081.0524
        46.0004         42.8004
   3728756.78243   2925821.09446  24595370.792    24595365.9484   24595372.0214
        39.6004         36.7004
 -11614145.23448  -9040317.97248  20946239.841    20946240.2784   20946245.7364
        53.5004         50.6004
 25  2 24  0 36 30.0000000  0  7G30G04G09G07G11G03G06
  -1383232.21644  -1055095.31046  24238275.766    24238275.8434   24238282.4134
        42.0004         39.3004
 -12349861.77845  -9610434.05346  21817451.308    21817451.2174   21817454.4894
        44.1004         41.2004
 -21534822.44448 -16756390.07048  20147235.025    20147235.2324   20147239.7174
        54.5004         51.8004
 -11185260.42646  -8691689.79147  22138715.689    22138715.0754   22138717.6844
        49.1004         46.3004
 -10861881.84845  -8447775.35547  21687195.034    21687195.6094   21687198.0424
        45.8004         42.8004
   3830329.87943   3004968.90346  24614699.794    24614695.6834   24614702.5094
        39.6004         37.3004
 -11582811.62148  -9015902.18148  20952202.585    20952202.9424   20952208.1434
        53.5004         50.6004
 25  2 24  0 37  0.0000000  0  7G30G04G09G07G11G03G06
  -1491271.72844  -1139281.88246  24217718.360    24217716.9834   24217723.6894
        42.2004         39.5004
 -12272261.03145  -9549965.93646  21832216.066    21832217.1684   21832220.9484
        44.1004         41.1004
 -21506373.37448 -16734221.96048  20152649.012    20152649.0414   20152653.3074
        54.5004         51.8004
 -11254099.84346  -8745330.87247  22125615.510    22125615.0584   22125618.0404
        49.3004         46.3004
 -10902756.21445  -8479625.50947  21679416.941    21679417.0914   21679420.0344
        45.8004         43.0004
   3931986.96743   3084182.22346  24634042.497    24634040.3924   24634047.4234
        39.7004         37.4004
 -11550894.02548  -8991031.34148  20958276.362    20958276.9594   20958282.0874
        53.5004         50.6004
 25  2 24  0 37 30.0000000  0  7G30G04G09G07G11G03G06
  -1599226.92744  -1223402.75046  24197175.170    24197174.1314   24197181.0074
        42.3004         39.7004
 -12194426.51045  -9489315.66846  21847028.918    21847029.4394   21847031.6294
        44.1004         41.2004
 -21477514.69348 -16711734.67448  20158140.654    20158140.4654   20158144.9474
        54.5004         51.8004
 -11322569.11646  -8798683.52647  22112585.597    22112585.8494   22112588.8794
        49.3004         46.3004
 -10943079.74745  -8511046.43947  21671743.027    21671743.4324   21671745.9084
        45.8004         42.8004
   4033727.30343   3163460.35746  24653403.261    24653402.2444   24653407.9584
        40.4004         37.9004
 -11518393.28748  -8965706.10348  20964461.232    20964461.2834   20964466.9244
        53.5004         50.6004
 25  2 24  0 38  0.0000000  0  8G30G04G09G07G20G11G03G06
  -1707095.43044  -1307456.06046  24176646.567    24176645.8104   24176653.9544
        42.3004         39.7004
 -12116359.97445  -9428484.59446  21861883.964    21861884.5234   21861888.1714
        44.1004         41.1004
 -21448247.53348 -16688929.08948  20163709.091    20163709.4664   20163714.3634
        54.5004         51.8004
 -11390666.71246  -8851746.55847  22099627.701    22099627.1254   22099629.8484
        49.3004         46.3004
                   -232869.27455  22871155.474                    22871159.7164
                        35.7004
 -10982850.76445  -8542036.84247  21664175.333    21664175.5024   21664177.8914
        45.6004         42.6004
   4135549.85244   3242802.55846  24672776.050    24672778.0094   24672784.3784
        40.6004         37.9004
 -11485310.18448  -8939927.07448  20970755.881    20970756.5964   20970762.3844
        53.3004         50.5004
 25  2 24  0 38 30.0000000  0  8G30G04G09G07G20G11G03G06
  -1814874.86344  -1391439.97146  24156136.927    24156136.6874   24156143.7894
        42.3004         39.5004
 -12038063.08745  -9367474.03346  21876783.820    21876783.7464   21876787.0574
        44.1004         41.1004
 -21418573.09848 -16665806.15348  20169356.053    20169356.4214   20169361.3334
        54.3004         51.8004
 -11458390.09946  -8904518.00947  22086739.399    22086739.8984   22086742.4204
        49.3004         46.3004
   -408221.90443   -303709.76146  22853856.845    22853856.7784   22853859.7754
        38.0004         36.2004
 -11022067.61945  -8572595.42247  21656712.114    21656712.2304   21656715.8204
        45.6004         42.6004
   4237453.86044   3322208.27846  24692164.071    24692168.0364   24692176.3874
        40.9004         38.5004
 -11451645.62748  -8913694.97048  20977162.319    20977162.9294   20977168.3644
        53.3004         50.5004
 25  2 24  0 39  0.0000000  0  8G30G04G09G07G20G11G03G06
  -1922562.88944  -1475352.68246  24135644.752    24135644.7054   24135650.9754
        42.2004         39.3004
 -11959537.52745  -9306285.28546  21891727.348    21891726.6874   21891730.1014
        43.9004         40.9004
 -21388492.65548 -16642366.84148  20175080.404    20175080.7264   20175085.4524
        54.3004         51.8004
 -11525737.75046  -8956996.67547  22073923.801    22073923.8974   22073926.3534
        49.3004         46.3004
   -498987.86453   -374436.46656  22836585.977    22836584.1064   22836587.6334
        38.7004         36.6004
 -11060728.68645  -8602720.92847  21649355.415    21649355.3534   21649358.8054
        45.8004         42.8004
   4339438.43544   3401676.76346  24711574.258    24711575.5034   24711583.8934
        41.1004         38.3004
 -11417400.48948  -8887010.46548  20983679.570    20983679.8644   20983685.0434
        53.3004         50.5004
 25  2 24  0 39 30.0000000  0  8G30G04G09G07G20G11G03G06
  -2030157.19744  -1559192.34046  24115170.850    24115169.7594   24115175.9474
        42.0004         39.3004
 -11880785.02245  -9244919.70046  21906712.622    21906712.5774   21906716.5104
        43.9004         41.1004
 -21358007.39048 -16618612.08648  20180882.091    20180882.0514   20180886.4234
        54.5004         51.8004
 -11592708.02746  -9009181.27747  22061180.174    22061179.9794   22061181.8734
        49.1004         46.3004
   -589606.11543   -445048.06646  22819340.780    22819340.2164   22819344.0344
        39.0004         36.7004
 -11098832.33645  -8632412.08847  21642104.423    21642104.6264   21642108.0244
        46.0004         43.2004
   4441502.66844   3481207.27446  24731001.007    24730999.3754   24731005.6994
        41.1004         38.5004
 -11382575.69748  -8859874.27548  20990306.522    20990306.6194   20990312.0914
        53.3004         50.3004
 25  2 24  0 40  0.0000000  0  8G30G04G09G07G20G11G03G06
  -2137655.37244  -1642957.09946  24094712.932    24094713.3714   24094719.9184
        42.0004         39.2004
 -11801807.24245  -9183378.57346  21921741.397    21921741.4854   21921744.7524
        43.7004         40.9004
 -21327118.54648 -16594542.85648  20186759.653    20186759.9224   20186764.5644
        54.5004         51.8004
 -11659299.67646  -9061070.84347  22048507.571    22048507.2414   22048510.2384
        49.1004         46.1004
   -680074.69643   -515543.03646  22802125.135    22802124.0314   22802127.2694
        39.2004         36.9004
 -11136376.97145  -8661667.64947  21634960.194    21634960.5334   21634963.2714
        46.2004         43.0004
   4543645.76544   3560799.24646  24750438.537    24750436.6584   24750442.7204
        41.1004         38.5004
 -11347172.14548  -8832287.10648  20997043.312    20997043.4974   20997049.0124
        53.1004         50.1004
 25  2 24  0 40 30.0000000  0  8G30G04G09G07G20G11G03G06
  -2245055.11744  -1726645.15846  24074273.955    24074275.6904   24074282.9304
        42.0004         39.3004
 -11722605.88345  -9121663.23346  21936812.293    21936813.1224   21936817.8314
        43.7004         40.9004
 -21295827.35248 -16570160.10248  20192714.531    20192714.3694   20192719.0304
        54.5004         51.8004
 -11725509.88746  -9112663.19047  22035908.040    22035907.9004   22035910.9734
        49.1004         46.3004
   -770392.02143   -585920.15746  22784938.294    22784938.1634   22784941.4964
        39.6004         37.1004
 -11173361.03345  -8690486.39347  21627922.211    21627922.5294   21627925.6784
        46.2004         43.3004
   4645866.66944   3640451.84246  24769887.306    24769887.9044   24769894.0934
        40.9004         38.1004
 -11311190.79548  -8804249.70548  21003889.902    21003890.4154   21003895.9024
        52.9004         50.1004
 25  2 24  0 41  0.0000000  0  8G30G04G09G07G20G11G03G06
  -2352354.01244  -1810254.62846  24053857.442    24053857.7904   24053864.8664
        42.2004         39.5004
 -11643182.63745  -9059775.00646  21951927.335    21951926.8844   21951931.4364
        43.7004         40.9004
 -21264135.01048 -16545464.77148  20198745.147    20198745.2104   20198749.8414
        54.3004         51.7004
 -11791337.09046  -9163957.08747  22023381.760    22023381.7784   22023384.6004
        49.3004         46.3004
   -860556.35143   -656178.04846  22767780.136    22767779.7294   22767782.6394
        39.7004         37.3004
 -11209782.92445  -8718867.08547  21620991.235    21620991.4994   21620995.2984
        46.3004         43.2004
   4748164.44644   3720164.40946  24789346.183    24789352.2644   24789360.9204
        40.6004         37.8004
 -11274632.59048  -8775762.81148  21010847.258    21010847.5204   21010852.6524
        52.9004         50.1004
 25  2 24  0 41 30.0000000  0  8G30G04G09G07G20G11G03G06
  -2459549.74344  -1893783.70546  24033459.947    24033458.8944   24033467.3344
        42.3004         39.7004
 -11563539.17745  -8997715.17446  21967081.901    21967082.2734   21967085.9404
        43.6004         40.6004
 -21232042.78048 -16520457.83948  20204852.560    20204852.4124   20204856.7074
        54.3004         51.7004
 -11856779.81646  -9214951.39547  22010927.955    22010928.4014   22010930.7984
        49.3004         46.5004
   -950566.15043   -726315.52346  22750653.085    22750651.4344   22750655.2124
        39.7004         37.3004
 -11245641.12145  -8746808.54647  21614167.608    21614167.9274   21614171.6104
        46.2004         43.2004
   4850538.53644   3799936.40246  24808833.748    24808835.1334   24808842.1394
        40.6004         37.9004
 -11237498.55148  -8746827.20748  21017913.109    21017913.7214   21017919.2004
        53.1004         50.1004
 25  2 24  0 42  0.0000000  0  8G30G04G09G07G20G11G03G06
  -2566639.91944  -1977230.53946  24013080.350    24013080.3204   24013088.5834
        42.5004         39.9004
 -11483677.20345  -8935485.07346  21982279.192    21982280.2594   21982284.9304
        43.6004         40.9004
 -21199551.90748 -16495140.27448  20211034.781    20211034.9574   20211039.7454
        54.3004         51.7004
 -11921836.19446  -9265644.65647  21998548.338    21998548.5414   21998551.1394
        49.5004         46.5004
  -1040419.71243   -796331.25746  22733554.078    22733552.8174   22733555.4074
        39.9004         37.4004
 -11280934.12645  -8774309.58247  21607451.393    21607451.7444   21607455.1444
        46.0004         43.0004
   4952987.84144   3879766.93946  24828332.488    24828332.1974   24828337.1204
        40.6004         38.1004
 -11199789.71048  -8717443.71248  21025088.935    21025089.5834   21025095.1174
        53.1004         50.1004
 25  2 24  0 42 30.0000000  0  8G30G04G09G07G20G11G03G06
  -2673622.21944  -2060593.31946  23992720.744    23992721.4404   23992729.1354
        42.5004         39.9004
 -11403598.33045  -8873085.95946  21997517.958    21997518.1514   21997521.5964
        43.6004         40.6004
 -21166663.62748 -16469513.04648  20217293.526    20217293.6454   20217298.1124
        54.3004         51.7004
 -11986504.59946  -9316035.59647  21986242.967    21986242.8134   21986245.3734
        49.5004         46.6004
  -1130115.35643   -866223.93746  22716484.738    22716484.5224   22716486.9564
        39.9004         37.6004
 -11315660.39445  -8801369.01347  21600843.482    21600843.5234   21600846.7894
        46.0004         42.8004
   5055511.40843   3959655.41046  24847842.593    24847840.9564   24847846.2534
        40.3004         37.6004
 -11161507.07948  -8687613.10848  21032374.351    21032374.5174   21032379.9404
        52.9004         50.1004
 25  2 24  0 43  0.0000000  0  8G30G04G09G07G20G11G03G06
  -2780494.24344  -2143870.17846  23972385.197    23972384.2744   23972391.0734
        42.5004         39.9004
 -11323304.24344  -8810519.13046  22012797.404    22012797.2474   22012801.8644
        43.4004         40.6004
 -21133379.19148 -16443577.12348  20223627.320    20223627.5714   20223632.0184
        54.5004         51.8004
 -12050783.19147  -9366122.78847  21974011.919    21974011.0004   21974013.5854
        49.6004         46.6004
  -1219651.35843   -935992.23846  22699447.707    22699446.1884   22699449.8584
        40.1004         37.6004
 -11349818.44345  -8827985.66647  21594343.610    21594343.7484   21594346.8414
        46.0004         43.2004
   5158108.31043   4039601.05446  24867364.282    24867364.2064   24867369.6874
        40.1004         37.6004
 -11122651.75448  -8657336.24848  21039768.037    21039768.3204   21039774.0154
        52.9004         50.1004
 25  2 24  0 43 30.0000000  0  8G30G04G09G07G20G11G03G06
  -2887253.64444  -2227059.26946  23952069.362    23952069.1574   23952075.2834
        42.5004         39.7004
 -11242796.57944  -8747785.90746  22028118.769    22028118.5604   22028121.5544
        43.4004         40.6004
 -21099699.85348 -16417333.48448  20230036.351    20230036.4824   20230041.0364
        54.3004         51.7004
 -12114670.28847  -9415904.90947  21961853.004    21961853.3384   21961856.2694
        49.6004         46.6004
  -1309026.00043  -1005634.77946  22682439.173    22682439.1454   22682442.2094
        40.3004         37.6004
 -11383406.80245  -8854158.41947  21587952.331    21587952.3274   21587955.5214
        46.2004         43.2004
   5260777.84043   4119603.25746  24886899.445    24886900.8834   24886908.9664
        39.9004         37.4004
 -11083224.77348  -8626613.94848  21047271.041    21047271.5224   21047276.5914
        52.9004         50.1004
 25  2 24  0 44  0.0000000  0  8G30G04G09G07G20G11G03G06
  -2993898.08244  -2310158.78546  23931775.634    23931775.7674   23931782.0344
        42.3004         39.7004
 -11162077.04944  -8684887.56946  22043477.057    22043478.1594   22043481.4424
        43.2004         40.4004
 -21065626.86948 -16390783.10948  20236520.110    20236520.2534   20236525.0334
        54.3004         51.8004
 -12178164.50947  -9465380.89747  21949770.042    21949770.3914   21949773.6454
        49.6004         46.6004
  -1398237.05343  -1075149.87046  22665463.253    22665463.0364   22665465.6464
        40.3004         37.8004
 -11416424.04945  -8879886.14147  21581668.481    21581668.8684   21581671.7484
        46.2004         43.0004
   5363519.03453   4199661.24156  24906446.657    24906451.8544   24906459.3944
        39.7004         37.3004
 -11043227.27248  -8595447.07848  21054882.188    21054882.5904   21054887.7824
        53.1004         50.1004
 25  2 24  0 44 30.0000000  0  8G30G04G09G07G20G11G03G06
  -3100425.19344  -2393166.86446  23911505.737    23911504.8884   23911510.7274
        42.3004         39.5004
 -11081147.26944  -8621825.40446  22058878.778    22058878.6264   22058883.6574
        43.2004         40.4004
 -21031161.52648 -16363926.99248  20243078.492    20243078.7494   20243083.4084
        54.3004         51.7004
 -12241263.56247  -9514548.96847  21937763.659    21937763.5574   21937766.4814
        49.6004         46.8004
  -1487283.11843  -1144536.39146  22648519.217    22648518.1504   22648519.7594
        40.3004         37.8004
 -11448868.72245  -8905167.69747  21575494.949    21575495.1754   21575497.5744
        46.2004         43.2004
   5466330.98053   4279774.46456  24926015.890    24926016.0454   24926023.3964
        39.9004         37.4004
 -11002660.34848  -8563836.50248  21062601.841    21062602.1924   21062607.6814
        52.9004         50.1004
 25  2 24  0 45  0.0000000  0  8G30G04G09G07G20G11G03G06
  -3206832.63544  -2476081.71046  23891256.562    23891255.5194   23891261.6334
        42.2004         39.3004
 -11000008.87144  -8558600.68146  22074317.733    22074318.4384   22074322.8824
        43.2004         40.4004
 -20996305.05548 -16336766.10348  20249712.059    20249711.7384   20249716.3554
        54.3004         51.7004
 -12303965.71747  -9563407.75847  21925831.870    21925831.7194   21925834.7404
        49.8004         46.8004
  -1576162.38143  -1213792.94246  22631606.580    22631605.4624   22631608.0894
        40.4004         37.9004
 -11480739.43045  -8930002.01347  21569430.605    21569430.1534   21569433.2864
        46.2004         43.2004
   5569212.82043   4359942.09646  24945595.158    24945594.9524   24945601.8474
        40.3004         37.8004
 -10961525.16648  -8531783.13348  21070429.413    21070429.9414   21070435.6464
        53.1004         50.1004
 25  2 24  0 45 30.0000000  0  8G30G04G09G07G20G11G03G06
  -3313118.02344  -2558901.44846  23871029.849    23871030.3384   23871035.3104
        42.2004         39.3004
 -10918663.49544  -8495214.68646  22089798.063    22089798.0544   22089802.2134
        43.2004         40.4004
 -20961058.75248 -16309301.45848  20256418.565    20256418.7724   20256423.3474
        54.3004         51.7004
 -12366269.81647  -9611956.37847  21913975.390    21913975.3674   21913978.4834
        49.8004         47.0004
  -1664873.26443  -1282918.28646  22614724.697    22614723.1544   22614726.5054
        40.4004         37.9004
 -11512034.78445  -8954388.00947  21563474.683    21563474.9234   21563477.7634
        46.2004         43.3004
   5672163.60453   4440163.40556  24965181.740    24965186.5164   24965191.6854
        40.1004         37.4004
 -10919822.92248  -8499287.89448  21078365.191    21078365.6434   21078371.2654
        52.9004         50.1004
 25  2 24  0 46  0.0000000  0  8G30G04G09G07G20G11G03G06
  -3419279.02544  -2641624.26346  23850828.384    23850828.1844   23850832.7244
        42.0004         39.3004
 -10837112.80444  -8431668.68846  22105317.084    22105317.1774   22105321.1144
        43.2004         40.4004
 -20925423.85648 -16281534.00348  20263200.005    20263199.8904   20263204.4974
        54.3004         51.7004
 -12428174.18747  -9660193.53047  21902195.163    21902195.7214   21902198.6064
        50.0004         47.0004
  -1753414.04444  -1351911.08846  22597876.496    22597875.4484   22597878.1324
        40.6004         37.9004
 -11542753.41645  -8978324.60547  21557629.283    21557629.9024   21557632.6764
        46.3004         43.3004
   5775182.35143   4520437.75246  24984792.420    24984789.0744   24984796.7304
        40.4004         37.9004
 -10877554.77048  -8466351.69348  21086408.762    21086409.1474   21086414.3484
        52.9004         49.9004
 25  2 24  0 46 30.0000000  0  8G30G04G09G07G20G11G03G06
  -3525313.29944  -2724248.32146  23830649.724    23830649.8174   23830655.0474
        42.2004         39.5004
 -10755358.37944  -8367963.94946  22120874.543    22120874.6034   22120877.8544
        43.2004         40.4004
 -20889401.67148 -16253464.76948  20270054.913    20270054.9974   20270059.2474
        54.3004         51.5004
 -12489676.72547  -9708117.56247  21890491.509    21890491.7674   21890495.0964
        50.0004         47.0004
  -1841782.58243  -1420769.66546  22581059.237    22581058.6844   22581061.5334
        40.4004         37.9004
 -11572893.94245  -9001810.73147  21551894.130    21551894.1904   21551896.8524
        46.3004         43.5004
   5878268.33044   4600764.48246  25004413.269    25004407.5254   25004414.0654
        40.6004         37.9004
 -10834721.95048  -8432975.48348  21094559.289    21094559.7604   21094564.9614
        52.9004         49.9004
 25  2 24  0 47  0.0000000  0  8G30G04G09G07G20G11G03G06
  -3631218.40344  -2806771.73446  23810496.419    23810496.8824   23810502.0994
        42.2004         39.5004
 -10673401.92644  -8304101.77946  22136469.710    22136470.4164   22136474.3334
        43.2004         40.2004
 -20852993.48448 -16225094.75348  20276982.894    20276982.9034   20276987.6094
        54.1004         51.5004
 -12550775.94747  -9755727.32747  21878864.329    21878865.0294   21878868.0304
        49.8004         47.0004
  -1929977.31843  -1489492.82646  22564275.907    22564275.9304   22564279.1924
        40.4004         37.9004
 -11602455.08746  -9024845.38647  21546268.916    21546268.9674   21546272.0194
        46.5004         43.5004
   5981420.66143   4681142.88846  25024039.333    25024036.4624   25024042.7584
        40.4004         37.6004
 -10791325.67548  -8399160.22248  21102817.778    21102817.9544   21102823.0934
        52.8004         49.8004
 25  2 24  0 47 30.0000000  0  8G30G04G09G07G20G11G03G06
  -3736992.04044  -2889192.71746  23790370.569    23790370.6934   23790375.7384
        42.5004         39.9004
 -10591245.01744  -8240083.42446  22152104.335    22152104.8984   22152107.1064
        43.0004         40.2004
 -20816200.56048 -16196424.94448  20283983.415    20283984.3934   20283988.9054
        54.1004         51.5004
 -12611470.24347  -9803021.56347  21867315.814    21867315.3294   21867317.9464
        50.0004         47.0004
  -2017996.39244  -1558079.10446  22547527.134    22547526.1074   22547529.7304
        40.6004         38.1004
 -11631435.50046  -9047427.52147  21540753.267    21540753.0514   21540757.2314
        46.5004         43.5004
   6084638.34643   4761572.25046  25043675.403    25043677.2334   25043684.5414
        40.1004         37.6004
 -10747367.25448  -8364906.91848  21111182.419    21111182.8534   21111188.2944
        52.8004         49.8004
 25  2 24  0 48  0.0000000  0  8G30G04G09G07G20G11G03G06
  -3842631.89544  -2971509.43646  23770267.613    23770268.0324   23770272.6544
        42.7004         40.0004
 -10508889.28244  -8175910.12246  22167776.100    22167776.5524   22167779.3164
        43.0004         40.2004
 -20779024.19848 -16167456.35048  20291058.757    20291058.8584   20291063.1134
        54.1004         51.5004
 -12671758.49847  -9849999.39847  21855843.424    21855842.9434   21855845.7074
        50.0004         47.2004
  -2105838.04744  -1626527.12946  22530811.544    22530810.7294   22530814.8674
        40.6004         38.1004
 -11659833.90946  -9069556.15447  21535349.166    21535349.6864   21535352.6584
        46.5004         43.7004
   6187920.55443   4842051.89246  25063330.815    25063330.8814   25063337.9524
        39.9004         37.1004
 -10702847.87848  -8330216.51548  21119654.195    21119654.5954   21119659.6804
        52.6004         49.6004
 25  2 24  0 48 30.0000000  0  8G30G04G09G07G20G11G03G06
  -3948135.59544  -3053720.07146  23750190.452    23750189.6814   23750195.9484
        42.7004         39.9004
 -10426336.26744  -8111583.10546  22183486.144    22183485.9564   22183488.9814
        43.0004         40.2004
 -20741465.68748 -16138189.97848  20298205.589    20298205.7414   20298210.2314
        54.1004         51.3004
 -12731638.53347  -9896659.14647  21844448.199    21844448.3154   21844451.2164
        50.2004         47.3004
  -2193500.23544  -1694835.30746  22514130.471    22514129.0664   22514132.0454
        40.8004         38.3004
 -11687649.04246  -9091230.27947  21530056.550    21530056.5514   21530059.8004
        46.7004         43.7004
   6291266.35153   4922581.03756  25082992.161    25082995.3184   25083004.0444
        39.2004         36.6004
 -10657768.89648  -8295090.05848  21128232.613    21128233.0054   21128238.1554
        52.6004         49.6004
 25  2 24  0 49  0.0000000  0  8G30G04G09G07G20G11G03G06
  -4053500.74044  -3135822.73446  23730138.686    23730139.1374   23730146.6014
        42.5004         39.9004
 -10343587.67144  -8047103.69046  22199232.058    22199232.0384   22199234.7684
        43.0004         40.2004
 -20703526.31748 -16108626.83348  20305425.304    20305425.5524   20305429.8324
        54.0004         51.3004
 -12791108.93047  -9942999.69447  21833131.082    21833131.3344   21833134.3814
        50.3004         47.5004
  -2280981.48744  -1763002.50146  22497483.337    22497482.3324   22497484.9814
        40.9004         38.3004
 -11714879.62746  -9112448.91747  21524875.025    21524874.8484   21524877.7494
        46.7004         43.7004
   6394674.60653   5003158.88955  25102673.049    25102671.6714   25102681.3014
        38.7004         35.9004
 -10612131.65748  -8259528.59148  21136916.661    21136917.1344   21136922.8734
        52.6004         49.8004
 25  2 24  0 49 30.0000000  0  7G30G04G09G07G20G11G06
  -4158725.00144  -3217815.62346  23710116.974    23710116.0254   23710122.5644
        42.5004         39.7004
 -10260645.01144  -7982473.05546  22215016.213    22215016.1854   22215019.2444
        43.0004         40.2004
 -20665207.39448 -16078767.93348  20312717.337    20312717.2704   20312721.6164
        54.0004         51.3004
 -12850168.16047  -9989019.85647  21821892.813    21821892.9384   21821895.7654
        50.5004         47.7004
  -2368279.95444  -1831027.26046  22480870.478    22480870.1704   22480872.6374
        40.8004         37.9004
 -11741524.47746  -9133211.14847  21519804.255    21519804.6754   21519807.9794
        46.7004         43.7004
 -10565937.49248  -8223533.15148  21145707.346    21145707.9314   21145713.3494
        52.6004         49.8004
 25  2 24  0 50  0.0000000  0  7G30G04G09G07G20G11G06
  -4263806.07344  -3299696.90246  23690119.790    23690118.5454   23690126.5404
        42.3004         39.5004
 -10177509.93644  -7917692.48246  22230836.675    22230836.6274   22230839.4754
        43.0004         40.0004
 -20626510.19748 -16048614.27548  20320080.680    20320080.9034   20320085.3854
        54.0004         51.1004
 -12908814.76447 -10034718.47347  21810731.979    21810732.3704   21810735.7104
        50.5004         47.7004
  -2455393.83344  -1898908.18546  22464293.686    22464292.5484   22464296.0824
        40.6004         37.9004
 -11767582.35246  -9153515.99147  21514846.095    21514846.0324   21514848.6724
        46.7004         43.7004
 -10519187.70848  -8187104.76748  21154603.866    21154603.8634   21154609.4874
        52.6004         49.6004
 25  2 24  0 50 30.0000000  0  7G30G04G09G07G20G11G06
  -4368741.53044  -3381464.73646  23670152.737    23670151.9004   23670157.1294
        42.3004         39.7004
 -10094184.02844  -7852763.21646  22246692.662    22246692.6534   22246694.7914
        43.0004         40.0004
 -20587436.03448 -16018166.88248  20327516.497    20327516.7454   20327521.4694
        54.0004         51.3004
 -12967047.28947 -10080094.44747  21799651.123    21799651.1644   21799654.6764
        50.5004         47.7004
  -2542321.25443  -1966643.82346  22447750.830    22447750.0824   22447753.5384
        40.4004         37.9004
 -11793052.13546  -9173362.57047  21509998.885    21509999.0454   21510002.5604
        46.7004         43.7004
 -10471883.74348  -8150244.55448  21163605.305    21163605.6134   21163611.2234
        52.6004         49.6004
 25  2 24  0 51  0.0000000  0  7G30G04G09G07G20G11G06
  -4473529.06044  -3463117.32846  23650211.810    23650211.3594   23650216.6284
        42.5004         39.9004
 -10010668.87044  -7787686.45946  22262584.636    22262585.0814   22262588.0794
        42.9004         40.0004
 -20547986.25448 -15987426.79048  20335023.712    20335023.6594   20335028.4204
        54.0004         51.3004
 -13024864.03247 -10125146.43547  21788649.436    21788649.3154   21788652.2554
        50.7004         47.7004
  -2629060.35544  -2034232.71546  22431245.668    22431244.4304   22431247.1314
        40.6004         38.3004
 -11817932.61046  -9192749.96047  21505264.810    21505265.0614   21505267.7754
        46.9004         44.0004
 -10424027.00848  -8112953.60948  21172712.186    21172712.4874   21172718.0794
        52.6004         49.6004
 25  2 24  0 51 30.0000000  0  7G30G04G09G07G20G11G06
  -4578166.24344  -3544652.75046  23630299.406    23630299.6564   23630305.5144
        42.9004         40.2004
  -9926966.03044  -7722463.48546  22278513.804    22278512.7914   22278515.9004
        42.9004         40.0004
 -20508162.13248 -15956395.00848  20342602.314    20342602.1694   20342606.8254
        54.0004         51.3004
 -13082263.29647 -10169873.10747  21777726.002    21777726.3994   21777729.3514
        50.7004         47.8004
  -2715609.22644  -2101673.39046  22414776.229    22414775.3354   22414777.1684
        40.8004         38.3004
 -11842222.63946  -9211677.25747  21500642.290    21500642.8014   21500645.6774
        47.0004         44.0004
 -10375618.90247  -8075233.03048  21181923.830    21181924.5124   21181929.6814
        52.4004         49.4004
 25  2 24  0 52  0.0000000  0  7G30G04G09G07G20G11G06
  -4682650.82444  -3626069.27846  23610416.466    23610416.6034   23610421.7884
        42.9004         40.2004
  -9843077.05744  -7657095.45146  22294476.203    22294476.0594   22294479.3034
        42.9004         39.9004
 -20467964.99048 -15925072.56748  20350251.259    20350251.4384   20350256.3114
        54.0004         51.3004
 -13139243.57247 -10214273.29547  21766882.779    21766883.3364   21766886.5184
        50.7004         47.8004
  -2801965.95544  -2168964.32246  22398342.977    22398341.1804   22398344.4364
        40.9004         38.3004
 -11865921.10946  -9230143.59647  21496132.554    21496132.9574   21496135.9104
        47.0004         43.9004
 -10326660.86247  -8037083.92348  21191240.113    21191240.9184   21191245.9174
        52.4004         49.4004
 25  2 24  0 52 30.0000000  0  7G30G04G09G07G20G11G06
  -4786980.42544  -3707365.02746  23590563.944    23590563.2044   23590568.1264
        43.0004         40.2004
  -9759003.57244  -7591583.65846  22310474.711    22310474.7064   22310477.1034
        42.7004         39.9004
 -20427396.11548 -15893460.46148  20357970.898    20357971.3044   20357976.1794
        54.0004         51.3004
 -13195803.48147 -10258345.93147  21756120.423    21756120.3754   21756123.4494
        50.8004         47.8004
  -2888129.06444  -2236104.39346  22381947.436    22381945.1334   22381947.4704
        40.9004         38.5004
 -11889026.86846  -9248148.08147  21491735.310    21491736.0254   21491738.6234
        46.9004         43.7004
 -10277154.39647  -7998507.47048  21200661.331    21200661.3994   21200666.7454
        52.4004         49.4004
 25  2 24  0 53  0.0000000  0  7G30G04G09G07G20G11G06
  -4891152.71944  -3788538.18546  23570739.858    23570738.8944   23570745.0274
        43.0004         40.2004
  -9674747.13944  -7525929.28446  22326508.525    22326508.1104   22326510.8774
        42.5004         39.5004
 -20386456.85848 -15861559.74348  20365762.232    20365762.1354   20365766.6094
        54.0004         51.3004
 -13251941.89347 -10302090.12347  21745437.158    21745437.3734   21745440.6024
        50.8004         47.8004
  -2974096.43844  -2303091.95246  22365587.026    22365587.0944   22365588.9214
        41.1004         38.6004
 -11911538.90846  -9265689.92447  21487451.643    21487451.6564   21487455.0154
        46.7004         43.7004
 -10227100.95747  -7959504.81048  21210185.762    21210186.0744   21210191.6694
        52.2004         49.4004
 25  2 24  0 53 30.0000000  0  7G30G04G09G07G20G11G06
  -4995165.33044  -3869586.92346  23550946.749    23550945.6414   23550953.0424
        43.0004         40.4004
  -9590309.23644  -7460133.54946  22342575.755    22342576.8784   22342580.0354
        42.5004         39.9004
 -20345148.51148 -15829371.42348  20373622.113    20373622.5394   20373627.3604
        54.0004         51.3004
 -13307656.91447 -10345504.40047  21734835.013    21734834.9304   21734838.2534
        50.7004         47.7004
  -3059866.25644  -2369925.58046  22349266.709    22349265.3244   22349268.2254
        41.5004         38.8004
 -11933456.15046  -9282768.29647  21483281.072    21483281.4474   21483284.0184
        46.7004         43.5004
 -10176502.05047  -7920077.11748  21219814.963    21219814.9214   21219820.4634
        52.2004         49.4004
 25  2 24  0 54  0.0000000  0  7G30G04G09G07G20G11G06
  -5099015.93744  -3950509.42646  23531184.782    23531184.4024   23531190.6004
        43.4004         40.7004
  -9505691.50344  -7394197.65246  22358676.906    22358677.6514   22358682.1034
        42.5004         39.5004
 -20303472.42448 -15796896.55648  20381553.261    20381553.3604   20381557.8784
        54.0004         51.1004
 -13362947.23747 -10388587.74547  21724313.856    21724313.4814   21724316.6384
        50.7004         47.7004
  -3145436.45844  -2436603.64646  22332983.027    22332981.6624   22332984.3434
        41.6004         39.0004
 -11954777.60746  -9299382.43547  21479223.643    21479224.2474   21479227.1364
        46.5004         43.5004
 -10125359.20047  -7880225.56048  21229546.470    21229546.9974   21229553.0404
        52.4004         49.4004
 25  2 24  0 54 30.0000000  0  7G30G04G09G07G20G11G06
  -5202702.17645  -4031303.86246  23511453.338    23511453.3824   23511460.4924
        43.7004         40.9004
  -9420895.41444  -7328122.80246  22374814.564    22374814.9644   22374818.3264
        42.5004         39.7004
 -20261429.92948 -15764136.17348  20389553.695    20389553.4814   20389558.1814
        53.8004         51.1004
 -13417811.33947 -10431338.97847  21713873.459    21713873.4334   21713876.2844
        50.7004         47.7004
  -3230805.48944  -2503124.96146  22316737.359    22316736.4264   22316739.5774
        41.8004         39.0004
 -11975502.18946  -9315531.46447  21475280.386    21475280.2784   21475282.9234
        46.7004         43.7004
 -10073673.93747  -7839951.35148  21239382.034    21239382.3154   21239388.2514
        52.4004         49.4004
 25  2 24  0 55  0.0000000  0  7G30G04G09G07G20G11G06
  -5306221.71645  -4111968.39746  23491754.328    23491754.6604   23491761.9624
        43.9004         41.2004
  -9335922.56144  -7261910.19046  22390983.040    22390984.0444   22390988.4554
        42.3004         39.7004
 -20219022.27948 -15731091.25348  20397622.815    20397623.1484   20397628.0134
        53.8004         51.0004
 -13472247.82647 -10473756.99747  21703514.800    21703514.9644   21703517.5554
        50.7004         47.8004
  -3315971.09844  -2569487.76546  22300530.682    22300530.5114   22300533.5274
        41.8004         39.2004
 -11995628.93446  -9331214.64347  21471449.570    21471449.8074   21471453.3684
        46.7004         43.7004
 -10021447.87747  -7799255.74048  21249319.923    21249320.6854   21249326.2514
        52.2004         49.2004
 25  2 24  0 55 30.0000000  0  7G30G04G09G07G20G11G06
  -5409572.23845  -4192501.22546  23472089.392    23472088.6484   23472095.1084
        44.4004         41.6004
  -9250774.47744  -7195561.04746  22407188.236    22407188.0914   22407191.1994
        42.5004         39.7004
 -20176250.88648 -15697762.90148  20405761.961    20405762.4604   20405767.0304
        53.8004         51.0004
 -13526255.54747 -10515840.92047  21693238.034    21693237.7944   21693240.3134
        50.7004         47.8004
  -3400931.86144  -2635690.93246  22284362.521    22284362.5134   22284364.9684
        42.0004         39.3004
 -12015156.90046  -9346431.24147  21467733.897    21467734.2924   21467737.2334
        46.7004         43.7004
  -9968682.58647  -7758139.95148  21259361.708    21259362.0204   21259367.2624
        52.2004         49.4004
 25  2 24  0 56  0.0000000  0  7G30G04G09G07G20G11G06
  -5512751.35745  -4272900.49546  23452454.713    23452453.7734   23452460.0074
        44.6004         41.8004
  -9165452.66944  -7129076.54446  22423423.852    22423424.7714   22423428.2494
        42.7004         40.0004
 -20133117.00948 -15664152.08948  20413970.149    20413970.5274   20413975.2504
        53.6004         51.0004
 -13579833.04747 -10557589.59847  21683042.070    21683041.7454   21683044.8734
        50.7004         47.7004
  -3485685.95344  -2701733.07546  22268235.133    22268234.2504   22268236.9734
        42.2004         39.5004
 -12034085.17046  -9361180.54647  21464131.921    21464132.0244   21464135.1704
        46.7004         43.5004
  -9915379.67247  -7716605.22948  21269505.081    21269505.0764   21269510.9254
        52.2004         49.4004
 25  2 24  0 56 30.0000000  0  7G30G04G09G07G20G11G06
  -5615756.77245  -4353164.43246  23432853.031    23432852.8284   23432858.3714
        44.6004         41.8004
  -9079958.70944  -7062457.87946  22439693.315    22439693.2994   22439697.2624
        42.7004         40.0004
 -20089622.04448 -15630259.91248  20422247.414    20422247.4454   20422252.0754
        53.8004         51.0004
 -13632979.15547 -10599002.14247  21672928.619    21672928.5324   21672931.1844
        50.7004         47.7004
  -3570231.11844  -2767612.41346  22252146.287    22252145.9584   22252148.1474
        42.3004         39.7004
 -12052412.79046  -9375461.81247  21460644.695    21460644.7794   21460647.1744
        46.7004         43.5004
  -9861540.77047  -7674652.86048  21279749.616    21279750.0794   21279755.7114
        52.2004         49.2004
 25  2 24  0 57  0.0000000  0  7G30G04G09G07G20G11G06
  -5718586.17245  -4433291.20446  23413285.904    23413284.8764   23413290.2774
        44.8004         41.9004
  -8994294.05744  -6995706.21246  22455994.727    22455995.3794   22455997.4334
        42.7004         39.9004
 -20045767.29848 -15596087.38148  20430592.587    20430592.6204   20430597.5164
        53.8004         51.1004
 -13685692.19547 -10640077.21047  21662898.447    21662897.7974   21662900.1784
        50.7004         47.8004
  -3654565.56244  -2833327.55046  22236097.576    22236097.6114   22236101.0284
        42.7004         40.0004
 -12070138.83546  -9389274.32747  21457271.410    21457271.6774   21457273.9844
        46.5004         43.5004
  -9807167.51447  -7632284.11348  21290096.571    21290097.2014   21290102.2594
        52.1004         49.1004
 25  2 24  0 57 30.0000000  0  7G30G04G09G07G20G11G06
  -5821237.20845  -4513278.98246  23393750.793    23393749.8634   23393756.2694
        44.8004         41.9004
  -8908460.28344  -6928822.76546  22472329.075    22472328.6244   22472331.5844
        42.7004         39.7004
 -20001554.08148 -15561635.53148  20439006.706    20439006.5524   20439011.1764
        53.8004         51.1004
 -13737970.17947 -10680813.28347  21652949.454    21652949.2084   21652951.9264
        50.8004         47.8004
  -3738687.31544  -2898876.96546  22220090.999    22220089.5224   22220092.5574
        43.0004         40.4004
 -12087262.48346  -9402617.42547  21454012.074    21454012.6584   21454016.0454
        46.5004         43.3004
  -9752261.55847  -7589500.27348  21300545.326    21300545.5284   21300551.0064
        52.1004         49.2004
 25  2 24  0 58  0.0000000  0  7G30G04G09G07G20G11G06
  -5923707.53945  -4593125.95746  23374249.991    23374249.9364   23374256.1694
        44.6004         41.8004
  -8822458.81744  -6861808.64946  22488693.979    22488694.6014   22488697.5334
        42.5004         39.7004
 -19956983.79048 -15526905.43848  20447487.840    20447488.0884   20447492.7144
        54.0004         51.3004
 -13789812.38547 -10721209.79148  21643083.539    21643083.9294   21643087.0234
        50.8004         48.0004
  -3822594.55444  -2964259.21246  22204122.455    22204121.7684   22204125.9384
        43.2004         40.7004
 -12103782.85846  -9415490.44947  21450868.777    21450869.1154   21450872.0974
        46.5004         43.5004
  -9696824.60347  -7546302.66048  21311094.522    21311095.0744   21311100.6024
        52.2004         49.4004
 25  2 24  0 58 30.0000000  0  7G30G04G09G07G20G11G06
  -6025994.84345  -4672830.31546  23354785.590    23354785.7474   23354791.9794
        44.8004         41.9004
  -8736291.24144  -6794665.09446  22505091.113    22505091.6454   22505094.6314
        42.5004         39.7004
 -19912057.70648 -15491898.10948  20456037.304    20456037.3134   20456041.6404
        54.0004         51.3004
 -13841217.91547 -10761266.02248  21633302.598    21633301.8814   21633305.0554
        51.0004         48.0004
  -3906285.49545  -3029472.92446  22188196.845    22188196.6824   22188200.0984
        43.6004         40.7004
 -12119699.11246  -9427892.73347  21447839.887    21447840.6514   21447843.1264
        46.5004         43.7004
  -9640858.32647  -7502692.59548  21321745.104    21321744.9294   21321750.5494
        52.2004         49.2004
 25  2 24  0 59  0.0000000  0  7G30G04G09G07G20G11G06
  -6128096.79945  -4752390.24646  23335356.136    23335355.7574   23335362.7964
        44.8004         41.9004
  -8649958.99644  -6727393.22946  22521518.484    22521520.3904   22521522.5354
        42.3004         39.5004
 -19866777.21548 -15456614.61548  20464653.679    20464653.7904   20464658.5394
        54.0004         51.1004
 -13892185.01547 -10800980.63148  21623603.264    21623603.3314   21623606.0324
        51.0004         48.0004
  -3989758.21745  -3094516.60246  22172312.141    22172311.5394   22172315.0714
        43.6004         40.7004
 -12135010.46746  -9439823.67147  21444926.061    21444926.9884   21444929.6494
        46.5004         43.5004
  -9584364.47647  -7458671.43248  21332495.298    21332495.4324   21332500.7334
        52.1004         49.1004
 25  2 24  0 59 30.0000000  0  7G30G04G09G07G20G11G06
  -6230011.07745  -4831803.93346  23315961.354    23315961.7834   23315969.2964
        44.8004         41.9004
  -8563463.58544  -6659994.21446  22537979.576    22537979.3244   22537982.1504
        42.3004         39.5004
 -19821143.63748 -15421055.98548  20473337.783    20473337.6124   20473342.2344
        54.0004         51.1004
 -13942712.36047 -10840352.57248  21613988.590    21613988.3954   21613990.7444
        51.0004         48.0004
  -4073010.55545  -3159388.53146  22156470.030    22156469.6914   22156473.0804
        43.7004         41.1004
 -12149716.14446  -9451282.65047  21442127.494    21442128.5344   21442131.6694
        46.5004         43.5004
  -9527344.77047  -7414240.50948  21343345.347    21343345.7024   21343351.4264
        52.1004         49.1004
 25  2 24  1  0  0.0000000  0  7G30G04G09G07G20G11G06
  -6331735.35645  -4911069.56946  23296604.137    23296604.5704   23296611.1694
        44.8004         41.9004
  -8476806.50544  -6592469.21546  22554468.262    22554468.8694   22554472.5774
        42.0004         39.2004
 -19775158.28548 -15385223.25648  20482088.418    20482088.2774   20482092.7844
        53.8004         51.1004
 -13992798.78247 -10879380.94347  21604456.595    21604456.9004   21604459.2114
        50.8004         47.8004
  -4156040.29145  -3224087.02146  22140670.614    22140669.4884   22140672.5064
        43.9004         41.2004
 -12163815.39046  -9462269.07047  21439445.437    21439445.1454   21439447.8594
        46.5004         43.5004
  -9469800.98147  -7369401.20948  21354295.247    21354295.8274   21354301.3814
        52.1004         49.1004
 25  2 24  1  0 30.0000000  0  7G30G04G09G07G20G11G06
  -6433267.32245  -4990185.33546  23277283.329    23277283.7034   23277291.0994
        44.8004         41.9004
  -8389989.24044  -6524819.41946  22570990.498    22570990.0814   22570992.2654
        42.0004         39.2004
 -19728822.55548 -15349117.49948  20490905.095    20490905.3454   20490910.3714
        53.8004         51.1004
 -14042442.97547 -10918064.71647  21595010.311    21595009.9384   21595012.2224
        50.8004         47.7004
  -4238846.34845  -3288611.20946  22124913.291    22124912.0854   22124915.2194
        44.1004         41.4004
 -12177307.44746  -9472782.36347  21436877.866    21436878.1674   21436880.4984
        46.5004         43.7004
  -9411734.89747  -7324154.92648  21365344.937    21365345.5184   21365351.1704
        52.1004         49.1004
 25  2 24  1  1  0.0000000  0  7G30G04G09G07G20G11G06
  -6534604.65545  -5069149.45847  23258001.332    23258000.4004   23258007.1254
        44.9004         42.1004
  -8303013.26144  -6457045.93646  22587539.676    22587539.5954   22587544.0924
        41.8004         39.0004
 -19682137.78348 -15312739.75548  20499789.180    20499789.3154   20499794.3394
        53.8004         51.1004
 -14091643.81747 -10956403.01547  21585646.710    21585647.1074   21585650.0184
        50.7004         47.7004
  -4321426.40845  -3352959.30246  22109198.572    22109197.5194   22109200.7514
        44.2004         41.4004
 -12190191.63246  -9482821.99247  21434425.934    21434426.3094   21434429.0964
        46.7004         43.9004
  -9353148.29647  -7278503.04448  21376493.867    21376494.2514   21376499.8924
        51.9004         49.1004
 25  2 24  1  1 30.0000000  0  7G30G04G09G07G20G11G06
  -6635745.03445  -5147960.09947  23238753.288    23238753.5184   23238760.5114
        44.9004         42.3004
  -8215880.09844  -6389149.98346  22604122.537    22604121.5794   22604124.4054
        41.6004         38.8004
 -19635105.30448 -15276091.07548  20508738.963    20508739.1074   20508744.3364
        53.8004         51.1004
 -14140400.04947 -10994394.87147  21576369.043    21576369.1954   21576372.0114
        50.8004         47.8004
  -4403778.26745  -3417129.56946  22093526.978    22093526.7894   22093530.0504
        44.4004         41.6004
 -12202467.20746  -9492387.38147  21432090.232    21432090.3374   21432092.6864
        46.9004         43.9004
  -9294043.01147  -7232446.99848  21387741.540    21387741.6164   21387747.1024
        51.9004         49.1004
 25  2 24  1  2  0.0000000  0  7G30G04G09G07G20G11G06
  -6736686.21645  -5226615.53447  23219542.355    23219543.9844   23219551.8444
        44.9004         42.1004
  -8128591.11544  -6321132.60246  22620731.529    22620732.7144   22620735.1614
        41.6004         39.0004
 -19587726.45848 -15239172.49548  20517754.797    20517755.0144   20517760.3574
        53.8004         51.1004
 -14188710.22547 -11032039.13547  21567175.892    21567175.7504   21567178.7904
        50.8004         47.8004
  -4485899.98945  -3481120.49646  22077900.052    22077899.3494   22077903.3044
        44.6004         41.8004
 -12214133.55846  -9501478.05447  21429869.863    21429870.4104   21429872.7944
        46.7004         43.5004
  -9234420.85747  -7185988.19648  21399086.395    21399087.2434   21399092.6974
        51.9004         48.9004
 25  2 24  1  2 30.0000000  0  7G30G04G09G07G20G11G06
  -6837425.82245  -5305113.89047  23200374.588    23200374.3824   23200381.8214
        45.1004         42.3004
  -8041147.73244  -6252994.90846  22637372.158    22637371.8294   22637375.3354
        41.5004         38.6004
 -19540002.60948 -15201985.08548  20526836.915    20526836.8284   20526841.5154
        53.8004         51.0004
 -14236573.21647 -11069334.95548  21558067.590    21558067.6544   21558070.6954
        50.8004         48.0004
  -4567789.75245  -3544930.68846  22062317.293    22062316.2124   22062320.5034
        44.6004         41.9004
 -12225190.01546  -9510093.48447  21427765.555    21427766.2014   21427768.9754
        46.5004         43.5004
  -9174283.68847  -7139128.09548  21410530.885    21410531.4634   21410536.3944
        51.9004         48.9004
 25  2 24  1  3  0.0000000  0  7G30G04G09G07G20G11G06
  -6937961.56345  -5383453.39447  23181244.277    23181243.7294   23181250.9654
        45.1004         42.5004
  -7953551.51344  -6184738.12346  22654040.312    22654040.9654   22654044.3284
        41.5004         38.8004
 -19491935.11148 -15164529.88648  20535983.361    20535983.5094   20535988.7124
        53.6004         51.0004
 -14283988.23847 -11106281.70948  21549044.725    21549045.0404   21549048.0654
        50.8004         48.0004
  -4649445.79945  -3608558.75746  22046778.061    22046777.3644   22046781.4394
        44.8004         41.9004
 -12235635.94846  -9518233.17447  21425777.566    21425778.2454   21425781.9754
        46.5004         43.7004
  -9113633.37847  -7091868.13448  21422071.940    21422072.4944   21422078.1814
        51.9004         49.1004
 25  2 24  1  3 30.0000000  0  7G30G04G09G07G20G11G06
  -7038291.11445  -5461632.22347  23162152.985    23162151.4704   23162158.7794
        45.3004         42.6004
  -7865803.81344  -6116363.30046  22670738.902    22670738.9064   22670742.0964
        41.3004         38.6004
 -19443525.29248 -15126807.95348  20545196.127    20545195.9214   20545200.9104
        53.8004         51.0004
 -14330953.79647 -11142878.23148  21540108.713    21540108.2424   21540111.0154
        51.0004         48.2004
  -4730865.91045  -3672002.98746  22031284.482    22031283.9034   22031287.2864
        44.8004         41.8004
 -12245470.83746  -9525896.73047  21423906.216    21423906.5724   21423910.5004
        46.7004         43.7004
  -9052471.82047  -7044209.79848  21433710.924    21433711.1234   21433716.8934
        51.9004         48.9004
 25  2 24  1  4  0.0000000  0  7G30G04G09G07G20G11G06
  -7138412.16545  -5539648.58547  23143099.595    23143099.8904   23143106.1064
        45.6004         43.0004
  -7777906.12644  -6047871.60846  22687464.592    22687465.5604   22687467.6764
        41.3004         38.8004
 -19394774.48348 -15088820.31048  20554472.697    20554472.8674   20554477.6784
        53.8004         51.0004
 -14377468.64247 -11179123.54648  21531257.039    21531256.7574   21531259.5394
        51.0004         48.2004
  -4812048.24745  -3735261.93846  22015835.998    22015835.3024   22015838.6444
        44.8004         41.9004
 -12254694.08746  -9533083.68947  21422151.692    21422151.8774   21422154.7644
        46.7004         43.7004
  -8990800.91247  -6996154.56448  21445446.126    21445446.5464   21445452.1504
        51.9004         48.9004
 25  2 24  1  4 30.0000000  0  7G30G04G09G07G20G11G06
  -7238322.47145  -5617500.73147  23124087.012    23124087.7274   23124093.7574
        46.0004         43.3004
  -7689859.92244  -5979264.18346  22704219.629    22704220.0364   22704223.1224
        41.5004         38.8004
 -19345684.08848 -15050568.05948  20563814.585    20563814.7874   20563819.1544
        53.8004         51.0004
 -14423531.60547 -11215016.74648  21522490.881    21522491.0184   21522493.7584
        51.0004         48.2004
  -4892990.98045  -3798334.18546  22000433.717    22000432.9464   22000435.5434
        44.8004         41.8004
 -12263305.13846  -9539793.60247  21420513.058    21420513.1744   21420516.1824
        46.7004         43.5004
  -8928622.54547  -6947703.91248  21457278.323    21457278.9834   21457284.4374
        51.7004         48.7004
 25  2 24  1  5  0.0000000  0  7G30G04G09G07G20G11G06
  -7338019.73045  -5695186.87547  23105115.807    23105115.7964   23105121.8834
        46.2004         43.5004
  -7601666.56944  -5910542.11046  22721002.183    22721003.2074   22721005.9294
        41.5004         38.6004
 -19296255.44748 -15012052.23648  20573220.269    20573220.6054   20573225.3784
        53.8004         51.1004
 -14469141.68447 -11250557.05348  21513811.824    21513811.8334   21513814.2654
        51.0004         48.2004
  -4973692.18345  -3861218.22046  21985076.449    21985075.8494   21985078.5244
        44.6004         41.6004
 -12271303.47846  -9546026.08447  21418991.396    21418991.2784   21418993.8354
        46.5004         43.5004
  -8865938.68847  -6898859.36848  21469206.708    21469207.1204   21469212.6514
        51.7004         48.7004
 25  2 24  1  5 30.0000000  0  7G30G04G09G07G20G11G06
  -7437501.64845  -5772705.21247  23086184.449    23086184.2544   23086190.9974
        46.3004         43.7004
  -7513327.47744  -5841706.47246  22737811.976    22737813.3344   22737816.4874
        41.5004         38.8004
 -19246489.90048 -14973273.89048  20582690.227    20582690.6864   20582695.1184
        53.8004         51.0004
 -14514297.88147 -11285743.68548  21505218.650    21505218.7644   21505221.2594
        51.0004         48.2004
  -5054149.52345  -3923912.24146  21969766.392    21969764.8664   21969768.0114
        44.4004         41.4004
 -12278688.60346  -9551780.73547  21417585.758    21417586.0114   21417588.2564
        46.5004         43.5004
  -8802751.26347  -6849622.43748  21481230.655    21481231.1174   21481237.4774
        51.7004         48.7004
 25  2 24  1  6  0.0000000  0  7G30G04G09G07G20G11G06
  -7536765.93246  -5850053.96947  23067294.581    23067294.7304   23067301.4774
        46.5004         43.9004
  -7424844.08844  -5772758.38946  22754651.256    22754651.3024   22754653.8364
        41.5004         38.8004
 -19196388.82248 -14934234.09248  20592224.481    20592224.4214   20592228.9004
        53.8004         51.0004
 -14558999.20547 -11320575.86948  21496711.847    21496712.2054   21496714.9034
        51.0004         48.2004
  -5134361.06245  -3986414.71746  21954501.680    21954501.2854   21954504.5934
        44.4004         41.6004
 -12285460.06946  -9557057.21547  21416297.644    21416297.8064   21416299.8244
        46.7004         43.7004
  -8739062.27347  -6799994.67248  21493350.868    21493351.1204   21493357.0454
        51.5004         48.5004
 25  2 24  1  6 30.0000000  0  7G30G04G09G07G20G11G06
  -7635810.29846  -5927231.36247  23048448.042    23048448.1044   23048453.8534
        46.9004         44.0004
  -7336217.82144  -5703698.96746  22771515.763    22771515.8504   22771519.2654
        41.3004         38.5004
 -19145953.53748 -14894933.87748  20601821.611    20601821.9744   20601826.3354
        53.6004         50.8004
 -14603244.11747 -11355052.40648  21488293.016    21488292.8044   21488295.4764
        51.0004         48.2004
  -5214325.20845  -4048724.41246  21939285.398    21939284.6284   21939287.7434
        44.4004         41.6004
 -12291617.41046  -9561855.14247  21415124.826    21415125.2144   21415128.9364
        46.9004         43.7004
  -8674873.70147  -6749977.62948  21505565.673    21505565.5684   21505571.7054
        51.5004         48.5004
 25  2 24  1  7  0.0000000  0  7G30G04G09G07G20G11G06
  -7734632.44846  -6004235.59747  23029643.761    23029642.9174   23029649.3534
        47.0004         44.4004
  -7247450.03844  -5634529.28146  22788408.439    22788407.3634   22788411.0564
        41.1004         38.5004
 -19095185.41148 -14855374.30848  20611482.252    20611482.7104   20611487.3034
        53.6004         50.8004
 -14647032.43447 -11389173.15948  21479960.849    21479960.4894   21479963.0844
        51.2004         48.4004
  -5294039.86845  -4110839.71746  21924116.152    21924115.1744   21924118.7534
        44.4004         41.6004
 -12297160.19946  -9566174.20847  21414070.884    21414071.1014   21414073.9424
        46.9004         43.9004
  -8610187.56447  -6699572.86448  21517874.159    21517874.8814   21517881.1964
        51.5004         48.5004
 25  2 24  1  7 30.0000000  0  7G30G04G09G07G20G11G06
  -7833230.17346  -6081064.95647  23010879.332    23010879.6154   23010887.0154
        47.2004         44.4004
  -7158542.16444  -5565250.43246  22805325.564    22805326.3004   22805329.4974
        40.9004         38.3004
 -19044085.80648 -14815556.44148  20621206.408    20621206.7084   20621211.1224
        53.6004         51.0004
 -14690361.97347 -11422936.41748  21471714.835    21471714.5844   21471717.7294
        51.2004         48.4004
  -5373502.66545  -4172758.77246  21908995.098    21908994.4074   21908997.4814
        44.4004         41.4004
 -12302088.06146  -9570014.11547  21413132.919    21413132.9874   21413136.2854
        46.9004         43.9004
  -8545005.86047  -6648781.95548  21530278.405    21530278.6644   21530284.5494
        51.5004         48.5004
 25  2 24  1  8  0.0000000  0  7G30G04G09G07G20G11G06
  -7931601.11846  -6157717.60247  22992160.356    22992160.3704   22992167.1644
        47.2004         44.5004
  -7069495.60444  -5495863.51746  22822270.922    22822270.9584   22822274.5104
        40.9004         38.3004
 -18992656.09048 -14775481.33848  20630993.842    20630993.4974   20630997.9624
        53.6004         51.0004
 -14733232.07647 -11456341.67348  21463555.986    21463556.5594   21463559.9144
        51.2004         48.4004
  -5452711.82745  -4234480.16946  21893922.164    21893921.2014   21893924.6164
        44.4004         41.4004
 -12306400.62446  -9573374.56547  21412311.889    21412312.3514   21412315.4764
        46.9004         43.7004
  -8479330.65847  -6597606.49948  21542775.576    21542776.0714   21542782.0914
        51.5004         48.5004
 25  2 24  1  8 30.0000000  0  7G30G04G09G07G20G11G06
  -8029743.03946  -6234191.79747  22973485.829    22973485.3164   22973491.6884
        47.4004         44.5004
  -6980311.75344  -5426369.62946  22839242.797    22839242.7484   22839246.6014
        40.9004         38.5004
 -18940897.58148 -14735150.04248  20640843.196    20640843.2504   20640847.4064
        53.8004         51.0004
 -14775642.04447 -11489388.38748  21455486.601    21455486.2594   21455489.3914
        51.2004         48.2004
  -5531665.46845  -4296002.47246  21878897.424    21878896.9684   21878900.6554
        44.6004         41.8004
 -12310097.54646  -9576255.30447  21411608.558    21411608.6464   21411612.4754
        46.7004         43.7004
  -8413163.98847  -6546048.07748  21555366.647    21555367.4524   21555373.4074
        51.5004         48.7004
 25  2 24  1  9  0.0000000  0  7G30G04G09G07G20G11G06
  -8127653.72046  -6310485.79047  22954852.965    22954852.9754   22954859.6254
        47.2004         44.4004
  -6890991.96144  -5356769.81146  22856239.993    22856239.2194   22856242.1254
        40.8004         38.1004
 -18888811.65748 -14694563.61248  20650754.386    20650754.4064   20650759.0544
        53.8004         51.0004
 -14817590.70947 -11522075.63748  21447503.941    21447503.8834   21447506.4544
        51.0004         48.2004
  -5610361.26245  -4357323.85246  21863921.714    21863920.9954   21863924.9444
        44.6004         41.8004
 -12313178.47146  -9578656.04047  21411022.886    21411022.6534   21411025.7444
        46.9004         43.9004
  -8346507.94847  -6494108.33048  21568051.340    21568051.5874   21568057.4024
        51.5004         48.7004
 25  2 24  1  9 30.0000000  0  7G30G04G09G07G20G11G06
  -8225330.83646  -6386597.80047  22936266.085    22936265.7444   22936272.1674
        47.0004         44.2004
  -6801537.59844  -5287065.13546  22873260.183    22873261.6954   22873265.0684
        40.8004         38.1004
 -18836399.65648 -14653723.09848  20660728.708    20660728.3904   20660732.7234
        53.8004         51.0004
 -14859076.94847 -11554402.56148  21439609.162    21439609.1654   21439612.0284
        51.0004         48.2004
  -5688797.49545  -4418442.97746  21848995.557    21848994.9354   21848998.6574
        44.6004         41.8004
 -12315643.12646  -9580576.55947  21410553.925    21410553.9384   21410557.3014
        46.9004         43.9004
  -8279364.60547  -6441788.86848  21580828.327    21580828.9254   21580834.4384
        51.5004         48.7004
 25  2 24  1 10  0.0000000  0  7G30G04G09G07G20G11G06
  -8322772.15546  -6462526.05947  22917724.094    22917723.1044   22917729.8464
        46.9004         44.0004
  -6711950.02644  -5217256.65046  22890310.338    22890309.9624   22890312.9474
        40.6004         37.9004
 -18783662.96548 -14612629.57748  20670764.089    20670763.5944   20670768.3234
        53.8004         51.0004
 -14900100.33247 -11586368.82048  21431802.641    21431802.7264   21431805.8344
        51.2004         48.4004
  -5766971.85945  -4479358.06146  21834120.408    21834119.5944   21834122.9354
        44.8004         41.9004
 -12317491.28446  -9582016.67847  21410201.758    21410202.4234   21410205.3854
        46.9004         43.9004
  -8211736.06747  -6389091.33648  21593697.413    21593698.1354   21593704.1754
        51.5004         48.7004
 25  2 24  1 10 30.0000000  0  7G30G04G09G07G20G11G06
  -8419975.42146  -6538268.83247  22899226.439    22899225.4224   22899232.5354
        46.9004         43.9004
  -6622230.63044  -5147345.44646  22907382.475    22907383.2064   22907385.6404
        40.6004         38.1004
 -18730602.90748 -14571284.08448  20680860.758    20680860.7034   20680865.4684
        53.6004         51.0004
 -14940659.40547 -11617973.27848  21424084.837    21424084.5664   21424087.6784
        51.2004         48.4004
  -5844882.68645  -4540067.78846  21819293.996    21819293.9164   21819296.0964
        44.8004         41.9004
 -12318722.61946  -9582976.17147  21409967.298    21409967.6704   21409970.9854
        46.7004         43.7004
  -8143624.45647  -6336017.37348  21606658.434    21606659.1054   21606665.3974
        51.5004         48.5004
 25  2 24  1 11  0.0000000  0  7G30G04G09G07G20G11G06
  -8516938.40246  -6613824.37947  22880773.369    22880773.5924   22880780.5204
        46.7004         43.7004
  -6532380.75344  -5077332.55546  22924480.555    22924481.0154   22924484.7274
        40.6004         37.9004
 -18677220.84148 -14529687.67348  20691018.135    20691018.7304   20691023.7644
        53.6004         51.0004
 -14980753.48947 -11649215.40448  21416454.776    21416455.0234   21416457.7614
        51.2004         48.4004
  -5922528.16945  -4600570.74446  21804519.368    21804518.2904   21804520.8914
        44.8004         41.9004
 -12319336.96046  -9583454.88847  21409850.864    21409850.5534   21409853.9734
        46.7004         43.7004
  -8075031.89747  -6282568.66248  21619712.325    21619712.2354   21619717.7394
        51.4004         48.4004
 25  2 24  1 11 30.0000000  0  7G30G04G09G07G20G11G06
  -8613658.83046  -6689190.91047  22862368.102    22862368.4524   22862375.0834
        46.5004         43.5004
  -6442401.75944  -5007219.07646  22941603.040    22941603.4224   22941607.2724
        40.8004         38.3004
 -18623518.12548 -14487841.40948  20701237.719    20701238.2374   20701243.0894
        53.6004         51.0004
 -15020381.45547 -11680094.31748  21408913.431    21408913.6484   21408916.7634
        51.2004         48.4004
  -5999905.91445  -4660865.08547  21789793.850    21789793.8074   21789796.2714
        44.9004         42.3004
 -12319334.08546  -9583452.66347  21409850.876    21409851.1254   21409854.5034
        46.7004         43.7004
  -8005960.52947  -6228746.85448  21632855.730    21632855.9974   21632861.5984
        51.4004         48.2004
 25  2 24  1 12  0.0000000  0  7G30G04G09G07G20G11G06
  -8710134.45746  -6764366.66947  22844010.405    22844010.0594   22844016.4914
        46.7004         43.9004
  -6352294.96144  -4937006.00046  22958750.348    22958750.3474   22958753.5204
        40.8004         38.1004
 -18569496.13148 -14445746.34948  20711517.979    20711518.1234   20711522.9744
        53.6004         50.8004
 -15059542.43747 -11710609.35748  21401461.136    21401461.6744   21401464.7404
        51.2004         48.4004
  -6077013.79845  -4720949.14847  21775120.697    21775120.4964   21775123.4604
        45.1004         42.3004
 -12318713.87446  -9582969.39147  21409968.601    21409969.3004   21409972.2274
        46.7004         43.7004
  -7936412.52047  -6174553.62648  21646089.443    21646090.2224   21646096.0054
        51.0004         48.0004
 25  2 24  1 12 30.0000000  0  7G30G04G09G07G20G11G06
  -8806363.02846  -6839349.93447  22825698.847    22825698.2984   22825704.8864
        46.7004         43.9004
  -6262061.73044  -4866694.41746  22975919.633    22975921.3684   22975924.3864
        40.8004         37.9004
 -18515156.18948 -14403403.54548  20721858.807    20721858.8214   20721863.3354
        53.6004         50.8004
 -15098235.46147 -11740759.74648  21394098.585    21394098.8404   21394101.7514
        51.2004         48.4004
  -6153849.90545  -4780821.42447  21760499.291    21760498.8844   21760502.2344
        45.3004         42.3004
 -12317476.14846  -9582004.93747  21410205.309    21410205.2084   21410208.1994
        46.7004         43.7004
  -7866390.10247  -6119990.73448  21659414.956    21659415.3734   21659421.0334
        51.0004         48.0004
 25  2 24  1 13  0.0000000  0  7G30G04G09G07G20G11G06
  -8902342.38546  -6914139.01247  22807435.519    22807434.4074   22807440.3454
        46.9004         44.0004
  -6171703.42244  -4796285.36046  22993114.933    22993115.6594   22993119.7494
        40.6004         37.9004
 -18460499.66348 -14360814.04948  20732259.196    20732259.6174   20732263.8854
        53.5004         50.6004
 -15136459.84647 -11770544.96548  21386824.245    21386824.9354   21386827.6834
        51.2004         48.4004
  -6230412.18245  -4840480.32947  21745930.806    21745930.0804   21745932.2624
        45.3004         42.5004
 -12315620.77446  -9580559.20247  21410558.257    21410557.7654   21410560.8704
        46.7004         43.5004
  -7795895.40347  -6065059.83848  21672830.148    21672830.1214   21672835.9644
        51.2004         48.4004
 25  2 24  1 13 30.0000000  0  7G30G04G09G07G20G11G06
  -8998070.24646  -6988732.11747  22789219.212    22789218.4164   22789224.1794
        47.0004         44.2004
  -6081221.30844  -4725779.83646  23010333.770    23010333.9204   23010337.2104
        40.8004         38.1004
 -18405527.91248 -14317978.92248  20742720.397    20742720.4264   20742724.7134
        53.5004         50.6004
 -15174214.55647 -11799964.20448  21379640.385    21379640.4374   21379643.0834
        51.2004         48.4004
  -6306698.83445  -4899924.47047  21731413.577    21731412.7794   21731415.6554
        45.3004         42.3004
 -12313147.67446  -9578632.11847  21411028.074    21411028.6504   21411031.8434
        46.5004         43.5004
  -7724930.67347  -6009762.68348  21686333.884    21686334.2694   21686340.0034
        51.2004         48.4004
 25  2 24  1 14  0.0000000  0  7G30G04G09G07G20G11G06
  -9093544.36846  -7063127.50747  22771049.551    22771049.3984   22771056.2384
        47.2004         44.4004
  -5990616.71044  -4655178.87046  23027574.260    23027575.2884   23027579.0764
        40.6004         37.9004
 -18350242.27748 -14274899.21548  20753240.846    20753240.9584   20753245.0804
        53.5004         50.5004
 -15211498.87747 -11829016.90648  21372545.140    21372545.2994   21372547.7934
        51.2004         48.4004
  -6382707.47345  -4959151.97047  21716949.867    21716949.2394   21716951.8364
        45.3004         42.5004
 -12310056.77945  -9576223.64447  21411616.012    21411616.5944   21411619.5264
        46.3004         43.5004
  -7653498.15547  -5954101.01248  21699926.615    21699927.0374   21699933.0984
        51.2004         48.2004
 25  2 24  1 14 30.0000000  0  7G30G04G09G07G20G11G06
  -9188762.60246  -7137323.52047  22752930.241    22752930.3914   22752937.1674
        47.4004         44.5004
  -5899890.97944  -4584483.53146  23044839.312    23044839.4354   23044844.1914
        40.6004         37.9004
 -18294644.07948 -14231575.95348  20763821.452    20763820.9494   20763824.8464
        53.3004         50.5004
 -15248312.41847 -11857702.76748  21365539.906    21365540.0934   21365542.6174
        51.2004         48.4004
  -6458436.22845  -5018161.38147  21702539.210    21702538.4724   21702541.5884
        45.5004         42.6004
 -12306348.04246  -9573333.72447  21412321.977    21412322.4014   21412325.6094
        46.5004         43.7004
  -7581600.04447  -5898076.54848  21713608.569    21713609.0314   21713614.9724
        51.2004         48.2004
 25  2 24  1 15  0.0000000  0  7G30G04G09G07G20G11G06
  -9283722.73246  -7211318.38147  22734860.736    22734859.9654   22734865.5304
        47.5004         44.5004
  -5809045.37644  -4513694.74746  23062126.513    23062127.7564   23062131.2954
        40.6004         37.9004
 -18238734.72348 -14188010.22448  20774460.110    20774460.0124   20774464.4554
        53.3004         50.5004
 -15284653.93447 -11886020.81648  21358624.560    21358624.6444   21358627.3234
        51.4004         48.5004
  -6533883.09845  -5076951.14047  21688182.308    21688181.3074   21688184.1444
        45.5004         42.5004
 -12302021.44346  -9569962.35947  21413145.675    21413145.9214   21413148.2944
        46.5004         43.3004
  -7509238.60147  -5841691.04148  21727379.267    21727379.1994   21727384.6474
        51.0004         48.0004
 25  2 24  1 15 30.0000000  0  7G30G04G09G07G20G11G06
  -9378422.46046  -7285110.33847  22716839.392    22716839.3314   22716844.3544
        47.5004         44.7004
  -5718081.21943  -4442813.63246  23079436.254    23079436.7804   23079439.9814
        40.4004         37.8004
 -18182515.51948 -14144203.06348  20785158.512    20785158.3154   20785162.7064
        53.3004         50.5004
 -15320522.27647 -11913970.15748  21351799.096    21351799.0344   21351802.0584
        51.4004         48.5004
  -6609045.95245  -5135519.59147  21673878.949    21673878.6934   21673881.7384
        45.5004         42.6004
 -12297076.98245  -9566109.54247  21414086.923    21414086.7984   21414089.3614
        46.3004         43.2004
  -7436416.09247  -5784946.26648  21741236.968    21741237.2404   21741242.3324
        51.0004         48.0004
 25  2 24  1 16  0.0000000  0  7G30G04G09G07G20G11G06
  -9472859.66946  -7358697.73447  22698869.184    22698868.5704   22698874.2894
        47.9004         45.1004
  -5626999.85243  -4371841.15046  23096769.544    23096769.2444   23096774.1884
        40.3004         37.8004
 -18125987.82948 -14100155.51848  20795914.892    20795915.1894   20795919.5804
        53.3004         50.5004
 -15355917.06847 -11941550.49448  21345063.648    21345063.6234   21345066.7384
        51.4004         48.7004
  -6683922.51045  -5193864.95247  21659630.440    21659629.4254   21659633.0534
        45.5004         42.6004
 -12291514.72245  -9561775.32647  21415145.095    21415145.4224   21415147.8394
        46.3004         43.3004
  -7363134.84247  -5727844.01648  21755181.737    21755182.0134   21755187.5994
        51.0004         48.0004
 25  2 24  1 16 30.0000000  0  7G30G04G09G07G20G11G06
  -9567032.09946  -7432078.80847  22680949.539    22680948.7334   22680954.1474
        48.1004         45.4004
  -5535802.47343  -4300778.29346  23114122.727    23114122.5904   23114127.4804
        40.1004         37.3004
 -18069153.01748 -14055868.66348  20806730.573    20806730.6444   20806735.1184
        53.3004         50.5004
 -15390837.42547 -11968761.14548  21338418.351    21338418.5554   21338421.4694
        51.4004         48.7004
  -6758511.16045  -5251985.96747  21645436.715    21645435.5854   21645439.1994
        45.5004         42.6004
 -12285334.69845  -9556959.74247  21416321.270    21416321.5404   21416324.1794
        46.3004         43.3004
  -7289397.09647  -5670386.06248  21769213.088    21769213.6264   21769219.2914
        51.0004         48.0004
 25  2 24  1 17  0.0000000  0  7G30G04G09G07G20G11G06
  -9660937.60146  -7505251.89347  22663078.490    22663078.0894   22663084.6774
        48.2004         45.4004
  -5444490.45143  -4229626.07746  23131498.268    23131498.6514   23131503.8504
        39.7004         37.3004
 -18012012.42348 -14011343.53148  20817603.615    20817603.8484   20817608.4054
        53.3004         50.5004
 -15425282.80647 -11995601.68048  21331863.782    21331863.5024   21331866.3484
        51.4004         48.5004
  -6832809.86645  -5309881.05247  21631297.959    21631297.3744   21631300.0234
        45.5004         42.6004
 -12278536.99446  -9551662.83547  21417614.869    21417614.9244   21417618.2014
        46.5004         43.7004
  -7215205.19247  -5612574.22647  21783330.604    21783331.7734   21783337.4564
        50.8004         47.8004
 25  2 24  1 17 30.0000000  0  7G30G04G09G07G20G11G06
  -9754573.92646  -7578215.24547  22645259.665    22645260.0134   22645265.8024
        48.2004         45.4004
  -5353065.01243  -4158385.49446  23148897.709    23148897.5994   23148901.4774
        39.7004         37.3004
 -17954567.36548 -13966581.15448  20828535.471    20828535.4074   20828540.1604
        53.3004         50.5004
 -15459252.41347 -12022071.48848  21325399.023    21325399.3314   21325402.2134
        51.4004         48.5004
  -6906816.28945  -5367548.40347  21617214.995    21617213.8674   21617218.0554
        45.5004         42.6004
 -12271121.74846  -9545884.73247  21419025.443    21419025.7634   21419029.1024
        46.7004         43.7004
  -7140561.44847  -5554410.30547  21797535.997    21797536.3854   21797541.6394
        50.8004         47.8004
 25  2 24  1 18  0.0000000  0  7G30G04G09G07G20G11G06
  -9847938.98046  -7650967.19447  22627492.795    22627492.7244   22627499.0854
        48.2004         45.4004
  -5261527.43443  -4087057.54046  23166317.393    23166317.2834   23166319.6064
        39.4004         36.9004
 -17896819.20248 -13921582.59348  20839523.994    20839524.1574   20839529.2144
        53.3004         50.5004
 -15492745.82547 -12048170.24548  21319025.801    21319025.9324   21319028.3644
        51.4004         48.5004
  -6980528.66945  -5424986.60347  21603187.292    21603186.8374   21603190.4654
        45.5004         42.6004
 -12263089.06646  -9539625.51547  21420554.198    21420554.7784   21420557.5174
        46.7004         43.7004
  -7065468.20547  -5495896.11647  21811825.387    21811826.0334   21811831.6784
        50.8004         47.8004
 25  2 24  1 18 30.0000000  0  7G30G04G09G07G20G11G06
  -9941030.51446  -7723506.02247  22609777.927    22609778.0944   22609784.8464
        48.2004         45.4004
  -5169879.03143  -4015643.21146  23183755.307    23183756.6574   23183760.4214
        39.9004         37.6004
 -17838769.29948 -13876348.90948  20850570.910    20850571.2034   20850575.4084
        53.1004         50.3004
 -15525761.86447 -12073897.00548  21312743.348    21312743.3004   21312745.7734
        51.4004         48.5004
  -7053944.79745  -5482193.97547  21589217.303    21589216.2284   21589219.7484
        45.6004         42.8004
 -12254439.12446  -9532885.31547  21422200.333    21422200.1664   21422203.1164
        46.5004         43.3004
  -6989927.80247  -5437033.49548  21826201.219    21826201.0804   21826206.8084
        50.8004         48.0004
 25  2 24  1 19  0.0000000  0  7G30G04G09G07G20G11G06
 -10033846.38046  -7795830.03447  22592116.893    22592116.4294   22592122.2884
        48.2004         45.6004
  -5078120.98143  -3944143.45846  23201217.463    23201217.7794   23201220.6054
        39.7004         37.1004
 -17780418.98748 -13830881.13548  20861674.986    20861674.5624   20861679.2314
        53.1004         50.3004
 -15558299.81347 -12099251.24348  21306551.432    21306551.5114   21306553.7934
        51.5004         48.7004
  -7127062.64745  -5539168.91847  21575303.304    21575302.4334   21575306.0764
        45.6004         42.8004
 -12245172.05246  -9525664.24247  21423964.047    21423963.9494   21423967.5624
        46.5004         43.5004
  -6913942.60847  -5377824.28248  21840659.959    21840660.5624   21840666.3104
        50.8004         48.0004
 25  2 24  1 19 30.0000000  0  7G30G04G09G07G20G11G06
 -10126384.43846  -7867937.56747  22574506.582    22574506.2664   22574512.3554
        48.2004         45.4004
  -4986254.62243  -3872559.29446  23218698.935    23218699.2384   23218703.6604
        39.7004         37.4004
 -17721769.59248 -13785180.31848  20872835.716    20872835.5624   20872839.9354
        53.1004         50.3004
 -15590359.25347 -12124232.60948  21300450.899    21300450.7424   21300453.1674
        51.5004         48.7004
  -7199880.02645  -5595909.72847  21561446.522    21561446.0514   21561449.1384
        45.6004         42.6004
 -12235288.10746  -9517962.47547  21425844.315    21425844.5174   21425847.7294
        46.5004         43.5004
  -6837514.98447  -5318270.32748  21855204.319    21855204.2864   21855209.9184
        50.8004         48.0004
 25  2 24  1 20  0.0000000  0  7G30G04G09G07G20G11G06
 -10218642.49846  -7939826.92747  22556951.128    22556950.4564   22556956.6964
        48.4004         45.6004
  -4894281.15143  -3800891.66946  23236200.697    23236200.2174   23236205.8274
        39.9004         37.4004
 -17662822.44348 -13739247.48048  20884052.684    20884052.4954   20884057.1074
        53.1004         50.1004
 -15621939.44647 -12148840.53048  21294440.688    21294441.0194   21294443.8524
        51.5004         48.7004
  -7272394.90645  -5652414.83447  21547647.294    21547647.0334   21547649.6374
        45.5004         42.5004
 -12224787.52746  -9509780.22447  21427842.997    21427842.9234   21427846.8174
        46.7004         43.7004
  -6760647.34847  -5258373.50747  21869831.566    21869831.8754   21869837.4774
        50.8004         47.8004
 25  2 24  1 20 30.0000000  0  7G30G04G09G07G20G11G06
 -10310618.38846  -8011496.42047  22539448.403    22539447.8154   22539454.2334
        48.4004         45.4004
  -4802201.79943  -3729141.56546  23253724.663    23253724.0644   23253727.1424
        40.1004         37.4004
 -17603578.90848 -13693083.69748  20895326.583    20895326.5974   20895330.7484
        52.9004         50.1004
 -15653040.04547 -12173074.74048  21288522.259    21288522.5984   21288525.8974
        51.5004         48.7004
  -7344605.25745  -5708682.63647  21533905.920    21533905.8764   21533908.6504
        45.5004         42.6004
 -12213670.57246  -9501117.67047  21429958.369    21429958.8084   21429961.9944
        46.5004         43.7004
  -6683342.10147  -5198135.68447  21884542.718    21884542.3134   21884548.4684
        50.7004         47.7004
 25  2 24  1 21  0.0000000  0  7G30G04G09G07G20G11G06
 -10402310.01746  -8082944.40747  22521998.666    22521999.4214   22522005.2774
        48.2004         45.4004
  -4710017.86643  -3657309.93646  23271264.769    23271265.3544   23271269.8644
        39.9004         37.1004
 -17544040.31648 -13646689.99748  20906655.974    20906656.0004   20906660.7794
        52.9004         50.1004
 -15683660.18147 -12196934.56948  21282695.467    21282696.0614   21282698.9444
        51.5004         48.7004
  -7416509.15845  -5764711.63747  21520223.677    21520222.9044   21520226.2194
        45.6004         43.0004
 -12201937.51146  -9491975.04047  21432191.285    21432191.3754   21432194.9944
        46.7004         43.7004
  -6605601.63847  -5137558.72947  21899336.330    21899335.8954   21899341.6574
        50.7004         47.5004
 25  2 24  1 21 30.0000000  0  7G30G04G09G07G20G11G06
 -10493715.16146  -8154169.16447  22504606.074    22504605.4904   22504611.2564
        48.2004         45.2004
  -4617730.46643  -3585397.68046  23288825.836    23288826.0354   23288831.3864
        39.6004         36.9004
 -17484208.01248 -13600067.43848  20918041.011    20918041.6904   20918046.2654
        52.8004         49.9004
 -15713799.25347 -12220419.54648  21276960.760    21276960.9484   21276963.3434
        51.5004         48.9004
  -7488104.29245  -5820500.04447  21506599.160    21506598.6974   21506601.2154
        45.8004         43.0004
 -12189588.69546  -9482352.60547  21434541.486    21434542.0094   21434544.5044
        46.7004         43.7004
  -6527428.38847  -5076644.53847  21914212.072    21914212.0924   21914217.3494
        50.5004         47.5004
 25  2 24  1 22  0.0000000  0  7G30G04G09G07G20G11G06
 -10584831.74646  -8225169.07047  22487267.275    22487266.5644   22487272.7294
        48.2004         45.2004
  -4525340.92643  -3513405.86246  23306408.633    23306408.5594   23306412.7064
        39.7004         37.4004
 -17424083.30748 -13553217.03148  20929483.519    20929483.0924   20929487.5674
        52.6004         49.8004
 -15743456.83547 -12243529.33948  21271317.757    21271317.6514   21271319.5154
        51.7004         48.7004
  -7559388.65345  -5876046.29347  21493034.490    21493034.1224   21493036.8904
        46.0004         43.3004
 -12176624.43546  -9472250.59547  21437008.092    21437008.4574   21437011.6344
        46.7004         43.5004
  -6448824.77747  -5015395.00147  21929169.880    21929170.0654   21929175.3614
        50.5004         47.5004
 25  2 24  1 22 30.0000000  0  7G30G04G09G07G20G11G06
 -10675657.62746  -8295942.45547  22469982.287    22469982.7804   22469988.9244
        48.1004         45.2004
  -4432850.40543  -3441335.34246  23324007.888    23324008.9564   23324012.5114
        39.6004         37.1004
 -17363667.53648 -13506139.81448  20940979.468    20940979.7324   20940984.3034
        52.6004         49.8004
 -15772632.65147 -12266263.72848  21265765.425    21265765.2884   21265767.4444
        51.7004         48.7004
  -7630360.28145  -5931348.84647  21479528.978    21479527.9564   21479531.5454
        46.2004         43.2004
 -12163045.11346  -9461669.31547  21439592.708    21439592.7114   21439595.2724
        46.5004         43.3004
  -6369793.30747  -4953812.06547  21944208.229    21944209.0004   21944214.6844
        50.5004         47.5004
 25  2 24  1 23  0.0000000  0  7G30G04G09G07G20G11G06
 -10766190.62946  -8366487.63147  22452754.339    22452755.2614   22452760.6374
        48.2004         45.4004
  -4340260.14843  -3369187.08446  23341629.277    23341628.6654   23341631.6904
        39.4004         36.9004
 -17302962.04948 -13458836.84348  20952531.851    20952531.6054   20952536.0964
        52.6004         49.8004
 -15801325.54547 -12288621.81848  21260304.488    21260304.8764   21260307.4874
        51.5004         48.7004
  -7701017.39345  -5986406.32547  21466083.373    21466082.8284   21466085.5644
        46.0004         43.0004
 -12148851.12645  -9450609.08147  21442292.568    21442293.3414   21442296.0234
        46.3004         43.2004
  -6290336.39647  -4891897.62547  21959329.098    21959329.3254   21959335.0574
        50.3004         47.5004
 25  2 24  1 23 30.0000000  0  7G30G04G09G07G20G11G06
 -10856428.70346  -8436802.98647  22435583.679    22435583.5774   22435588.9764
        48.4004         45.6004
  -4247571.34843  -3296962.06246  23359266.541    23359266.2074   23359269.4894
        39.2004         36.7004
 -17241968.15248 -13411309.14148  20964137.883    20964138.4114   20964143.1894
        52.6004         49.8004
 -15829535.24447 -12310603.38848  21254936.794    21254936.9814   21254939.6264
        51.5004         48.9004
  -7771357.44345  -6041216.74747  21452698.266    21452697.3124   21452700.8464
        46.2004         43.2004
 -12134042.85645  -9439070.18647  21445110.797    21445110.8854   21445113.7824
        46.2004         43.2004
  -6210456.55847  -4829653.63147  21974528.252    21974529.0524   21974535.5424
        50.3004         47.2004
 25  2 24  1 24  0.0000000  0  7G30G04G09G07G20G11G06
 -10946369.69846  -8506886.86047  22418468.706    22418468.2714   22418474.0144
        48.6004         45.6004
  -4154785.18443  -3224661.17646  23376923.508    23376923.5644   23376927.0154
        39.2004         36.9004
 -17180687.20248 -13363557.75648  20975800.371    20975799.7794   20975804.7944
        52.6004         49.8004
 -15857261.50747 -12332208.25348  21249660.974    21249660.8574   21249663.3884
        51.7004         48.9004
  -7841378.40545  -6095778.53047  21439373.352    21439372.6924   21439375.8844
        46.0004         43.2004
 -12118620.76445  -9427052.98247  21448045.290    21448045.7204   21448048.4024
        46.2004         43.2004
  -6130156.24547  -4767082.00347  21989810.356    21989810.6204   21989816.0444
        50.2004         47.3004
 25  2 24  1 24 30.0000000  0  7G30G04G09G07G20G11G06
 -11036011.49546  -8576737.59147  22401410.539    22401410.4004   22401415.3314
        48.6004         45.8004
  -4061902.92143  -3152285.39646  23394598.127    23394598.1634   23394602.1354
        39.4004         36.7004
 -17119120.47948 -13315583.70248  20987515.340    20987515.6444   20987520.3784
        52.6004         49.8004
 -15884503.55747 -12353435.80648  21244476.934    21244477.0244   21244479.2544
        51.7004         49.1004
  -7911078.36845  -6150090.19147  21426109.936    21426109.2344   21426111.5404
        46.0004         42.8004
 -12102585.30245  -9414557.81947  21451097.175    21451096.7954   21451100.3684
        46.2004         43.3004
  -6049437.95747  -4704184.66947  22005169.962    22005170.4604   22005176.1114
        50.2004         47.2004
 25  2 24  1 25  0.0000000  0  7G30G04G09G07G20G11G06
 -11125352.04846  -8646353.58747  22384408.861    22384408.6904   22384414.2704
        48.6004         45.4004
  -3968925.67043  -3079835.61746  23412292.193    23412291.3464   23412293.8384
        39.2004         36.7004
 -17057269.36548 -13267388.02948  20999285.775    20999285.6414   20999290.4564
        52.6004         49.8004
 -15911260.61447 -12374285.45248  21239385.394    21239385.4594   21239387.4854
        51.9004         49.1004
  -7980455.08545  -6204149.96347  21412908.013    21412906.9724   21412909.9874
        46.0004         43.0004
 -12085937.00645  -9401585.12847  21454264.593    21454265.5834   21454268.7304
        46.3004         43.5004
  -5968304.25847  -4640963.63447  22020608.661    22020609.6914   22020615.3684
        50.0004         47.0004
 25  2 24  1 25 30.0000000  0  7G30G04G09G07G20G11G06
 -11214389.23046  -8715733.18347  22367465.444    22367465.4594   22367471.7454
        48.4004         45.8004
  -3875854.65243  -3007312.72846  23430001.156    23430001.8124   23430004.9604
        38.9004         36.6004
 -16995135.14847 -13218971.76248  21011108.830    21011109.0484   21011114.2034
        52.4004         49.6004
 -15937532.59947 -12394757.11248  21234385.688    21234386.0084   21234388.0374
        51.9004         49.1004
  -8049506.51345  -6257956.25847  21399768.564    21399767.0994   21399770.5484
        46.2004         43.3004
 -12068676.33645  -9388135.26247  21457549.841    21457549.9404   21457553.6044
        46.3004         43.3004
  -5886757.56247  -4577420.78947  22036127.562    22036127.5514   22036133.5294
        50.0004         47.0004
 25  2 24  1 26  0.0000000  0  7G30G04G09G07G20G11G06
 -11303120.99346  -8784874.79047  22350581.048    22350580.6664   22350586.5334
        48.6004         45.8004
  -3782690.99543  -2934717.70146  23447730.639    23447730.5124   23447733.1384
        38.9004         36.4004
 -16932719.14847 -13170335.92048  21022986.646    21022986.5664   21022991.7214
        52.4004         49.6004
 -15963319.51447 -12414850.79548  21229478.564    21229478.5654   21229481.0694
        51.9004         49.1004
  -8118230.56645  -6311507.46047  21386689.851    21386689.4854   21386692.7094
        46.2004         43.2004
 -12050803.89045  -9374208.68847  21460950.023    21460950.9544   21460954.3934
        46.3004         43.3004
  -5804800.49147  -4513558.17147  22051722.899    22051723.1814   22051729.1824
        49.8004         46.8004
 25  2 24  1 26 30.0000000  0  7G30G04G09G07G20G11G06
 -11391545.17446  -8853776.72447  22333754.410    22333753.9014   22333759.6974
        48.6004         45.8004
  -3689435.93843  -2862051.40946  23465474.853    23465475.0194   23465478.9884
        38.5004         36.0004
 -16870022.66347 -13121481.52248  21034917.167    21034917.0574   21034922.2444
        52.2004         49.4004
 -15988620.12947 -12434565.55148  21224663.397    21224663.9154   21224666.5784
        51.9004         49.1004
  -8186625.48345  -6364802.18447  21373674.905    21373674.4094   21373677.7384
        46.2004         43.3004
 -12032320.17045  -9359805.81647  21464467.932    21464468.2054   21464471.8924
        46.3004         43.5004
  -5722435.53647  -4449377.72647  22067395.246    22067396.2314   22067403.0904
        49.6004         46.8004
 25  2 24  1 27  0.0000000  0  7G30G04G09G07G20G11G06
 -11479659.79446  -8922437.43547  22316986.695    22316986.1614   22316992.8284
        48.8004         45.9004
  -3596090.57043  -2789314.77446  23483239.805    23483239.6304   23483241.9174
        38.7004         36.4004
 -16807047.02147 -13072409.59848  21046901.223    21046901.0704   21046906.1844
        52.2004         49.2004
 -16013434.56647 -12453901.46348  21219941.415    21219942.0724   21219944.5094
        51.9004         49.1004
  -8254688.84945  -6417838.56747  21360723.537    21360722.5474   21360725.3394
        46.3004         43.5004
 -12013225.83046  -9344927.12747  21468101.431    21468102.2934   21468105.5284
        46.5004         43.7004
  -5639665.31147  -4384881.48247  22083147.721    22083147.7964   22083154.0774
        50.0004         47.2004
 25  2 24  1 27 30.0000000  0  7G30G04G09G07G20G11G06
 -11567462.73246  -8990855.28647  22300277.724    22300277.7034   22300284.5094
        48.8004         45.9004
  -3502656.11543  -2716508.69646  23501019.887    23501019.9434   23501021.7794
        38.5004         36.0004
 -16743793.56047 -13023121.19048  21058937.565    21058937.7604   21058942.6284
        52.1004         49.2004
 -16037762.21447 -12472858.05448  21215313.083    21215312.8024   21215315.0664
        51.9004         49.1004
  -8322418.82545  -6470615.16247  21347835.006    21347833.9954   21347836.7324
        46.3004         43.5004
 -11993521.48146  -9329573.10947  21471851.412    21471852.2244   21471855.4624
        46.7004         43.9004
  -5556492.32447  -4320071.40347  22098974.510    22098975.1204   22098981.2214
        50.0004         47.2004
 25  2 24  1 28  0.0000000  0  7G30G04G09G07G20G11G06
 -11654951.89846  -9059028.64547  22283630.184    22283629.3364   22283634.8174
        48.8004         45.9004
  -3409133.68743  -2643634.09846  23518816.059    23518816.0004   23518820.8784
        38.7004         36.6004
 -16680263.59147 -12973617.32148  21071027.411    21071026.9844   21071031.7664
        51.9004         49.1004
 -16061602.59447 -12491434.96148  21210775.825    21210775.8364   21210778.3374
        51.9004         49.1004
  -8389813.37246  -6523130.38647  21335010.323    21335009.0934   21335011.9974
        46.5004         43.7004
 -11973207.72846  -9313744.22347  21475717.866    21475717.7124   21475720.5514
        46.9004         44.0004
  -5472919.17747  -4254949.50947  22114878.457    22114878.8814   22114885.1464
        50.2004         47.3004
 25  2 24  1 28 30.0000000  0  7G30G04G09G07G20G11G06
 -11742125.31546  -9126955.95347  22267041.593    22267040.9674   22267046.6484
        48.8004         45.9004
  -3315524.48843  -2570691.87546  23536628.521    23536628.7294   23536633.0264
        38.9004         36.4004
 -16616458.39147 -12923898.98848  21083168.402    21083168.8304   21083173.7554
        51.9004         49.1004
 -16084955.72247 -12509632.19348  21206331.698    21206331.8894   21206334.6254
        51.9004         49.1004
  -8456870.30146  -6575382.52047  21322248.933    21322248.3224   21322251.7324
        46.5004         43.7004
 -11952285.29346  -9297441.04147  21479698.707    21479698.8114   21479702.0214
        46.9004         43.9004
  -5388948.43147  -4189517.78647  22130856.713    22130857.3974   22130863.7994
        50.0004         46.8004
 25  2 24  1 29  0.0000000  0  7G30G04G09G07G20G11G06
 -11828980.90646  -9194635.62147  22250512.711    22250513.0014   22250519.2964
        48.9004         46.3004
  -3221829.56843  -2497682.85446  23554460.851    23554460.1894   23554462.4924
        38.9004         36.6004
 -16552379.30047 -12873967.23548  21095362.486    21095362.8724   21095367.4194
        51.9004         49.1004
 -16107820.85647 -12527449.17348  21201980.382    21201980.7584   21201983.6184
        51.9004         49.1004
  -8523587.36646  -6627369.84447  21309553.786    21309553.2014   21309555.9104
        46.5004         43.7004
 -11930754.85046  -9280664.09847  21483796.173    21483796.6964   21483799.2824
        46.9004         43.9004
  -5304582.70847  -4123778.30347  22146911.337    22146911.7574   22146918.1854
        49.8004         46.8004
 25  2 24  1 29 30.0000000  0  7G30G04G09G07G20G11G06
 -11915516.63446  -9262066.02947  22234046.494    22234045.7414   22234051.6404
        49.1004         46.3004
  -3128050.11243  -2424607.96746  23572305.568    23572305.0824   23572308.1494
        38.7004         36.6004
 -16488027.61547 -12823823.06548  21107607.911    21107608.2454   21107613.1104
        51.9004         48.9004
 -16130197.91747 -12544885.83848  21197722.636    21197722.6734   21197725.1234
        51.9004         48.9004
  -8589962.66946  -6679090.84147  21296922.681    21296922.1604   21296925.0034
        46.5004         43.5004
 -11908617.09646  -9263413.91047  21488008.465    21488009.0754   21488012.2574
        46.9004         43.9004
  -5219824.59647  -4057733.04547  22163040.222    22163040.4564   22163046.9424
        49.6004         46.5004
 25  2 24  1 30  0.0000000  0  8G30G04G09G07G20G29G11G06
 -12001730.45246  -9329245.59747  22217638.592    22217639.1114   22217645.2954
        49.1004         46.1004
  -3034187.27943  -2351468.10246  23590165.343    23590166.1534   23590169.4534
        38.9004         36.6004
 -16423404.63747 -12773467.51048  21119905.998    21119906.2954   21119910.7274
        51.9004         49.1004
 -16152086.67247 -12561941.99848  21193557.061    21193557.0084   21193559.4484
        51.7004         48.9004
  -8655994.22346  -6730543.99547  21284357.361    21284356.7334   21284359.2264
        46.5004         43.5004
                      -315.06553  25159139.716
                        23.4004
 -11885872.78846  -9245691.08947  21492337.016    21492337.0974   21492340.1834
        46.9004         43.9004
  -5134676.70546  -3991384.07647  22179243.630    22179244.3304   22179249.8384
        49.5004         46.5004
 25  2 24  1 30 30.0000000  0  7G30G04G09G07G20G11G06
 -12087620.36446  -9396172.77547  22201296.113    22201295.2314   22201301.6204
        49.1004         46.5004
  -2940242.13543  -2278264.12646  23608041.667    23608042.3144   23608045.2084
        38.7004         36.2004
 -16358511.65847 -12722901.54948  21132254.533    21132254.7814   21132259.0874
        51.9004         49.1004
 -16173486.72747 -12578617.35548  21189483.983    21189484.5194   21189487.5104
        51.7004         49.1004
  -8721679.87446  -6781727.61347  21271857.388    21271856.7904   21271859.8194
        46.5004         43.5004
 -11862522.72046  -9227496.24347  21496779.244    21496779.9934   21496783.1624
        46.7004         43.5004
  -5049141.64746  -3924733.41047  22195519.525    22195520.3694   22195527.6154
        49.5004         46.5004
 25  2 24  1 31  0.0000000  0  7G30G04G09G07G20G11G06
 -12173184.37846  -9462845.99447  22185013.333    22185013.0164   22185019.0424
        49.3004         46.6004
  -2846215.84843  -2204996.88346  23625935.500    23625934.7914   23625940.2644
        38.5004         36.0004
 -16293349.97147 -12672126.22048  21144655.163    21144655.0634   21144659.1824
        51.9004         49.1004
 -16194397.72947 -12594911.63548  21185505.683    21185505.9004   21185508.6284
        51.9004         49.2004
  -8787017.49546  -6832640.02647  21259424.895    21259423.4134   21259426.3994
        46.5004         43.9004
 -11838567.70846  -9208830.01947  21501338.779    21501338.9474   21501341.6454
        46.5004         43.3004
  -4963222.11046  -3857783.14947  22211870.784    22211871.0404   22211877.5014
        49.5004         46.5004
 25  2 24  1 31 30.0000000  0  8G30G04G09G07G20G29G11G06
 -12258420.44146  -9529263.68047  22168793.450    22168793.3054   22168799.0874
        49.5004         46.6004
  -2752109.48943  -2131667.28946  23643842.797    23643843.4234   23643846.2744
        38.5004         36.2004
 -16227920.90147 -12621142.52848  21157105.674    21157105.8244   21157109.7714
        52.1004         49.1004
 -16214819.74647 -12610824.89048  21181619.895    21181619.9864   21181622.1004
        52.1004         49.2004
  -8852004.90946  -6883279.56447  21247057.982    21247056.9424   21247059.5254
        46.7004         43.9004
     -2451.39143     -1600.81246  25158823.866    25158825.1954   25158828.3004
        39.6004         37.9004
 -11814008.48846  -9189692.97547  21506011.747    21506012.0364   21506014.9504
        46.5004         43.3004
  -4876920.69046  -3790535.33047  22228292.139    22228293.1084   22228299.7804
        49.3004         46.3004
 25  2 24  1 32  0.0000000  0  8G30G04G09G07G20G29G11G06
 -12343326.58047  -9595424.27847  22152637.332    22152636.3474   22152642.2804
        49.6004         46.8004
  -2657924.15143  -2058276.13946  23661767.105    23661767.3624   23661769.6654
        38.7004         36.2004
 -16162225.70847 -12569951.48048  21169606.749    21169607.4494   21169611.3934
        52.1004         49.2004
 -16234752.11747 -12626356.59548  21177826.644    21177826.7454   21177829.1674
        52.1004         49.2004
  -8916640.05546  -6933644.61747  21234758.232    21234757.8034   21234760.4644
        47.0004         44.2004
     -1883.21343     -1158.24246  25158931.055    25158931.4494   25158935.6194
        39.7004         37.1004
 -11788845.94745  -9170085.81547  21510799.674    21510800.4254   21510803.4464
        46.3004         43.3004
  -4790240.05146  -3722992.01347  22244787.851    22244788.4744   22244795.4094
        49.3004         46.5004
 25  2 24  1 32 30.0000000  0  8G30G04G09G07G20G29G11G06
 -12427900.80247  -9661326.23947  22136541.352    22136541.9244   22136548.0904
        49.6004         46.8004
  -2563660.94743  -1984824.28546  23679701.982    23679702.7254   23679707.0284
        38.3004         36.0004
 -16096265.72747 -12518554.09348  21182158.941    21182158.9384   21182163.0814
        52.1004         49.2004
 -16254194.96847 -12641506.85348  21174126.556    21174126.6474   21174129.2794
        52.1004         49.2004
  -8980921.11046  -6983733.73847  21222525.721    21222525.0234   21222527.8474
        47.2004         44.4004
      -755.75953      -279.58756  25159146.999    25159145.9924   25159150.7324
        39.2004         36.7004
 -11763080.96645  -9150009.21347  21515702.927    21515702.6874   21515706.2934
        46.3004         43.2004
  -4703182.89146  -3655155.29747  22261354.137    22261354.1824   22261360.9324
        49.3004         46.3004
 25  2 24  1 33  0.0000000  0  8G30G04G09G07G20G29G11G06
 -12512141.12547  -9726968.02147  22120511.874    22120511.9664   22120517.5714
        49.6004         46.8004
  -2469320.96643  -1911312.64746  23697656.220    23697655.6054   23697659.1724
        38.3004         36.0004
 -16030042.23447 -12466951.38348  21194760.689    21194760.8884   21194765.3364
        52.1004         49.2004
 -16273148.13047 -12656275.53948  21170519.589    21170519.7204   21170522.6904
        51.9004         49.1004
  -9044845.82346  -7033545.19647  21210361.164    21210360.6594   21210363.2034
        47.2004         44.2004
       929.83943      1034.01946  25159467.113    25159467.6614   25159471.4664
        39.4004         37.1004
 -11736714.42945  -9129463.88847  21520719.937    21520720.4684   21520723.0884
        46.0004         43.0004
  -4615751.82446  -3587027.23147  22277991.501    22277992.5074   22277999.0124
        49.1004         46.3004
 25  2 24  1 33 30.0000000  0  8G30G04G09G07G20G29G11G06
 -12596045.57547  -9792348.08347  22104545.893    22104545.2494   22104551.1944
        49.6004         46.8004
  -2374905.31843  -1837742.03746  23715621.888    23715622.3364   23715626.1704
        38.3004         36.0004
 -15963556.48447 -12415144.30548  21207413.311    21207412.5164   21207416.9314
        52.1004         49.1004
 -16291611.42247 -12670662.51248  21167006.003    21167006.4454   21167009.1834
        51.9004         49.1004
  -9108412.28846  -7083077.49747  21198265.201    21198264.0694   21198267.6434
        47.2004         44.4004
      3172.96343      2781.98246  25159893.189    25159893.5304   25159899.3804
        39.4004         37.1004
 -11709747.26445  -9108450.52547  21525851.593    21525852.1234   21525855.2074
        46.0004         43.0004
  -4527949.54246  -3518609.91147  22294699.391    22294700.4764   22294706.7854
        49.1004         46.1004
 25  2 24  1 34  0.0000000  0  8G30G04G09G07G20G29G11G06
 -12679612.18147  -9857464.90547  22088643.308    22088643.1754   22088648.5654
        49.6004         46.6004
  -2280415.10743  -1764113.29745  23733601.287    23733602.0484   23733608.7474
        38.0004         35.7004
 -15896809.78847 -12363133.89848  21220113.359    21220113.6774   21220118.2244
        51.9004         48.9004
 -16309584.07547 -12684667.16348  21163586.840    21163586.7024   21163588.9884
        52.1004         49.2004
  -9171618.22646  -7132328.86847  21186237.510    21186236.4134   21186239.5554
        47.2004         44.4004
      5973.39143      4964.07346  25160426.046    25160426.3524   25160431.5314
        39.6004         37.1004
 -11682180.42745  -9086969.88347  21531097.586    21531097.8524   21531100.5044
        46.0004         43.0004
  -4439778.75346  -3449905.43547  22311478.356    22311478.8634   22311484.4214
        48.9004         45.8004
 25  2 24  1 34 30.0000000  0  8G30G04G09G07G20G29G11G06
 -12762839.00847  -9922316.95547  22072805.870    22072805.8154   22072810.8564
        49.6004         46.6004
  -2185851.34443  -1690427.27445  23751599.084    23751598.7624   23751602.3514
        38.2004         35.9004
 -15829803.42147 -12310921.15248  21232864.064    21232864.2474   21232869.2854
        51.7004         48.9004
 -16327066.31247 -12698289.68348  21160260.085    21160260.1504   21160262.0964
        52.1004         49.2004
  -9234461.90346  -7181297.95747  21174278.227    21174277.4634   21174281.0534
        47.2004         44.4004
      9330.94843      7580.35546  25161066.375    25161066.7114   25161069.2534
        39.7004         37.3004
 -11654014.81845  -9065022.66847  21536457.772    21536458.0554   21536460.9824
        46.3004         43.3004
  -4351242.14746  -3380915.90047  22328325.917    22328326.4014   22328333.0544
        48.8004         45.8004
 25  2 24  1 35  0.0000000  0  8G30G04G09G07G20G29G11G06
 -12845724.07546  -9986902.69547  22057033.616    22057033.0444   22057038.3834
        49.5004         46.6004
  -2091215.08443  -1616684.76045  23769607.264    23769606.4634   23769611.8954
        37.8004         35.7004
 -15762538.64747 -12258507.04848  21245664.215    21245664.1394   21245669.2794
        51.7004         48.7004
 -16344057.97747 -12711529.93448  21157026.453    21157026.5354   21157028.4904
        52.1004         49.2004
  -9296940.99646  -7229982.96247  21162389.012    21162388.3304   21162391.0914
        47.4004         44.5004
     13244.88943     10630.33246  25161810.742    25161810.7534   25161815.0364
        39.9004         37.4004
 -11625251.50445  -9042609.69747  21541930.828    21541930.7894   21541934.6884
        46.2004         43.3004
  -4262342.39746  -3311643.39447  22345243.933    22345244.0814   22345250.2574
        48.8004         45.9004
 25  2 24  1 35 30.0000000  0  8G30G04G09G07G20G29G11G06
 -12928265.47346 -10051220.63847  22041325.990    22041325.6304   22041331.2814
        49.5004         46.6004
  -1996507.50943  -1542886.69845  23787627.461    23787628.2494   23787632.8424
        37.6004         35.5004
 -15695016.76347 -12205892.60648  21258512.672    21258513.1394   21258518.5724
        51.7004         48.9004
 -16360558.99947 -12724387.85948  21153885.856    21153886.1254   21153888.9204
        52.1004         49.2004
  -9359053.59146  -7278382.38647  21150569.229    21150568.5024   21150571.3484
        47.4004         44.4004
     17714.94443     14113.71646  25162660.238    25162660.6714   25162664.9004
        39.6004         37.1004
 -11595891.48445  -9019731.78247  21547517.461    21547518.0504   21547521.4294
        46.2004         43.2004
  -4173082.24546  -3242090.06447  22362229.177    22362229.5254   22362235.5834
        48.8004         45.8004
 25  2 24  1 36  0.0000000  0  8G30G04G09G07G20G29G11G06
 -13010461.25846 -10115269.27347  22025684.379    22025683.8714   22025690.0164
        49.5004         46.6004
  -1901729.58443  -1469033.78245  23805662.760    23805663.6594   23805669.1214
        37.8004         35.7004
 -15627239.05547 -12153078.81348  21271410.545    21271410.6404   21271416.0204
        51.5004         48.7004
 -16376569.51447 -12736863.57748  21150839.050    21150839.2954   21150842.1784
        52.1004         49.2004
  -9420797.59346  -7326494.59347  21138819.383    21138818.8374   21138822.1684
        47.4004         44.5004
     22740.33443     18029.63746  25163617.041    25163618.0954   25163621.2534
        39.0004         36.4004
 -11565935.76245  -8996389.68947  21553218.864    21553218.5744   21553221.8204
        46.2004         43.2004
  -4083464.41846  -3172258.02347  22379282.925    22379283.3574   22379289.6494
        48.8004         45.9004
 25  2 24  1 36 30.0000000  0  8G30G04G09G07G20G29G11G06
 -13092309.46647 -10179047.07247  22010109.147    22010109.0644   22010114.9344
        49.6004         46.8004
  -1806882.38443  -1395126.91345  23823714.105    23823713.7854   23823716.9034
        38.0004         35.7004
 -15559206.74447 -12100066.63748  21284357.217    21284357.0254   21284362.2764
        51.5004         48.7004
 -16392089.45047 -12748957.02448  21147885.721    21147886.1164   21147888.9884
        52.1004         49.4004
  -9482170.91146  -7374317.94047  21127140.664    21127140.1274   21127142.8554
        47.4004         44.5004
     28320.62543     22377.91646  25164678.374    25164679.4524   25164682.6014
        38.7004         36.4004
 -11535385.45245  -8972584.26647  21559032.216    21559032.0334   21559035.6314
        46.3004         43.3004
  -3993491.61446  -3102149.39347  22396404.741    22396404.9284   22396410.4964
        48.8004         45.9004
 25  2 24  1 37  0.0000000  0  8G30G04G09G07G20G29G11G06
 -13173808.22447 -10242552.57147  21994600.677    21994600.2814   21994606.1604
        49.6004         46.8004
  -1711966.96343  -1321166.86745  23841775.714    23841776.7054   23841779.4054
        37.8004         35.7004
 -15490921.14447 -12046857.08348  21297351.608    21297351.4474   21297356.4494
        51.5004         48.7004
 -16407118.27947 -12760667.79048  21145026.021    21145026.1804   21145029.1844
        52.1004         49.4004
  -9543171.23746  -7421850.65947  21115532.687    21115532.2954   21115535.2114
        47.4004         44.5004
     34455.61643     27158.47046  25165847.138    25165847.8464   25165851.0374
        39.0004         36.9004
 -11504241.62646  -8948316.36147  21564958.320    21564959.0724   21564962.3514
        46.5004         43.5004
  -3903166.55946  -3031766.28347  22413593.064    22413593.2204   22413599.0634
        48.8004         45.8004
 25  2 24  1 37 30.0000000  0  8G30G04G09G07G20G29G11G06
 -13254955.62447 -10305784.28747  21979158.664    21979158.5084   21979164.5574
        49.8004         47.2004
  -1616984.33243  -1247154.46745  23859851.918    23859851.5774   23859854.7864
        38.2004         35.9004
 -15422383.49047 -11993451.13348  21310393.974    21310394.1594   21310399.0214
        51.5004         48.7004
 -16421656.09047 -12771995.94948  21142259.682    21142259.8674   21142262.5364
        52.2004         49.4004
  -9603796.95646  -7469091.47147  21103996.482    21103995.6594   21103998.6944
        47.5004         44.5004
     41144.27143     32370.38446  25167119.899    25167120.5894   25167123.0544
        39.2004         36.7004
 -11472505.37946  -8923586.83547  21570998.120    21570998.2924   21571001.3984
        46.5004         43.3004
  -3812492.06246  -2961110.86947  22430846.815    22430847.8724   22430854.2854
        48.8004         45.8004
 25  2 24  1 38  0.0000000  0  8G30G04G09G07G20G29G11G06
 -13335749.77547 -10368740.74447  21963784.000    21963783.9464   21963790.2114
        50.2004         47.3004
  -1521935.57343  -1173090.53845  23877938.040    23877937.8724   23877940.3804
        38.0004         35.7004
 -15353595.06647 -11939849.77048  21323484.010    21323483.8474   21323488.6434
        51.5004         48.5004
 -16435702.95147 -12782941.54348  21139587.564    21139587.0904   21139589.1714
        52.1004         49.4004
  -9664045.92246  -7516038.71147  21092531.816    21092531.1234   21092533.1824
        47.5004         44.7004
     48386.05043     38013.30245  25168498.725    25168498.4964   25168500.3614
        38.5004         35.9004
 -11440177.89145  -8898396.60347  21577149.316    21577149.5424   21577153.1944
        46.3004         43.2004
  -3721470.83046  -2890185.26747  22448166.590    22448168.1574   22448175.0014
        48.6004         45.8004
 25  2 24  1 38 30.0000000  0  8G30G04G09G07G20G29G11G06
 -13416188.78047 -10431420.45647  21948476.951    21948476.5654   21948482.8674
        50.3004         47.5004
  -1426821.65543  -1098975.80245  23896038.385    23896036.5874   23896039.6914
        37.6004         35.3004
 -15284557.10347 -11886053.96848  21336621.520    21336621.5734   21336626.3584
        51.5004         48.7004
 -16449258.87347 -12793504.58748  21137007.240    21137007.1744   21137009.5464
        52.1004         49.2004
  -9723916.11046  -7562690.80347  21081138.644    21081137.7174   21081140.1394
        47.5004         44.7004
     56180.32143     44086.77446  25169982.304    25169982.0344   25169984.2964
        38.3004         36.0004
 -11407260.31245  -8872746.55347  21583413.765    21583414.1334   21583417.0134
        46.3004         43.3004
  -3630105.60846  -2818991.62647  22465554.630    22465554.9584   22465560.9654
        48.6004         45.6004
 25  2 24  1 39  0.0000000  0  8G30G04G09G07G20G29G11G06
 -13496270.74847 -10493821.95547  21933237.491    21933237.5794   21933243.8884
        50.3004         47.7004
  -1331643.65343  -1024811.17545  23914150.571    23914150.8234   23914152.5264
        37.6004         35.5004
 -15215270.91347 -11832064.73048  21349806.220    21349806.3394   21349810.5314
        51.4004         48.5004
 -16462323.88247 -12803685.10948  21134520.652    21134520.8754   21134523.3664
        52.1004         49.2004
  -9783405.24946  -7609045.96847  21069818.075    21069817.4104   21069820.1904
        47.7004         44.7004
     64526.85843     50590.69246  25171570.857    25171570.3444   25171572.7364
        38.7004         36.6004
 -11373753.77945  -8846637.58347  21589789.442    21589789.7374   21589793.2164
        46.3004         43.5004
  -3538399.19446  -2747532.12747  22483005.633    22483006.3514   22483012.3064
        48.6004         45.6004
 25  2 24  1 39 30.0000000  0  8G30G04G09G07G20G29G11G06
 -13575993.85347 -10555943.81647  21918067.631    21918066.9114   21918073.4854
        50.5004         47.7004
  -1236402.62043   -950597.40045  23932272.206    23932273.7294   23932276.2124
        37.8004         35.7004
 -15145737.69147 -11777883.01548  21363037.863    21363037.9324   21363042.8504
        51.4004         48.5004
 -16474898.11547 -12813483.19948  21132128.170    21132127.9014   21132130.8084
        52.1004         49.2004
  -9842511.26446  -7655102.60347  21058570.649    21058569.7934   21058572.3234
        47.5004         44.5004
     73424.09843     57523.61446  25173264.704    25173263.6874   25173266.7314
        38.7004         36.2004
 -11339659.54645  -8820070.66147  21596277.684    21596277.6844   21596281.2354
        46.3004         43.2004
  -3446354.31846  -2675808.88947  22500520.751    22500521.7124   22500527.6374
        48.4004         45.4004
 25  2 24  1 40  0.0000000  0  8G30G04G09G07G20G29G11G06
 -13655356.17747 -10617784.57047  21902965.382    21902964.9724   21902970.8524
        50.5004         47.7004
  -1141099.47243   -876335.25345  23950409.623    23950409.2824   23950413.3584
        37.8004         35.7004
 -15075958.71147 -11723509.79248  21376316.974    21376317.0434   21376321.2584
        51.4004         48.5004
 -16486981.13347 -12822898.53848  21129828.428    21129828.9814   21129831.6024
        52.1004         49.4004
  -9901232.22946  -7700859.19847  21047395.939    21047395.6144   21047398.5604
        47.5004         44.5004
     82871.91743     64885.58646  25175060.159    25175060.6184   25175064.8254
        38.5004         36.4004
 -11304978.85245  -8793046.77847  21602876.935    21602877.6094   21602880.3564
        46.2004         43.2004
  -3353973.77146  -2603824.08847  22518100.702    22518101.1324   22518107.4174
        48.2004         45.2004
 25  2 24  1 40 30.0000000  0  8G30G04G09G07G20G29G11G06
 -13734355.89747 -10679342.77947  21887931.441    21887931.4154   21887937.2754
        50.5004         47.5004
  -1045735.35043   -802025.56845  23968553.931    23968555.4184   23968559.3454
        37.6004         35.3004
 -15005935.22147 -11668946.05148  21389641.244    21389641.5664   21389646.4504
        51.4004         48.5004
 -16498573.73047 -12831931.72448  21127623.149    21127623.1264   21127625.4444
        52.2004         49.4004
  -9959566.27646  -7746314.28747  21036295.391    21036294.7204   21036297.8744
        47.4004         44.4004
     92870.00843     72676.45446  25176962.519    25176962.8484   25176966.9164
        39.6004         37.4004
 -11269712.95245  -8765566.88447  21609588.352    21609588.7564   21609591.2134
        46.2004         43.3004
  -3261260.36846  -2531579.92747  22535744.213    22535744.4474   22535750.0354
        48.2004         45.1004
 25  2 24  1 41  0.0000000  0  8G30G04G09G07G20G29G11G06
 -13812991.17547 -10740616.99947  21872967.215    21872967.2434   21872973.4104
        50.3004         47.3004
   -950311.13643   -727669.09945  23986713.716    23986714.1354   23986718.9794
        37.8004         35.9004
 -14935668.45247 -11614192.72848  21403013.146    21403012.9134   21403018.0064
        51.4004         48.5004
 -16509675.26047 -12840582.26548  21125510.815    21125510.6484   21125512.6224
        52.2004         49.4004
 -10017511.38946  -7791466.32247  21025268.840    21025268.2134   21025271.3434
        47.4004         44.5004
    103416.74543     80894.70046  25178971.211    25178971.3544   25178974.4084
        40.1004         37.8004
 -11233863.06845  -8737631.92947  21616410.299    21616410.4034   21616413.4884
        46.3004         43.2004
  -3168216.86746  -2459078.53047  22553448.474    22553448.7674   22553455.1764
        47.9004         44.9004
 25  2 24  1 41 30.0000000  0  8G30G04G09G07G20G29G11G06
 -13891260.18847 -10801605.81947  21858072.791    21858073.3454   21858079.3964
        50.2004         47.3004
   -854827.85643   -653266.58246  24004884.623    24004884.5174   24004889.2744
        38.2004         36.0004
 -14865159.66347 -11559250.83548  21416429.303    21416429.8734   21416434.9744
        51.4004         48.4004
 -16520286.03047 -12848850.39048  21123490.901    21123491.2084   21123493.3134
        52.2004         49.4004
 -10075065.41346  -7836313.61147  21014316.773    21014316.1794   21014319.2564
        47.4004         44.5004
    114511.54144     89539.96646  25181082.806    25181082.7154   25181085.7544
        40.6004         38.3004
 -11197430.59345  -8709243.00447  21623342.691    21623342.6394   21623346.4454
        46.2004         43.0004
  -3074846.11946  -2386322.14647  22571217.000    22571217.6204   22571223.2934
        47.7004         44.9004
 25  2 24  1 42  0.0000000  0  8G30G04G09G07G20G29G11G06
 -13969161.13147 -10862307.82347  21843249.754    21843249.4314   21843255.6884
        50.3004         47.5004
   -759286.48343   -578818.83745  24023066.096    24023066.2184   24023068.5194
        38.0004         35.9004
 -14794410.07447 -11504121.30248  21429893.215    21429893.6164   21429898.7204
        51.2004         48.4004
 -16530406.44747 -12856736.41948  21121565.436    21121565.3624   21121567.6034
        52.2004         49.4004
 -10132226.25746  -7880854.52647  21003439.339    21003438.3974   21003441.7244
        47.4004         44.5004
    126154.20143     98612.39746  25183296.203    25183296.7964   25183300.5804
        40.3004         37.6004
 -11160416.80245  -8680401.12347  21630386.684    21630386.8074   21630389.7084
        46.2004         43.2004
  -2981150.85546  -2313312.89347  22589047.537    22589046.8724   22589053.0234
        47.7004         44.7004
 25  2 24  1 42 30.0000000  0  8G30G04G09G07G20G29G11G06
 -14046692.14947 -10922721.57647  21828497.217    21828495.8314   21828501.8394
        50.5004         47.7004
   -663688.01443   -504326.54245  24041258.171    24041256.9214   24041260.9794
        37.8004         35.5004
 -14723420.95647 -11448805.12348  21443401.139    21443401.6904   21443406.8004
        51.0004         48.2004
 -16540036.29547 -12864240.18448  21119733.386    21119732.8454   21119735.0874
        52.2004         49.4004
 -10188991.85246  -7925087.45347  20992637.450    20992636.6204   20992639.6924
        47.4004         44.4004
    138343.09643    108110.33046  25185615.434    25185615.7614   25185620.3764
        40.1004         37.6004
 -11122823.05645  -8651107.32447  21637540.416    21637540.6684   21637543.4044
        46.2004         43.2004
  -2887133.94846  -2240053.00447  22606938.038    22606938.2784   22606943.8004
        47.7004         44.7004
 25  2 24  1 43  0.0000000  0  8G30G04G09G07G20G29G11G06
 -14123851.45747 -10982845.69247  21813812.679    21813812.3744   21813818.5364
        50.5004         47.5004
   -568033.43043   -429790.53245  24059461.095    24059460.2024   24059463.4104
        37.6004         35.3004
 -14652193.51447 -11393303.23448  21456956.425    21456956.1834   21456961.2174
        51.0004         48.2004
 -16549175.66947 -12871361.77248  21117993.401    21117993.7884   21117995.9444
        52.2004         49.6004
 -10245360.42046  -7969010.99447  20981910.415    20981909.8744   20981913.1474
        47.4004         44.4004
    151077.80143    118033.53446  25188038.884    25188039.4134   25188042.1874
        40.3004         37.8004
 -11084650.72045  -8621362.66347  21644804.342    21644804.6444   21644807.4384
        46.2004         43.2004
  -2792798.16246  -2166544.64447  22624889.747    22624889.3404   22624895.1084
        47.7004         44.7004
 25  2 24  1 43 30.0000000  0  8G30G04G09G07G20G29G11G06
 -14200637.25747 -11042678.76447  21799199.835    21799200.8494   21799206.3764
        50.5004         47.7004
   -472323.80542   -355211.60745  24077671.052    24077671.5104   24077675.9644
        37.5004         35.3004
 -14580728.97747 -11337616.59848  21470555.852    21470555.6214   21470560.1974
        51.0004         48.0004
 -16557824.88647 -12878101.41448  21116348.406    21116348.2134   21116350.0704
        52.4004         49.8004
 -10301329.88546  -8012623.56647  20971260.264    20971259.9354   20971262.4114
        47.4004         44.5004
    164356.83543    128380.71246  25190566.564    25190566.4714   25190571.3384
        40.1004         37.6004
 -11045901.19745  -8591168.25447  21652178.559    21652178.8554   21652181.1584
        46.2004         43.0004
  -2698146.38146  -2092790.04747  22642900.166    22642901.0134   22642907.2724
        47.5004         44.5004
 25  2 24  1 44  0.0000000  0  8G30G04G09G07G20G29G11G06
 -14277047.78947 -11102219.41747  21784661.337    21784660.5214   21784666.0164
        50.7004         47.8004
   -376559.99742   -280590.50145  24095896.366    24095895.9634   24095898.3694
        37.5004         35.3004
 -14509028.58547 -11281746.18048  21484199.581    21484199.7034   21484204.3744
        50.8004         48.0004
 -16565984.29047 -12884459.38748  21114795.360    21114795.4204   21114797.6414
        52.4004         49.8004
 -10356898.17346  -8055923.52547  20960686.068    20960685.0524   20960688.2234
        47.4004         44.7004
    178180.36044    139152.32946  25193198.515    25193197.4744   25193201.0374
        40.8004         38.5004
 -11006575.89245  -8560525.18247  21659661.820    21659661.7604   21659664.9824
        46.0004         42.8004
  -2603181.36746  -2018791.36947  22660972.000    22660972.5824   22660978.8074
        47.5004         44.7004
 25  2 24  1 44 30.0000000  0  8G30G04G09G07G20G29G11G06
 -14353081.27147 -11161466.26648  21770192.166    21770191.7944   21770197.4314
        50.8004         48.0004
   -280743.00842   -205927.96845  24114130.734    24114129.1564   24114133.7384
        37.5004         35.3004
 -14437093.54647 -11225692.91048  21497887.573    21497888.3924   21497893.4854
        50.8004         48.0004
 -16573653.85047 -12890435.66448  21113335.644    21113335.5614   21113338.2974
        52.4004         49.8004
 -10412063.23846  -8098909.29147  20950188.339    20950187.5424   20950190.5154
        47.5004         44.5004
    192546.71844    150346.90846  25195929.949    25195930.7594   25195934.9354
        41.1004         38.8004
 -10966676.28345  -8529434.60447  21667253.797    21667253.6744   21667257.3194
        45.8004         42.8004
  -2507905.97946  -1944550.84547  22679102.857    22679102.3204   22679108.7184
        47.5004         44.7004
 25  2 24  1 45  0.0000000  0  8G30G04G09G07G20G29G11G06
 -14428735.91447 -11220417.91548  21755796.042    21755795.5754   21755801.0944
        51.0004         48.2004
   -184873.72943   -131224.67945  24132372.487    24132373.2314   24132377.6924
        37.8004         35.9004
 -14364925.08347 -11169457.77048  21511621.616    21511621.6194   21511626.5294
        50.8004         48.0004
 -16580833.62747 -12896030.28948  21111969.310    21111969.1034   21111971.9784
        52.4004         49.6004
 -10466823.21246  -8141579.39747  20939768.009    20939767.0514   20939770.2264
        47.5004         44.7004
    207455.53844    161964.23046  25198768.799    25198768.5674   25198772.4644
        41.3004         38.6004
 -10926203.77945  -8497897.60047  21674956.293    21674956.0974   21674959.2604
        45.6004         42.8004
  -2412323.08246  -1870070.71347  22697291.206    22697291.6514   22697297.7094
        47.5004         44.7004
 25  2 24  1 45 30.0000000  0  8G30G04G09G07G20G29G11G06
 -14504010.00147 -11279073.02448  21741471.281    21741471.0604   21741476.9574
        51.0004         48.2004
    -88953.17343    -56481.38845  24150624.567    24150625.8544   24150631.1424
        38.2004         35.9004
 -14292524.43647 -11113041.69847  21525398.847    21525399.2344   21525403.8174
        50.8004         47.8004
 -16587523.79347 -12901243.39548  21110695.505    21110695.8664   21110698.8354
        52.2004         49.6004
 -10521176.03546  -8183932.24147  20929424.633    20929423.8424   20929426.7424
        47.5004         44.7004
    222905.47844    174003.19146  25201708.231    25201707.8504   25201710.7244
        40.9004         38.5004
 -10885159.91545  -8465915.39847  21682766.255    21682765.9794   21682769.4114
        45.6004         42.6004
  -2316435.50046  -1795353.14747  22715536.459    22715538.1374   22715545.1834
        47.7004         44.9004
 25  2 24  1 46  0.0000000  0  8G30G04G09G07G20G29G11G06
 -14578901.77447 -11337430.23248  21727220.089    21727219.5354   21727225.5144
        51.2004         48.2004
      7017.68343     18301.07645  24168889.939    24168888.8494   24168891.4014
        37.6004         35.3004
 -14219892.77047 -11056445.61047  21539219.847    21539220.4184   21539225.0034
        50.7004         47.8004
 -16593724.79547 -12906075.34048  21109515.965    21109516.3004   21109518.7774
        52.4004         49.8004
 -10575119.67846  -8225966.24447  20919159.898    20919159.1544   20919161.6864
        47.5004         44.7004
    238895.35744    186462.92646  25204751.032    25204750.5254   25204755.1874
        40.6004         37.9004
 -10843546.16045  -8433489.12547  21690684.404    21690685.4594   21690688.6134
        45.6004         42.8004
  -2220246.07246  -1720400.39447  22733842.714    22733842.6034   22733849.0574
        47.5004         44.7004
 25  2 24  1 46 30.0000000  0  9G16G30G04G09G07G20G29G11G06
                      7019.84853  24402709.564
                        23.4004
 -14653409.50647 -11395488.18448  21713041.359    21713041.3504   21713046.9864
        51.0004         48.2004
    103037.95843     93122.00745  24187161.881    24187162.3284   24187164.4634
        37.6004         35.5004
 -14147031.36147 -10999670.49847  21553086.011    21553085.5534   21553089.7554
        50.7004         47.7004
 -16599436.96947 -12910526.37648  21108429.790    21108429.3084   21108431.7724
        52.4004         49.8004
 -10628652.33746  -8267679.99747  20908972.739    20908971.6284   20908974.8964
        47.5004         44.7004
    255424.63743    199342.84446  25207895.883    25207895.4974   25207899.6504
        40.1004         37.6004
 -10801364.06245  -8400619.98647  21698711.712    21698711.9344   21698715.4924
        45.6004         42.8004
  -2123757.62846  -1645214.64847  22752203.733    22752204.2414   22752210.5954
        47.5004         44.5004
 25  2 24  1 47  0.0000000  0  8G30G04G09G07G20G29G11G06
 -14727531.49047 -11453245.55148  21698935.730    21698936.0724   21698942.0094
        51.0004         48.0004
    199106.66742    167980.71245  24205439.928    24205441.6064   24205446.3894
        37.5004         35.3004
 -14073941.38347 -10942717.28947  21566994.371    21566994.0994   21566998.4544
        50.5004         47.7004
 -16604660.43847 -12914596.61248  21107435.298    21107435.1994   21107437.7464
        52.4004         49.8004
 -10681772.08346  -8309072.00647  20898865.098    20898863.7394   20898866.8664
        47.7004         44.9004
    272491.38543    212641.57846  25211143.849    25211142.7164   25211147.2604
        39.2004         36.4004
 -10758615.17845  -8367309.19847  21706846.776    21706847.1994   21706850.8194
        45.8004         43.0004
  -2026973.08946  -1569798.16747  22770620.876    22770621.3264   22770628.3914
        47.4004         44.5004
 25  2 24  1 47 30.0000000  0  8G30G04G09G07G20G29G11G06
 -14801266.00847 -11510700.99648  21684904.768    21684904.7914   21684910.9444
        50.8004         48.0004
    295222.87342    242876.43245  24223734.225    24223731.7544   24223735.4044
        37.3004         35.2004
 -14000624.02647 -10885586.89447  21580945.912    21580946.2014   21580950.3834
        50.5004         47.7004
 -16609395.66347 -12918286.39148  21106533.884    21106534.0824   21106536.6704
        52.4004         49.8004
 -10734476.72646  -8350140.55747  20888834.879    20888834.4744   20888837.6044
        47.7004         44.9004
    290095.76943    226359.27146  25214493.159    25214493.0994   25214497.4284
        38.5004         36.2004
 -10715301.06345  -8333557.96647  21715089.727    21715089.5064   21715093.5534
        45.8004         43.0004
  -1929895.26246  -1494153.15647  22789095.039    22789094.7194   22789101.1214
        47.4004         44.4004
 25  2 24  1 48  0.0000000  0  9G16G30G04G09G07G20G29G11G06
                     85698.00445  24421918.210                    24421919.6144
                        32.9004
 -14874611.35347 -11567853.18648  21670947.931    21670947.5634   21670953.7814
        50.8004         48.0004
    391385.70442    317808.45245  24242031.812    24242030.7964   24242034.3144
        37.1004         35.0004
 -13927080.50547 -10828280.27647  21594941.167    21594941.0884   21594945.4674
        50.5004         47.7004
 -16613642.69847 -12921595.76248  21105725.665    21105725.8054   21105728.1764
        52.4004         49.6004
 -10786764.07746  -8390883.94947  20878885.465    20878884.2954   20878887.2504
        47.9004         44.9004
    308236.10143    240494.66745  25217944.543    25217945.4944   25217947.4004
        38.2004         35.7004
 -10671423.34045  -8299367.54747  21723438.946    21723439.4094   21723442.8304
        45.8004         42.8004
  -1832527.03246  -1418281.87047  22807623.767    22807624.1234   22807629.8304
        47.4004         44.4004
 25  2 24  1 48 30.0000000  0  9G16G30G04G09G07G20G29G11G06
    152968.95241    112853.65945  24428549.855    24428550.2324   24428553.6764
        33.3004         32.6004
 -14947565.84547 -11624700.81848  21657065.087    21657064.6754   21657071.0514
        51.0004         48.2004
    487594.16442    392776.05145  24260335.993    24260337.2984   24260342.7684
        36.8004         34.8004
 -13853311.98447 -10770798.32547  21608978.691    21608978.7564   21608983.3784
        50.5004         47.7004
 -16617402.00147 -12924525.08148  21105010.214    21105010.4414   21105012.8984
        52.4004         49.6004
 -10838632.49046  -8431300.88747  20869014.559    20869014.1314   20869017.1694
        47.7004         44.9004
    326911.30442    255046.80445  25221499.112    25221498.4324   25221502.9534
        37.3004         35.0004
 -10626983.60745  -8264739.20847  21731895.418    21731895.9844   21731899.3614
        45.8004         42.8004
  -1734871.30046  -1342186.52547  22826206.931    22826206.7584   22826213.0934
        47.2004         44.2004
 25  2 24  1 49  0.0000000  0  9G16G30G04G09G07G20G29G11G06
    188413.10041    140472.40745  24435298.697    24435299.0204   24435303.6624
        34.3004         33.6004
 -15020127.81147 -11681242.58448  21643257.080    21643256.6394   21643262.8024
        51.0004         48.4004
    583847.41042    467778.52545  24278658.036    24278655.4434   24278657.2684
        36.4004         34.5004
 -13779319.71247 -10713142.03347  21623058.522    21623058.9734   21623063.5504
        50.3004         47.5004
 -16620673.71947 -12927074.46748  21104387.944    21104387.8854   21104390.4124
        52.4004         49.8004
 -10890080.26746  -8471390.05447  20859224.499    20859223.9574   20859226.9334
        47.7004         44.7004
    346120.10842    270014.77345  25225153.590    25225151.5454   25225157.2644
        36.8004         34.5004
 -10581983.52845  -8229674.23747  21740458.706    21740458.7504   21740462.6704
        45.8004         42.8004
  -1636930.90946  -1265869.38847  22844844.209    22844844.7034   22844850.3104
        47.2004         44.4004
 25  2 24  1 49 30.0000000  0  9G16G30G04G09G07G20G29G11G06
    224450.35952    168553.27055  24442155.276    24442155.6934   24442158.5754
        36.1004         34.5004
 -15092295.56447 -11737477.17548  21629524.023    21629523.9234   21629529.5434
        51.2004         48.4004
    680144.44342    542815.13845  24296975.949    24296975.8064   24296981.9104
        35.9004         34.1004
 -13705104.87247 -10655312.29347  21637181.575    21637181.5904   21637186.3034
        50.3004         47.5004
 -16623458.34347 -12929244.29748  21103857.656    21103857.8864   21103860.5714
        52.4004         49.8004
 -10941105.08446  -8511149.65647  20849515.255    20849514.6704   20849516.8634
        47.7004         44.9004
    365861.43942    285397.60845  25228911.422    25228910.3564   25228913.7014
        36.4004         34.3004
 -10536424.73045  -8194173.88447  21749129.100    21749128.9874   21749132.6154
        45.8004         43.0004
  -1538708.80646  -1189332.73247  22863535.042    22863535.6054   22863541.1374
        47.2004         44.2004
 25  2 24  1 50  0.0000000  0  9G16G30G04G09G07G20G29G11G06
    261079.74142    197095.66545  24449125.217    24449127.0804   24449127.2354
        35.4004         33.4004
 -15164067.47547 -11793403.32448  21615866.918    21615866.3794   21615871.9794
        51.2004         48.4004
    776484.52542    617885.29545  24315318.739    24315312.6514   24315315.2394
        36.1004         34.1004
 -13630668.60547 -10597310.03247  21651345.888    21651346.1724   21651350.8714
        50.2004         47.3004
 -16625756.44647 -12931035.02048  21103420.684    21103420.6734   21103423.1714
        52.4004         49.8004
 -10991705.06946  -8550578.21247  20839886.567    20839885.2984   20839888.7324
        47.7004         44.7004
    386134.50452    301194.75655  25232770.137    25232768.2594   25232770.7784
        36.1004         34.0004
 -10490308.93445  -8158239.49647  21757904.735    21757905.0384   21757907.2894
        46.0004         43.0004
  -1440207.79346  -1112578.74547  22882280.302    22882280.2784   22882285.1284
        47.2004         44.4004
 25  2 24  1 50 30.0000000  0  9G16G30G04G09G07G20G29G11G06
    298300.04942    226098.48645  24456208.169    24456206.4634   24456210.7974
        34.7004         33.3004
 -15235441.90147 -11849019.73548  21602284.098    21602283.9644   21602289.6654
        51.2004         48.4004
    872866.55842    692988.09845  24333648.380    24333651.7344   24333657.3764
        36.3004         34.3004
 -13556012.13347 -10539136.18147  21665553.277    21665552.9854   21665557.9214
        50.3004         47.5004
 -16627567.93647 -12932446.56148  21103075.887    21103075.7134   21103078.5114
        52.4004         49.8004
 -11041878.22946  -8589674.18247  20830338.719    20830337.7584   20830340.7364
        47.7004         44.9004
    406938.01242    317405.28245  25236729.322    25236727.5424   25236732.0044
        35.4004         33.8004
 -10443637.82045  -8121872.39847  21766785.664    21766786.0674   21766788.2924
        45.8004         42.8004
  -1341430.78546  -1035609.69447  22901076.656    22901076.5764   22901082.2644
        47.2004         44.4004
 25  2 24  1 51  0.0000000  0  9G16G30G04G09G07G20G29G11G06
    336110.21042    255560.90545  24463404.333    24463402.3304   24463405.8004
        35.2004         33.8004
 -15306417.18647 -11904325.13648  21588778.188    21588777.9274   21588783.3954
        51.2004         48.4004
    969289.80442    768123.09245  24352001.553    24351998.6984   24352004.7034
        35.7004         34.0004
 -13481136.62747 -10480791.65147  21679801.309    21679801.4234   21679805.9974
        50.2004         47.3004
 -16628893.28247 -12933479.29148  21102823.457    21102823.7274   21102826.3134
        52.4004         49.8004
 -11091622.59646  -8628436.02747  20820872.149    20820871.6694   20820874.8604
        47.7004         44.9004
    428270.41352    334027.94555  25240785.919    25240786.9704   25240789.0674
        34.7004         32.9004
 -10396413.09045  -8085073.91147  21775771.717    21775772.5644   21775774.9404
        45.6004         42.6004
  -1242380.68446   -958427.83747  22919924.809    22919924.9184   22919931.2144
        47.4004         44.4004
 25  2 24  1 51 30.0000000  0  9G16G30G04G09G07G20G29G11G06
    374508.98842    285482.05045  24470707.211    24470708.1324   24470710.5284
        35.2004         33.3004
 -15376991.74047 -11959318.26948  21575347.801    21575347.5834   21575353.6094
        51.2004         48.4004
   1065753.28842    843289.36445  24370362.377    24370357.3304   24370364.0604
        35.7004         34.0004
 -13406043.28947 -10422277.37247  21694091.373    21694091.3254   21694096.0714
        50.2004         47.5004
 -16629733.17747 -12934133.74348  21102664.241    21102663.9874   21102666.4494
        52.4004         49.8004
 -11140936.45046  -8666862.40147  20811488.356    20811487.5514   20811490.5884
        47.7004         44.9004
    450130.65152    351061.91255  25244944.915    25244943.7064   25244951.4334
        34.5004         33.1004
 -10348636.50945  -8047845.41347  21784863.567    21784863.8684   21784867.1764
        45.6004         42.6004
  -1143060.37046   -881035.43947  22938826.056    22938825.5684   22938830.8894
        47.4004         44.4004
 25  2 24  1 52  0.0000000  0  9G16G30G04G09G07G20G29G11G06
    413494.93042    315860.60445  24478131.423    24478129.9594   24478132.1264
        34.5004         33.1004
 -15447163.95947 -12013997.89648  21561994.814    21561994.3394   21562000.3484
        51.2004         48.5004
   1162256.01642    918486.21345  24388715.319    24388722.3984   24388725.9294
        35.4004         33.4004
 -13330733.23347 -10363594.23647  21708422.064    21708422.3684   21708426.9004
        50.2004         47.3004
 -16630088.11947 -12934410.31248  21102596.565    21102596.5114   21102599.0324
        52.4004         49.9004
 -11189817.68946  -8704951.68347  20802186.438    20802185.7494   20802188.8704
        47.7004         44.7004
    472516.89951    368505.73155  25249205.968    25249208.2074   25249213.2294
        34.2004         32.9004
 -10300309.87945  -8010188.30347  21794059.239    21794059.7824   21794063.5194
        45.5004         42.3004
  -1043472.76846   -803434.74947  22957775.183    22957775.4854   22957782.7694
        47.4004         44.4004
 25  2 24  1 52 30.0000000  0  9G16G30G04G09G07G20G29G11G06
    453066.68642    346695.67145  24485660.251    24485659.2434   24485659.6434
        34.9004         33.6004
 -15516932.20647 -12068362.73548  21548718.712    21548717.8464   21548724.1174
        51.4004         48.5004
   1258797.37342    993713.23945  24407091.969    24407092.7634   24407095.7164
        35.2004         33.4004
 -13255207.67847 -10304743.16247  21722793.822    21722794.1234   21722798.7354
        50.2004         47.2004
 -16629958.07348 -12934308.97448  21102621.068    21102621.3304   21102623.6384
        52.6004         49.8004
 -11238264.54346  -8742702.47147  20792967.026    20792966.3134   20792969.5584
        47.5004         44.9004
    495428.77152    386359.13655  25253566.610    25253567.6304   25253569.3564
        34.5004         33.1004
 -10251434.98745  -7972103.98547  21803360.268    21803360.4664   21803363.5764
        45.3004         42.3004
   -943620.74846   -725628.02047  22976777.171    22976777.3224   22976783.8944
        47.2004         44.4004
 25  2 24  1 53  0.0000000  0  9G16G30G04G09G07G20G29G11G06
    493223.17042    377986.42545  24493301.601    24493302.6854   24493305.0374
        35.6004         34.0004
 -15586294.90247 -12122411.56948  21535519.753    21535518.9814   21535524.5924
        51.5004         48.7004
   1355376.40742   1068969.56145  24425474.362    24425473.0194   24425475.3634
        35.2004         33.4004
 -13179467.76647 -10245725.07047  21737207.292    21737207.2254   21737211.7104
        50.0004         47.2004
 -16629343.75148 -12933830.27748  21102738.179    21102738.2884   21102740.4534
        52.6004         49.8004
 -11286275.24046  -8780113.41147  20783831.123    20783830.7444   20783833.6194
        47.7004         44.9004
    518864.85151    404621.05255  25258028.670    25258029.3134   25258029.4714
        34.2004         32.7004
 -10202013.61045  -7933593.84947  21812764.551    21812764.5564   21812768.4224
        45.3004         42.3004
   -843507.25646   -647617.56447  22995827.781    22995827.3084   22995834.6244
        47.0004         43.9004
 25  2 24  1 53 30.0000000  0  9G16G30G04G09G07G20G29G11G06
    533963.01442    409731.64645  24501054.472    24501052.1184   24501058.3194
        35.2004         33.3004
 -15655250.50147 -12176143.17748  21522396.605    21522396.8384   21522402.7884
        51.5004         48.7004
   1451992.01742   1144254.40845  24443854.320    24443859.1534   24443860.7284
        35.2004         33.6004
 -13103514.68347 -10186540.86147  21751660.621    21751660.6614   21751665.2034
        50.0004         47.2004
 -16628245.62247 -12932974.58448  21102946.818    21102947.0134   21102949.4544
        52.4004         49.8004
 -11333847.64046  -8817182.81047  20774778.118    20774777.4654   20774780.8124
        47.7004         44.9004
    542823.54051    423290.25755  25262581.715    25262584.5594
        33.0004         32.2004
 -10152047.60645  -7894659.31847  21822272.576    21822272.7834   21822276.7014
        45.3004         42.3004
   -743135.16946   -569405.59947  23014925.934    23014927.5094   23014935.0674
        46.9004         43.9004
 25  2 24  1 54  0.0000000  0  9G16G30G04G09G07G20G29G11G06
    575284.79542    441930.32545  24508918.065    24508918.0504   24508918.1814
        35.2004         33.4004
 -15723797.44647 -12229556.35948  21509352.815    21509352.8244   21509358.5374
        51.7004         48.9004
   1548643.63442   1219567.39145  24462251.439    24462250.6024   24462254.5024
        35.4004         33.8004
 -13027349.58047 -10127191.44947  21766154.249    21766154.2204   21766158.9804
        50.0004         47.2004
 -16626664.16547 -12931742.27948  21103247.667    21103247.9374   21103250.3484
        52.4004         49.8004
 -11380979.99546  -8853909.32847  20765809.097    20765808.4854   20765811.8174
        47.7004         44.9004
    567302.64751    442364.74055  25267245.564    25267240.9434
        31.7004         31.2004
 -10101538.80645  -7855301.83347  21831883.901    21831884.0644   21831887.8444
        45.1004         42.1004
   -642507.37646   -490994.39047  23034077.142    23034076.4494   23034084.3544
        46.9004         44.0004
 25  2 24  1 54 30.0000000  0  9G16G30G04G09G07G20G29G11G06
    617186.98042    474581.37345  24516891.831    24516889.8754   24516893.0764
        35.7004         34.1004
 -15791934.13347 -12282649.86248  21496387.356    21496387.1144   21496392.8084
        51.7004         48.9004
   1645330.27442   1294907.58645  24480649.333    24480649.2234   24480654.9194
        35.2004         33.8004
 -12950973.60847 -10067677.71947  21780688.231    21780688.3974   21780693.0284
        50.0004         47.2004
 -16624599.83547 -12930133.70248  21103640.537    21103640.6044   21103643.2164
        52.4004         49.8004
 -11427670.06246  -8890291.19447  20756924.212    20756923.7054   20756927.0694
        47.7004         44.9004
    592302.37751    461844.98855  25271997.557    25272000.3034
        31.6004         31.2004
 -10050489.08245  -7815522.86947  21841599.094    21841598.7784   21841602.8244
        45.1004         42.3004
   -541626.85346   -412386.24547  23053271.911    23053273.0674   23053280.0744
        46.7004         43.9004
 25  2 24  1 55  0.0000000  0  9G16G30G04G09G07G20G29G11G06
    659668.44342    507683.74945  24524975.294    24524975.7284   24524976.5324
        35.9004         34.3004
 -15859659.07147 -12335422.52248  21483499.615    21483499.6424   21483504.9534
        51.9004         48.9004
   1742051.05242   1370274.36745  24499054.686    24499053.0324   24499055.7654
        34.9004         33.1004
 -12874387.93047 -10008000.58347  21795261.693    21795261.8934   21795267.0334
        50.0004         47.2004
 -16622053.29647 -12928149.37848  21104124.968    21104125.2714   21104127.8824
        52.4004         49.8004
 -11473916.39946  -8926327.30147  20748123.925    20748123.3394   20748126.5714
        47.7004         44.9004
    617821.5855     481730.04155  25276851.932    25276855.2874
        31.0004         30.5004
  -9998900.29545  -7775323.84947  21851415.980    21851415.9254   21851419.3334
        45.1004         42.1004
   -440496.52546   -333583.44447  23072517.351    23072518.0814   23072525.4784
        46.9004         44.0004
 25  2 24  1 55 30.0000000  0  9G16G30G04G09G07G20G29G11G06
    702727.59342    541236.26445  24533166.498    24533167.2704   24533170.9394
        35.7004         33.6004
 -15926970.70447 -12387873.13448  21470690.139    21470690.1874   21470695.9654
        51.9004         48.9004
   1838805.10542   1445667.08445  24517462.958    24517468.0154   24517469.8214
        34.5004         33.3004
 -12797593.70347  -9948160.93947  21809874.537    21809874.9884   21809880.3724
        50.0004         47.0004
 -16619024.92547 -12925789.60548  21104701.984    21104701.8964   21104703.9324
        52.4004         49.8004
 -11519716.87946  -8962016.00047  20739408.477    20739408.2294   20739411.0174
        47.9004         44.9004
                     13752.79453  25281813.768
                        23.4004
  -9946774.42345  -7734706.31447  21861334.925    21861335.5194   21861338.8134
        45.3004         42.5004
   -339119.25146   -254588.20647  23091809.174    23091809.9004   23091817.3184
        47.0004         44.0004
 25  2 24  1 56  0.0000000  0  9G16G30G04G09G07G20G29G11G06
    746362.73742    575237.61345  24541473.349    24541471.7374   24541476.5354
        35.9004         34.1004
 -15993867.52847 -12440000.51148  21457959.834    21457960.0724   21457965.9864
        51.7004         48.9004
   1935591.63241   1521085.15345  24535880.200    24535878.7074   24535888.3764
        34.3004         33.1004
 -12720592.04847  -9888159.66947  21824527.987    21824527.9804   21824533.7174
        50.0004         47.2004
 -16615515.30947 -12923054.83248  21105369.746    21105369.6934   21105371.7764
        52.4004         49.8004
 -11565069.82346  -8997355.96147  20730778.554    20730777.7814   20730780.6244
        47.9004         44.9004
                     34532.95254  25286864.981
                        29.6004
  -9894113.36245  -7693671.76347  21871356.173    21871356.6894   21871360.0554
        45.3004         42.3004
   -237497.99346   -175402.85747  23111148.198    23111147.9204   23111154.4274
        46.9004         43.9004
 25  2 24  1 56 30.0000000  0  9G16G30G04G09G07G20G29G11G06
    790572.56342    609686.82845  24549883.655    24549884.1994   24549889.2214
        35.4004         33.6004
 -16060348.07547 -12491803.50748  21445309.219    21445309.2184   21445315.0474
        51.7004         48.9004
   2032409.82541   1596527.84445  24554310.865    24554305.5834   24554312.5744
        34.3004         32.9004
 -12643384.11747  -9827997.66647  21839220.018    21839220.3904   21839225.8734
        49.8004         47.0004
 -16611525.13347 -12919945.59748  21106128.952    21106128.8454   21106131.1254
        52.4004         49.8004
 -11609973.30646  -9032345.69747  20722233.681    20722233.0674   20722235.9614
        47.9004         45.1004
                     55732.99355  25292013.464
                        30.0004
  -9840919.05345  -7652221.68347  21881478.414    21881478.9034   21881482.9404
        45.3004         42.3004
   -135635.67946    -96029.68047  23130531.263    23130531.6374   23130537.9134
        46.7004         43.9004
 25  2 24  1 57  0.0000000  0  8G16G30G04G09G07G20G11G06
    835355.61242    644582.71545  24558402.697    24558403.1854   24558410.3714
        34.5004         32.7004
 -16126410.82147 -12543280.93748  21432737.945    21432737.7924   21432743.6714
        51.7004         49.1004
   2129258.73141   1671994.46945  24572733.230    24572736.3754   24572743.0454
        34.2004         32.7004
 -12565971.02047  -9767675.80347  21853952.423    21853951.8564   21853956.9504
        49.8004         46.8004
 -16607055.19847 -12916462.52048  21106979.056    21106979.0024   21106981.9504
        52.4004         49.6004
 -11654425.47146  -9066983.75747  20713774.847    20713774.1744   20713777.1604
        47.9004         45.1004
  -9787193.41245  -7610357.59547  21891702.553    21891703.0814   21891707.2604
        45.5004         42.6004
    -33535.20346    -16470.91447  23149960.966    23149961.0824   23149967.9594
        46.9004         44.0004
 25  2 24  1 57 30.0000000  0  8G16G30G04G09G07G20G11G06
    880710.54241    679924.13745  24567035.634    24567032.6454   24567043.8214
        34.0004         32.4004
 -16192054.29347 -12594431.66648  21420246.467    21420246.4454   21420252.2674
        51.9004         49.1004
   2226137.63341   1747484.54045  24591169.965    24591173.3404   24591175.1984
        34.3004         33.3004
 -12488353.96147  -9707194.99447  21868721.860    21868722.0504   21868727.0264
        49.8004         46.8004
 -16602105.71147 -12912605.77448  21107920.384    21107920.8304   21107923.6844
        52.4004         49.6004
 -11698424.52146  -9101268.73847  20705402.362    20705401.3844   20705404.1724
        48.1004         45.2004
  -9732938.47545  -7568081.05447  21902027.409    21902027.6974   21902030.9094
        45.5004         42.5004
     68800.48046     63271.13147  23169433.116    23169434.3274   23169441.7004
        46.9004         43.9004
 25  2 24  1 58  0.0000000  0  8G16G30G04G09G07G20G11G06
    926635.40542    715709.59545  24575775.883    24575776.7574   24575784.3944
        34.5004         33.3004
 -16257277.00647 -12645254.53048  21407835.593    21407834.8784   21407840.6554
        51.9004         49.2004
   2323045.65142   1822997.24545  24609613.004    24609613.9974   24609620.6884
        35.0004         33.6004
 -12410534.03247  -9646556.11047  21883530.366    21883530.4354   21883534.9274
        49.6004         46.6004
 -16596677.15347 -12908375.71748  21108954.785    21108954.2024   21108956.6464
        52.4004         49.6004
 -11741968.71546  -9135199.27847  20697115.710    20697115.2114   20697118.1174
        48.1004         45.2004
  -9678156.25745  -7525393.63647  21912451.919    21912451.8664   21912455.2754
        45.5004         42.5004
    171368.42446    143194.15647  23188952.565    23188953.0934   23188959.5654
        46.7004         43.9004
 25  2 24  1 58 30.0000000  0  8G16G30G04G09G07G20G11G06
    973128.74842    751938.12145  24584621.882    24584621.8864   24584627.7014
        35.2004         33.6004
 -16322077.52247 -12695748.41848  21395503.799    21395503.6704   21395509.8174
        52.1004         49.2004
   2419981.98542   1898531.96145  24628062.548    24628060.4724   24628062.6994
        35.4004         33.6004
 -12332512.37247  -9585760.02847  21898378.166    21898378.0774   21898382.7354
        49.6004         46.8004
 -16590770.15247 -12903772.85448  21110078.413    21110078.2094   21110080.8314
        52.4004         49.8004
 -11785055.90446  -9168773.71347  20688916.369    20688915.5094   20688918.9824
        48.1004         45.2004
  -9622848.74245  -7482296.91547  21922976.950    21922977.4974   21922979.9084
        45.3004         42.3004
    274165.70646    223295.87547  23208514.692    23208514.7164   23208521.5704
        46.9004         43.9004
 25  2 24  1 59  0.0000000  0  8G16G30G04G09G07G20G11G06
   1020189.15242    788608.53945  24593579.102    24593579.7594   24593586.2534
        35.6004         34.1004
 -16386454.42247 -12745912.21648  21383253.618    21383253.4334   21383259.1504
        52.2004         49.4004
   2516945.80142   1974088.12745  24646514.609    24646513.9294   24646518.1224
        35.6004         33.8004
 -12254290.09447  -9524807.62147  21913262.954    21913262.7634   21913268.0614
        49.6004         46.6004
 -16584385.31247 -12898797.65448  21111293.333    21111293.3144   21111295.8834
        52.4004         49.8004
 -11827684.70746  -9201990.97747  20680804.619    20680803.8114   20680806.8154
        48.1004         45.1004
  -9567018.01245  -7438792.47747  21933600.824    21933600.8444   21933604.1484
        45.1004         42.3004
    377189.40846    303574.02647  23228119.969    23228119.6194   23228126.4334
        46.7004         43.9004
 25  2 24  1 59 30.0000000  0  8G16G30G04G09G07G20G11G06
   1067814.92742    825719.47045  24602642.237    24602638.6714   24602644.0904
        35.0004         33.4004
 -16450406.27847 -12795744.80548  21371084.497    21371083.7924   21371089.4564
        52.2004         49.4004
   2613936.30342   2049665.09245  24664965.850    24664966.1364   24664972.2324
        34.7004         32.7004
 -12175868.29646  -9463699.74247  21928186.507    21928186.7464   21928190.1684
        49.5004         46.5004
 -16577523.58547 -12893450.85248  21112599.399    21112599.1794   21112601.3224
        52.4004         49.8004
 -11869852.97546  -9234849.37447  20672780.100    20672779.3624   20672782.4654
        47.9004         44.9004
  -9510666.11645  -7394881.93347  21944324.320    21944324.2184   21944328.5394
        45.1004         42.1004
    480436.57046    384026.30647  23247766.163    23247766.6134   23247773.7314
        46.7004         43.7004
 25  2 24  2  0  0.0000000  0  9G16G30G04G05G09G07G20G11G06
   1116004.41842    863269.65145  24611813.739    24611811.7144   24611815.7334
        35.2004         33.6004
 -16513931.65147 -12845245.07248  21358995.292    21358995.2254   21359000.8304
        52.2004         49.4004
   2710952.65941   2125262.21945  24683429.904    24683430.2854   24683434.2744
        34.2004         32.7004
   -277172.20855   -201220.59557  22907109.394    22907109.4114   22907112.6894
        44.1004         42.5004
 -12097248.14546  -9402437.30147  21943147.080    21943146.5274   21943151.6244
        49.3004         46.3004
 -16570185.47647 -12887732.83948  21113995.590    21113995.5084   21113997.7054
        52.4004         49.6004
 -11911559.10746  -9267347.66747  20664843.757    20664842.8954   20664845.7524
        47.9004         45.1004
  -9453795.13945  -7350566.92247  21955146.828    21955147.1124   21955150.1464
        45.1004         42.1004
    583904.26445    464650.44347  23267453.568    23267455.0244   23267462.0614
        46.3004         43.3004
 25  2 24  2  0 30.0000000  0  9G16G30G04G05G09G07G20G11G06
   1164755.84542    901257.70845  24621090.888    24621088.5484   24621094.0484
        35.6004         34.1004
 -16577029.12747 -12894411.91648  21346988.497    21346988.2784   21346993.7284
        52.2004         49.4004
   2807994.10141   2200878.86945  24701900.922    24701895.0454   24701901.7364
        34.2004         32.7004
   -373300.10245   -276125.42947  22888819.071    22888817.7194   22888820.0144
        45.3004         42.8004
 -12018430.72846  -9341021.16447  21958145.982    21958145.8094   21958149.2354
        49.1004         46.3004
 -16562371.92447 -12881644.35348  21115481.649    21115482.2114   21115484.6974
        52.4004         49.8004
 -11952801.26846  -9299484.42647  20656995.374    20656994.9094   20656997.6754
        47.9004         45.1004
  -9396407.13445  -7305849.03146  21966065.509    21966066.9424   21966070.0524
        44.9004         41.8004
    687589.56145    545444.12547  23287186.478    23287186.3104   23287193.4044
        46.0004         43.0004
 25  2 24  2  1  0.0000000  0  9G16G30G04G05G09G07G20G11G06
   1214067.61842    939682.42345  24630473.613    24630473.4684   24630477.1744
        35.9004         34.3004
 -16639697.35747 -12943244.28548  21335062.916    21335062.7584   21335068.2594
        52.2004         49.4004
   2905059.98241   2276514.52445  24720369.265    24720370.2594   24720368.5674
        34.3004         33.3004
   -469219.60355   -350867.89657  22870564.557    22870564.6484   22870567.4684
        45.6004         42.8004
 -11939417.18246  -9279452.18247  21973180.828    21973181.2384   21973186.1704
        49.1004         46.3004
 -16554083.40047 -12875185.75548  21117059.756    21117059.6704   21117061.9234
        52.4004         49.8004
 -11993577.79946  -9331258.35147  20649235.846    20649235.2264   20649238.5034
        47.9004         44.9004
  -9338504.29145  -7260729.96147  21977085.198    21977085.5714   21977089.0364
        44.9004         42.1004
    791489.49945    626405.07747  23306958.016    23306958.0754   23306965.4674
        46.0004         43.0004
 25  2 24  2  1 30.0000000  0  9G16G30G04G05G09G07G20G11G06
   1263937.94142    978542.37945  24639962.562    24639963.8044   24639966.5034
        35.6004         34.0004
 -16701934.94547 -12991741.09648  21323219.421    21323219.0734   21323224.5794
        52.2004         49.2004
   3002149.20241   2352168.45445  24738840.935    24738843.5674   24738847.0944
        34.0004         32.6004
   -564928.31245   -425446.08047  22852350.504    22852351.2424   22852354.5624
        45.5004         42.6004
 -11860208.55646  -9217731.20147  21988254.446    21988254.4324   21988258.2134
        49.1004         46.1004
 -16545320.63548 -12868357.62548  21118726.971    21118727.2304   21118729.3754
        52.6004         49.9004
 -12033886.91046  -9362668.06047  20641565.820    20641564.9364   20641567.8934
        47.9004         45.1004
  -9280088.69945  -7215211.35747  21988201.673    21988201.5764   21988205.4474
        45.1004         42.3004
    895601.16145    707530.99547  23326769.463    23326769.6744   23326776.5384
        45.8004         42.8004
 25  2 24  2  2  0.0000000  0 10G16G30G04G05G09G07G20G11G13G06
   1314365.31242   1017836.32345  24649558.582    24649559.9864   24649564.7714
        34.7004         33.1004
 -16763740.52547 -13039901.27848  21311458.663    21311458.0994   21311463.2964
        52.2004         49.2004
   3099261.19341   2427840.10245  24757321.956    24757321.8774   24757326.8444
        33.8004         32.9004
   -660424.03445   -499858.31047  22834179.443    22834178.8514   22834181.8824
        45.3004         42.3004
 -11780806.04146  -9155859.12247  22003363.779    22003364.1294   22003368.4264
        49.1004         46.1004
 -16536084.19748 -12861160.39448  21120484.791    21120484.9094   21120487.1004
        52.6004         49.9004
 -12073726.43646  -9393711.85647  20633984.164    20633983.5954   20633986.4914
        47.9004         45.1004
  -9221162.53245  -7169294.89147  21999414.451    21999414.9694   21999418.6314
        45.1004         42.1004
                   -208869.30754  23672562.769
                        29.8004
    999921.55945    788819.56947  23346619.825    23346620.6424   23346627.2804
        45.6004         42.5004
 25  2 24  2  2 30.0000000  0 10G16G30G04G05G09G07G20G11G13G06
   1365347.81741   1057562.83645  24659261.157    24659258.2874   24659262.6824
        34.0004         32.7004
 -16825112.77447 -13087723.79248  21299780.152    21299779.2904   21299784.6244
        52.2004         49.2004
   3196395.07141   2503528.73945  24775805.686    24775807.5314   24775812.8204
        34.2004         32.7004
   -755704.85745   -574103.09446  22816046.766    22816047.3854   22816051.0894
        44.9004         41.9004
 -11701210.65046  -9093836.76247  22018510.983    22018510.5974   22018515.1764
        48.9004         46.1004
 -16526374.95248 -12853594.74748  21122332.586    21122332.5234   21122334.4664
        52.6004         49.9004
 -12113095.07946  -9424388.73747  20626492.597    20626492.0414   20626495.1324
        47.9004         45.2004
  -9161727.98945  -7122982.28947  22010725.338    22010725.7764   22010728.9534
        45.3004         42.5004
                    -47372.93843  23653548.698
                        23.4004
   1104447.78145    870268.53247  23366510.945    23366511.9134   23366519.0464
        45.5004         42.5004
 25  2 24  2  3  0.0000000  0 10G16G30G04G05G09G07G20G11G13G06
   1416883.65942   1097720.59145  24669068.009    24669068.0344   24669072.5974
        34.5004         33.3004
 -16886050.30747 -13135207.57648  21288183.040    21288183.2004   21288188.6104
        52.2004         49.4004
   3293550.09241   2579233.95445  24794292.997    24794292.5574   24794296.9544
        34.0004         32.7004
   -850767.84145   -648178.12546  22797956.497    22797957.5874   22797961.2734
        44.8004         41.8004
 -11621423.53146  -9031665.00547  22033693.197    22033693.6014   22033697.9674
        48.8004         45.9004
 -16516193.98148 -12845661.52048  21124269.342    21124269.5954   21124271.7044
        52.6004         49.8004
 -12151991.07346  -9454697.31347  20619091.381    20619090.3314   20619093.2694
        47.9004         45.1004
  -9101787.17845  -7076275.20247  22022131.473    22022131.8284   22022135.3764
        45.3004         42.5004
                   -125131.99345  23634558.078
                        35.5004
   1209176.90745    951875.59947  23386441.353    23386441.3054   23386448.1224
        45.5004         42.5004
 25  2 24  2  3 30.0000000  0 10G16G30G04G05G09G07G20G11G13G06
   1468971.07442   1138308.16745  24678980.336    24678980.9784   24678980.0314
        34.9004         33.3004
 -16946551.82547 -13182351.59848  21276670.276    21276670.1984   21276675.7164
        52.4004         49.6004
   3390725.46641   2654954.95645  24812788.410    24812789.3914   24812791.3944
        34.3004         33.3004
   -945610.81445   -722081.71246  22779909.919    22779909.5834   22779912.9604
        44.6004         41.8004
 -11541445.74146  -8969344.66647  22048912.465    22048913.0264   22048917.6154
        48.8004         45.8004
 -16505541.39448 -12837360.80048  21126297.027    21126296.9154   21126298.9734
        52.6004         49.8004
 -12190412.68446  -9484636.24247  20611779.927    20611779.0444   20611781.7844
        47.9004         45.1004
  -9041342.37245  -7029175.38147  22033633.809    22033633.8324   22033637.7544
        45.3004         42.5004
   -582969.96942   -202782.20845  23615594.715    23615593.9604   23615599.3324
        36.8004         35.5004
   1314105.91145   1033638.41747  23406408.017    23406408.8524   23406414.2474
        45.1004         42.3004
 25  2 24  2  4  0.0000000  0 10G16G30G04G05G09G07G20G11G13G06
   1521608.30841   1179324.10845  24688996.383    24688995.0604   24688998.6444
        34.3004         32.9004
 -17006616.00147 -13229154.83448  21265240.557    21265240.4274   21265246.1004
        52.4004         49.8004
   3487920.54341   2730691.34945  24831287.908    24831282.6404   24831285.4424
        34.2004         32.9004
  -1040231.51745   -795812.11046  22761904.040    22761904.1744   22761907.2254
        44.6004         41.8004
 -11461278.40846  -8906876.63347  22064167.423    22064167.5464   22064172.5234
        48.6004         45.8004
 -16494418.29748 -12828693.45048  21128413.392    21128413.3744   21128415.8454
        52.6004         49.8004
 -12228358.01746  -9514204.04947  20604559.437    20604558.3324   20604561.1264
        47.9004         45.1004
  -8980395.74745  -6981684.54847  22045231.856    22045232.0034   22045235.3964
        45.3004         42.1004
   -682480.53643   -280322.85746  23596658.615    23596658.6964   23596662.7734
        38.0004         36.0004
   1419231.91345   1115554.72247  23426413.855    23426414.2234   23426419.4704
        45.1004         42.1004
 25  2 24  2  4 30.0000000  0 10G16G30G04G05G09G07G20G11G13G06
   1574793.47341   1220766.94645  24699115.709    24699117.1054   24699121.5114
        34.2004         32.7004
 -17066241.60648 -13275616.31848  21253894.333    21253893.9094   21253899.9064
        52.6004         49.8004
   3585134.47641   2806442.42845  24849782.963    24849782.8464   24849782.3204
        33.8004         32.6004
  -1134628.06945   -869367.83746  22743941.514    22743941.4174   22743944.0324
        44.4004         41.6004
 -11380922.59146  -8844261.72047  22079458.289    22079459.4324   22079464.6594
        48.8004         45.9004
 -16482825.47148 -12819660.07548  21130619.467    21130619.4634   21130621.8444
        52.6004         49.8004
 -12265825.48946  -9543399.49147  20597428.761    20597428.2634   20597431.3724
        47.9004         45.1004
  -8918949.58345  -6933804.46547  22056925.010    22056924.9774   22056928.6554
        45.1004         42.1004
   -781849.56253   -357753.21156  23577748.763    23577748.4434   23577753.3864
        38.3004         36.0004
   1524551.90645   1197622.21847  23446455.614    23446456.2044   23446462.5754
        45.1004         42.3004
 25  2 24  2  5  0.0000000  0 10G16G30G04G05G09G07G20G11G13G06
   1628524.69041   1262635.34745  24709342.119    24709343.5594   24709344.2654
        34.2004         32.6004
 -17125427.26448 -13321735.00148  21242631.364    21242631.5494   21242637.0244
        52.6004         49.8004
   3682366.34041   2882207.53845  24868281.565    24868284.4134   24868288.3234
        34.3004         33.3004
  -1228798.42945   -942747.32146  22726022.060    22726021.6054   22726024.2494
        44.6004         41.8004
 -11300379.36846  -8781500.78547  22094786.104    22094785.8664   22094790.7084
        48.6004         45.8004
 -16470763.66548 -12810261.26248  21132914.920    21132914.6814   21132917.1254
        52.6004         49.8004
 -12302813.61146  -9572221.40747  20590390.407    20590389.9214   20590392.8924
        47.9004         45.1004
  -8857006.10345  -6885536.84847  22068711.977    22068711.9714   22068715.4844
        45.1004         42.1004
   -881075.89843   -435072.34545  23558866.722    23558866.6644   23558871.5454
        38.3004         35.9004
   1630063.01445   1279838.62547  23466533.081    23466533.8184   23466540.1254
        45.1004         42.3004
 25  2 24  2  5 30.0000000  0 10G16G30G04G05G09G07G20G11G13G06
   1682800.15041   1304927.90245  24719670.748    24719670.0824   24719672.9454
        33.3004         32.2004
 -17184171.75348 -13367509.91148  21231453.359    21231452.7654   21231457.7894
        52.6004         49.8004
   3779615.60942   2957986.15045  24886793.209    24886790.2044   24886794.6464
        34.7004         33.3004
  -1322740.12845  -1015948.62246  22708143.224    22708144.0264   22708147.4834
        44.4004         41.4004
 -11219649.85146  -8718594.68447  22110148.570    22110148.2474   22110153.3174
        48.6004         45.8004
 -16458233.62248 -12800497.59048  21135299.011    21135299.1104   21135301.6324
        52.6004         49.8004
 -12339320.43846  -9600668.29447  20583443.217    20583442.8984   20583445.6184
        47.9004         45.1004
  -8794567.60145  -6836883.51446  22080592.913    22080593.3484   22080597.0944
        44.8004         41.6004
   -980158.81543   -512279.73745  23540011.511    23540011.9174   23540018.1904
        38.2004         35.9004
   1735762.22445   1362201.59846  23486649.567    23486648.6304   23486652.9734
        44.9004         41.9004
 25  2 24  2  6  0.0000000  0 10G16G30G04G05G09G07G20G11G13G06
   1737617.95441   1347642.99645  24730102.204    24730100.7564   24730102.6574
        33.1004         32.0004
 -17242473.80948 -13412940.07048  21220357.991    21220358.1234   21220363.3434
        52.6004         49.8004
   3876881.38242   3033777.57445  24905300.783    24905303.9034   24905304.4834
        34.7004         33.1004
  -1416450.45245  -1088969.63646  22690310.796    22690311.2654   22690315.4834
        44.4004         41.6004
 -11138735.06446  -8655544.21847  22125546.241    22125545.7924   22125551.2574
        48.6004         45.8004
 -16445236.56548 -12790370.01248  21137771.951    21137772.3864   21137774.7774
        52.6004         49.8004
 -12375344.35446  -9628738.89147  20576588.574    20576587.7114   20576590.6114
        47.9004         45.1004
  -8731636.36345  -6787846.23446  22092569.016    22092568.9084   22092573.0014
        44.6004         41.6004
  -1079097.29843   -589374.59346  23521184.738    23521184.8144   23521189.1494
        38.5004         36.2004
   1841646.63445   1444708.88646  23506796.323    23506796.6684   23506802.0004
        44.8004         41.6004
 25  2 24  2  6 30.0000000  0 10G16G30G04G05G09G07G20G11G13G06
   1792976.31341   1390779.32545  24740637.013    24740632.0254   24740637.8384
        33.3004         32.2004
 -17300332.20948 -13458024.52548  21209348.217    21209347.9304   21209353.4004
        52.6004         49.8004
   3974163.04342   3109581.47445  24923811.363    24923812.8254   24923815.3904
        34.7004         32.9004
  -1509927.17345  -1161808.61546  22672524.426    22672524.2534   22672527.2064
        44.6004         41.8004
 -11057636.13246  -8592350.26147  22140979.888    22140979.4754   22140983.1994
        48.6004         45.8004
 -16431773.07248 -12779878.97448  21140334.603    21140334.3024   21140336.4574
        52.6004         49.8004
 -12410883.62146  -9656431.83847  20569825.450    20569824.8324   20569827.8944
        47.9004         45.1004
  -8668214.65945  -6738426.75146  22104637.760    22104638.2294   22104641.4794
        44.8004         41.9004
  -1177890.17943   -666355.98146  23502384.486    23502384.6324   23502389.6194
        38.7004         36.4004
   1947713.26245   1527358.18546  23526978.630    23526979.8594   23526986.9064
        44.4004         41.4004
 25  2 24  2  7  0.0000000  0 10G16G30G04G05G09G07G20G11G13G06
   1848873.24641   1434335.29045  24751271.212    24751273.8124   24751277.9544
        33.0004         32.2004
 -17357745.70648 -13502762.29548  21198422.639    21198422.1884   21198428.2844
        52.6004         49.6004
   4071459.80842   3185397.10745  24942327.671    24942327.5864   24942332.9544
        34.9004         33.3004
  -1603168.38745  -1234464.11447  22654781.041    22654781.1114   22654783.7004
        44.8004         42.1004
 -10976354.10746  -8529013.62747  22156446.203    22156446.1684   22156451.6754
        48.6004         45.8004
 -16417843.90748 -12769025.07748  21142985.149    21142985.2164   21142986.9484
        52.6004         49.8004
 -12445936.54546  -9683745.80347  20563155.150    20563154.7004   20563157.7424
        47.9004         45.1004
  -8604304.83745  -6688626.94246  22116800.360    22116800.4404   22116802.0934
        44.8004         41.9004
  -1276536.56043   -743223.23946  23483612.603    23483612.2884   23483617.8074
        38.9004         36.6004
   2053959.19145   1610147.17146  23547199.168    23547199.5514   23547205.5134
        44.2004         41.4004
 25  2 24  2  7 30.0000000  0 10G16G30G04G05G09G07G20G11G13G06
   1905306.59441   1478309.28745  24762011.323    24762012.2044   24762015.4614
        33.8004         32.9004
 -17414713.09048 -13547152.44548  21187581.954    21187581.7924   21187587.7104
        52.6004         49.8004
   4168770.94742   3261223.94945  24960845.409    24960844.3614   24960847.3944
        34.9004         33.3004
  -1696171.46945  -1306934.04647  22637082.090    22637082.9704   22637086.4864
        45.3004         42.6004
 -10894890.04146  -8465535.15947  22171948.421    22171948.1474   22171953.1064
        48.6004         45.6004
 -16403450.27348 -12757809.26148  21145724.052    21145724.1074   21145726.3894
        52.6004         49.8004
 -12480501.64146  -9710679.64947  20556577.566    20556577.1854   20556580.0924
        47.9004         45.1004
  -8539909.26645  -6638448.59147  22129052.978    22129053.5944   22129057.9844
        44.9004         42.3004
  -1375035.77843   -819975.81246  23464870.471    23464869.4994   23464873.1804
        39.0004         36.7004
   2160381.44045   1693073.54346  23567449.984    23567449.7994   23567455.7094
        44.1004         41.1004
 25  2 24  2  8  0.0000000  0 10G16G30G04G05G09G07G20G11G13G06
   1962274.61441   1522699.89145  24772855.321    24772854.7064   24772857.3594
        34.2004         33.3004
 -17471233.14348 -13591194.02948  21176826.717    21176826.7184   21176832.0974
        52.6004         49.8004
   4266095.75642   3337061.44645  24979366.131    24979366.2054   24979369.2564
        35.0004         33.8004
  -1788933.78845  -1379216.37647  22619430.603    22619431.3244   22619434.4804
        45.8004         43.3004
 -10813245.00446  -8401915.66347  22187483.193    22187484.4634   22187489.8114
        48.4004         45.4004
 -16388592.56148 -12746231.82048  21148551.503    21148551.4624   21148553.8664
        52.6004         49.9004
 -12514577.30446  -9737232.11947  20550093.486    20550092.5274   20550095.4144
        47.9004         45.1004
  -8475030.24045  -6587893.53047  22141400.108    22141400.4944   22141404.2134
        45.5004         42.5004
  -1473386.54743   -896612.68646  23446152.580    23446153.3324   23446157.8994
        39.2004         36.6004
   2266977.06945   1776135.03946  23587734.469    23587734.4224   23587741.0344
        43.9004         41.1004
 25  2 24  2  8 30.0000000  0 10G16G30G04G05G09G07G20G11G13G06
   2019774.96341   1567505.22645  24783796.020    24783797.4734   24783798.3924
        34.3004         33.1004
 -17527304.68448 -13634886.11948  21166156.497    21166156.3414   21166161.8644
        52.6004         49.8004
   4363433.51542   3412909.01345  24997889.943    24997887.6244   24997891.4754
        35.4004         33.8004
  -1881453.52046  -1451309.66947  22601825.027    22601825.4774   22601828.3914
        46.5004         43.9004
 -10731420.01946  -8338155.95247  22203054.847    22203055.1004   22203060.7394
        48.2004         45.2004
 -16373271.89448 -12734293.63248  21151466.738    21151466.9384   21151469.4394
        52.6004         49.9004
 -12548161.80746  -9763401.86847  20543702.750    20543701.9204   20543704.7654
        47.9004         45.1004
  -8409670.17645  -6536963.64746  22153837.258    22153837.6164   22153840.5804
        45.3004         41.9004
  -1571588.15643   -973133.34846  23427465.878    23427465.8744   23427469.8564
        39.0004         36.6004
   2373743.15545   1859329.33446  23608052.676    23608052.6414   23608058.9524
        44.1004         41.2004
 25  2 24  2  9  0.0000000  0  9G16G30G05G09G07G20G11G13G06
   2077805.74641   1612723.86245  24794840.254    24794838.8734   24794842.5834
        34.2004         32.9004
 -17582926.54648 -13678227.81848  21155571.316    21155571.8384   21155577.4244
        52.6004         49.9004
  -1973728.22246  -1523212.03547  22584266.244    22584266.1134   22584269.3384
        47.0004         44.4004
 -10649416.18446  -8274256.88447  22218659.448    22218659.7844   22218665.0974
        48.1004         45.2004
 -16357489.23448 -12721995.45048  21154470.185    21154470.1084   21154472.6224
        52.6004         49.9004
 -12581253.71946  -9789187.77547  20537404.972    20537404.1854   20537407.6424
        47.9004         45.1004
  -8343831.42745  -6485660.75047  22166366.524    22166367.1444   22166369.6664
        45.1004         42.3004
  -1669639.54043  -1049536.95046  23408806.804    23408807.3054   23408812.0894
        38.9004         36.4004
   2480676.75045   1942654.16546  23628399.921    23628400.6674   23628407.4314
        44.1004         41.2004
 25  2 24  2  9 30.0000000  0  9G16G30G05G09G07G20G11G13G06
   2136365.15941   1658354.38145  24805980.830    24805981.2094   24805986.4974
        34.0004         32.7004
 -17638097.56048 -13721218.20148  21145074.069    21145073.5434   21145078.7624
        52.8004         50.1004
  -2065755.76446  -1594921.79547  22566754.012    22566753.8494   22566756.5324
        47.4004         44.7004
 -10567234.51846  -8210219.25747  22234300.582    22234299.9324   22234303.6124
        48.1004         45.2004
 -16341245.38348 -12709337.90448  21157561.325    21157561.4024   21157563.6744
        52.6004         49.8004
 -12613851.36446  -9814588.53947  20531201.921    20531201.1044   20531204.4284
        47.9004         45.1004
  -8277516.39045  -6433986.71946  22178984.387    22178984.7724   22178989.6204
        45.1004         41.9004
  -1767539.77243  -1125822.77746  23390178.397    23390179.0244   23390182.6234
        38.9004         36.6004
   2587774.84145   2026107.17546  23648780.066    23648780.7754   23648786.1624
        43.7004         40.7004
 25  2 24  2 10  0.0000000  0  9G16G30G05G09G07G20G11G13G06
   2195451.01841   1704395.09045  24817226.285    24817226.5354   24817230.6084
        34.0004         32.9004
 -17692816.60248 -13763856.40148  21134661.057    21134660.7304   21134665.9734
        52.9004         50.1004
  -2157533.76346  -1666437.10847  22549288.034    22549289.1834   22549291.7674
        47.7004         44.9004
 -10484875.99246  -8146043.78147  22249970.944    22249970.9864   22249976.4494
        48.2004         45.2004
 -16324541.56248 -12696321.94148  21160740.167    21160740.1254   21160742.0664
        52.6004         49.8004
 -12645952.99146  -9839602.79847  20525093.247    20525092.6394   20525095.3694
        47.9004         45.1004
  -8210727.55045  -6381943.49946  22191695.131    22191695.7654   22191699.2404
        44.8004         41.9004
  -1865287.87543  -1201990.04746  23371575.836    23371577.3364   23371581.7454
        38.7004         36.2004
   2695034.53845   2109686.09646  23669191.816    23669191.6494   23669197.4974
        43.6004         40.6004
 25  2 24  2 10 30.0000000  0  9G16G30G05G09G07G20G11G13G06
   2255061.32341   1750844.48845  24828569.933    24828567.9034   24828571.1524
        34.3004         33.1004
 -17747082.51648 -13806141.51248  21124334.219    21124333.9574   21124339.5014
        52.9004         50.1004
  -2249060.13346  -1737756.33647  22531872.340    22531872.2954   22531874.6944
        47.9004         45.1004
 -10402341.84546  -8081731.48447  22265677.087    22265677.3804   22265682.1544
        48.2004         45.4004
 -16307378.52148 -12682948.14548  21164005.925    21164006.1804   21164007.9934
        52.6004         49.8004
 -12677557.19246  -9864229.44847  20519079.146    20519078.1714   20519081.1584
        47.9004         45.1004
  -8143467.27445  -6329532.92646  22204494.454    22204494.7364   22204497.9424
        44.9004         41.9004
  -1962882.96643  -1278038.12545  23353005.064    23353005.3994   23353009.5734
        38.2004         35.7004
   2802452.86444   2193388.65246  23689631.897    23689631.9574   23689638.7194
        43.0004         40.2004
 25  2 24  2 11  0.0000000  0  9G16G30G05G09G07G20G11G13G06
   2315193.93341   1797700.87445  24840014.682    24840014.0124   24840018.6274
        34.2004         32.9004
 -17800894.20448 -13848072.68848  21114094.086    21114093.9994   21114099.5394
        52.8004         49.9004
  -2340332.15746  -1808877.37347  22514503.353    22514503.5464   22514506.3914
        48.1004         45.4004
 -10319633.01746  -8017283.05447  22281415.138    22281415.1904   22281421.2204
        48.1004         45.1004
 -16289757.06448 -12669217.13748  21167359.235    21167359.1704   21167361.3324
        52.6004         49.6004
 -12708662.49046  -9888467.34047  20513159.775    20513159.0214   20513162.2664
        47.9004         45.1004
  -8075738.00145  -6276756.89446  22217382.425    22217383.4294   22217385.5034
        44.6004         41.6004
  -2060323.93243  -1353966.05345  23334462.767    23334463.7354   23334465.6364
        37.8004         35.5004
   2910026.92944   2277212.54346  23710102.455    23710103.0184   23710109.0544
        43.0004         40.2004
 25  2 24  2 11 30.0000000  0  9G16G30G05G09G07G20G11G13G06
   2375847.00351   1844962.86755  24851553.137    24851551.4274   24851555.6624
        33.1004         31.7004
 -17854250.58448 -13889649.06848  21103940.823    21103940.4614   21103946.0004
        52.8004         49.8004
  -2431347.13946  -1879798.11147  22497184.480    22497184.1454   22497186.9994
        48.2004         45.2004
 -10236750.50846  -7952699.30747  22297187.137    22297187.7964   22297193.1084
        47.9004         45.1004
 -16271678.48547 -12655129.93348  21170798.958    21170799.1554   21170801.6154
        52.4004         49.6004
 -12739267.15246  -9912315.12547  20507335.977    20507335.2044   20507338.4454
        47.9004         45.1004
  -8007542.22045  -6223617.37146  22230359.845    22230360.1254   22230363.2914
        44.6004         41.6004
  -2157610.02642  -1429773.31445  23315948.881    23315949.9614   23315954.0734
        37.5004         35.3004
   3017753.72244   2361155.44746  23730601.061    23730601.8494   23730609.0124
        42.9004         40.0004
 25  2 24  2 12  0.0000000  0  9G16G30G05G09G07G20G11G13G06
   2437018.22551   1892628.58455  24863195.965    24863195.7414   24863202.1034
        33.0004         32.4004
 -17907150.52248 -13930869.77648  21093875.065    21093874.0644   21093879.2384
        52.6004         49.8004
  -2522103.23346  -1950517.11847  22479913.358    22479913.4674   22479916.2554
        48.1004         45.1004
 -10153695.41146  -7887981.06147  22312991.448    22312991.7184   22312997.7664
        47.9004         44.7004
 -16253143.80347 -12640687.31948  21174325.824    21174326.2924   21174328.6964
        52.4004         49.6004
 -12769369.75946  -9935771.70747  20501608.255    20501607.1744   20501610.0644
        47.9004         45.2004
  -7938882.39345  -6170116.22346  22243425.223    22243425.1184   22243429.4754
        44.6004         41.6004
  -2254740.56543  -1505459.40345  23297467.132    23297466.5054   23297469.5614
        37.8004         35.9004
   3125630.32844   2445215.08846  23751129.439    23751130.3294   23751137.0184
        42.7004         40.0004
 25  2 24  2 12 30.0000000  0  9G16G30G05G09G07G20G11G13G06
   2498705.60741   1940696.45645  24874935.331    24874934.8104   24874932.4324
        33.5004         32.4004
 -17959592.98248 -13971734.01648  21083894.495    21083894.6814   21083899.7894
        52.6004         49.8004
  -2612597.92846  -2021032.43647  22462693.178    22462692.5654   22462695.5924
        48.1004         45.2004
 -10070468.71146  -7823129.11247  22328829.802    22328829.6964   22328835.5204
        47.7004         44.7004
 -16234153.93247 -12625890.01548  21177939.942    21177940.0594   21177942.3364
        52.4004         49.6004
 -12798968.97146  -9958836.02647  20495975.546    20495974.6604   20495977.6294
        48.1004         45.2004
  -7869760.99845  -6116255.42346  22256578.877    22256579.4304   22256582.2214
        44.6004         41.4004
  -2351714.05143  -1581023.09846  23279012.599    23279012.2904   23279017.7624
        38.3004         36.2004
   3233653.78644   2529389.16846  23771686.413    23771686.5224   23771695.4124
        42.7004         40.0004
 25  2 24  2 13  0.0000000  0  9G16G30G05G09G07G20G11G13G06
   2560906.67941   1989164.72145  24886773.530    24886773.5944   24886770.4054
        33.3004         32.4004
 -18011576.87848 -14012240.93048  21074003.139    21074002.4344   21074007.7484
        52.6004         49.8004
  -2702829.21146  -2091342.49947  22445522.043    22445522.6734   22445525.2154
        48.2004         45.6004
  -9987071.47046  -7758144.27047  22344700.323    22344700.3154   22344705.4104
        47.7004         44.9004
 -16214709.25948 -12610738.32548  21181640.518    21181640.5214   21181642.7694
        52.6004         49.8004
 -12828062.94746  -9981506.65647  20490439.103    20490438.0134   20490441.3024
        47.9004         45.2004
  -7800180.55845  -6062036.94146  22269820.198    22269820.2644   22269822.7614
        44.2004         41.2004
  -2448529.74743  -1656463.84246  23260589.194    23260589.9494   23260594.0144
        38.7004         36.6004
   3341821.17444   2613675.40446  23792269.004    23792269.7644   23792278.4814
        42.9004         40.0004
 25  2 24  2 13 30.0000000  0  9G16G30G05G09G07G20G11G13G06
   2623619.28141   2038031.56945  24898703.982    24898704.4134   24898707.9594
        33.1004         32.6004
 -18063101.18848 -14052389.72848  21064197.319    21064197.3644   21064203.1564
        52.6004         49.8004
  -2792794.07546  -2161444.97247  22428403.040    22428403.1164   22428405.5784
        48.6004         45.8004
  -9903504.66646  -7693027.29847  22360602.157    22360602.6544   22360607.5144
        47.7004         44.9004
 -16194811.44048 -12595233.53348  21185427.341    21185426.8704   21185429.6534
        52.6004         49.9004
 -12856650.21646 -10003782.45647  20484998.730    20484998.2974   20485001.4234
        48.1004         45.2004
  -7730143.55945  -6007462.68146  22283147.279    22283147.4364   22283150.8094
        44.4004         41.6004
  -2545186.77243  -1731780.95846  23242196.932    23242196.3974   23242200.1924
        39.0004         36.7004
   3450129.56444   2698071.48346  23812878.343    23812880.0124   23812887.2884
        42.5004         39.9004
 25  2 24  2 14  0.0000000  0  9G16G30G05G09G07G20G11G13G06
   2686841.23941   2087295.20245  24910735.216    24910734.4224   24910740.7234
        33.7004         32.7004
 -18114164.85148 -14092179.57848  21054480.293    21054480.2824   21054486.0954
        52.8004         49.9004
  -2882490.20446  -2231338.03547  22411333.961    22411334.6324   22411336.9524
        48.6004         45.8004
  -9819769.34746  -7627779.01347  22376536.678    22376536.7314   22376541.5464
        47.7004         44.9004
 -16174461.47048 -12579376.41448  21189299.254    21189299.3594   21189301.9284
        52.6004         49.9004
 -12884729.66246 -10025662.54447  20479655.034    20479654.7514   20479658.0774
        48.1004         45.2004
  -7659652.57045  -5952534.65846  22296561.017    22296561.1714   22296564.8294
        44.4004         41.4004
  -2641684.16543  -1806973.67846  23223834.016    23223833.8314   23223837.1544
        39.4004         37.1004
   3558576.00644   2782575.14046  23833516.129    23833517.4724   23833524.8704
        42.7004         40.0004
 25  2 24  2 14 30.0000000  0  9G16G30G05G09G07G20G11G13G06
   2750570.89741   2136954.31145  24922863.661    24922863.2884   24922865.8164
        33.5004         32.7004
 -18164766.87748 -14131609.71348  21044850.891    21044850.9004   21044856.8874
        52.8004         49.9004
  -2971915.69046  -2301020.20347  22394317.031    22394317.2694   22394319.8364
        48.8004         45.8004
  -9735866.51546  -7562400.20647  22392503.031    22392502.5854   22392507.7394
        47.7004         44.7004
 -16153660.28448 -12563167.69348  21193257.909    21193257.5554   21193260.3094
        52.6004         49.8004
 -12912299.57746 -10047145.59047  20474408.700    20474408.2954   20474411.5254
        48.1004         45.2004
  -7588710.13945  -5897254.87246  22310060.599    22310061.3484   22310065.5974
        44.6004         41.8004
  -2738020.87343  -1882041.17446  23205502.210    23205501.6414   23205504.0894
        39.4004         36.9004
   3667157.54844   2867184.08846  23854178.570    23854179.6034   23854187.6674
        42.9004         40.0004
 25  2 24  2 15  0.0000000  0  9G16G30G05G09G07G20G11G13G06
   2814805.61141   2187007.23645  24935087.540    24935086.9064   24935086.0024
        33.1004         32.0004
 -18214906.27748 -14170679.35648  21035310.705    21035309.9274   21035315.7034
        52.8004         50.1004
  -3061068.40846  -2370489.83447  22377352.284    22377352.1474   22377354.3664
        48.6004         45.8004
  -9651797.18946  -7496891.64947  22408499.962    22408500.4504   22408506.4634
        47.7004         44.7004
 -16132409.04347 -12546608.28148  21197301.702    21197301.4094   21197304.2784
        52.4004         49.6004
 -12939358.57746 -10068230.52847  20469260.212    20469259.4684   20469262.5194
        48.1004         45.4004
  -7517318.78345  -5841625.28246  22323646.933    22323646.8364   22323650.7134
        44.8004         41.9004
  -2834196.27743  -1956982.97246  23187200.334    23187199.6724   23187203.0644
        39.0004         36.6004
   3775871.29944   2951896.04846  23874866.928    23874867.5494   23874875.4134
        43.0004         40.4004
 25  2 24  2 15 30.0000000  0  9G16G30G05G09G07G20G11G13G06
   2879542.75841   2237451.46045  24947406.062    24947407.5344   24947412.5204
        33.5004         32.6004
 -18264582.01748 -14209387.70348  21025857.193    21025857.1944   21025862.5304
        52.9004         50.3004
  -3149945.21446  -2439744.46747  22360439.568    22360439.4014   22360441.7384
        48.6004         45.8004
  -9567562.34746  -7431254.14247  22424528.784    22424529.5094   22424534.9044
        47.5004         44.5004
 -16110708.65347 -12529698.88748  21201430.704    21201431.0944   21201433.2354
        52.4004         49.6004
 -12965905.08646 -10088916.12147  20464208.660    20464208.1794   20464210.5134
        48.2004         45.4004
  -7445481.10345  -5785647.89846  22337316.254    22337316.9074   22337320.4784
        44.8004         41.9004
  -2930209.24643  -2031798.21146  23168929.139    23168929.3334   23168932.3924
        39.2004         36.7004
   3884714.29544   3036708.72346  23895577.110    23895579.1174   23895587.3834
        43.0004         40.2004
 25  2 24  2 16  0.0000000  0  8G30G05G09G07G20G11G13G06
 -18313793.17848 -14247734.04348  21016493.370    21016492.7654   21016498.0474
        52.9004         50.3004
  -3238543.88446  -2508782.36847  22343579.105    22343579.1514   22343581.6054
        48.6004         45.8004
  -9483163.02146  -7365488.44947  22440591.406    22440590.7344   22440595.6784
        47.4004         44.5004
 -16088560.29747 -12512440.43148  21205645.741    21205645.7754   21205648.0724
        52.4004         49.6004
 -12991937.90546 -10109201.43247  20459254.679    20459254.2064   20459256.5244
        48.2004         45.4004
  -7373199.66345  -5729324.73446  22351070.785    22351071.1784   22351075.5724
        44.8004         41.6004
  -3026058.62243  -2106485.97346  23150688.902    23150689.7654   23150692.9044
        39.2004         36.7004
   3993683.54344   3121619.78246  23916316.129    23916316.1344   23916323.1094
        43.0004         40.4004
 25  2 24  2 16 30.0000000  0  8G30G05G09G07G20G11G13G06
 -18362538.75248 -14285717.59448  21007216.797    21007216.7234   21007222.0514
        53.1004         50.3004
  -3326862.61446  -2577602.13847  22326772.862    22326772.9204   22326775.0994
        48.8004         45.9004
  -9398600.22946  -7299595.38547  22456681.080    22456682.2234   22456687.3854
        47.2004         44.4004
 -16065965.06947 -12494833.76148  21209945.534    21209945.4604   21209947.8724
        52.4004         49.6004
 -13017455.41246 -10129085.20047  20454398.591    20454397.9994   20454400.7954
        48.1004         45.2004
  -7300477.08645  -5672657.82646  22364909.929    22364909.8724   22364913.2834
        44.4004         41.6004
  -3121743.86143  -2181045.82946  23132481.365    23132481.2624   23132485.1634
        38.9004         36.6004
   4102776.19144   3206626.99046  23937076.355    23937076.4004   23937083.2684
        43.2004         40.4004
 25  2 24  2 17  0.0000000  0  8G30G05G09G07G20G11G13G06
 -18410817.85148 -14323337.66048  20998029.754    20998029.2024   20998034.7154
        52.9004         50.1004
  -3414898.80646  -2646201.74047  22310020.106    22310019.9724   22310022.6074
        48.8004         45.9004
  -9313874.93446  -7233575.70047  22472805.188    22472805.0234   22472810.3754
        47.2004         44.4004
 -16042923.97847 -12476879.66848  21214329.751    21214329.9004   21214332.3214
        52.4004         49.4004
 -13042456.40246 -10148566.49847  20449641.420    20449640.6144   20449643.1284
        48.1004         45.2004
  -7227315.96045  -5615649.19846  22378832.506    22378832.2014   22378835.5684
        44.4004         41.4004
  -3217263.76443  -2255476.85846  23114304.617    23114303.2734   23114308.7524
        38.5004         36.0004
   4211989.29944   3291728.06646  23957856.520    23957858.0184   23957865.4424
        43.0004         40.2004
 25  2 24  2 17 30.0000000  0  8G30G05G09G07G20G11G13G06
 -18458629.53148 -14360593.49848  20988931.172    20988931.0304   20988936.3304
        52.9004         50.1004
  -3502649.96046  -2714579.24047  22293321.349    22293321.6044   22293324.1544
        48.9004         46.1004
  -9228988.11346  -7167430.13947  22488957.821    22488958.4404   22488964.0594
        47.2004         44.4004
 -16019438.19647 -12458579.06048  21218798.809    21218798.9404   21218801.5504
        52.2004         49.4004
 -13066939.39146 -10167644.15347  20444982.286    20444981.8434   20444984.4384
        48.2004         45.4004
  -7153718.89545  -5558300.86646  22392837.121    22392837.3724   22392840.7324
        44.1004         41.1004
  -3312617.42243  -2329778.31845  23096158.701    23096158.8994   23096162.2034
        38.2004         35.7004
   4321319.97644   3376920.74046  23978663.649    23978663.9784   23978670.3704
        43.0004         40.2004
 25  2 24  2 18  0.0000000  0  8G30G05G09G07G20G11G13G06
 -18505972.83848 -14397484.37248  20979921.953    20979921.7994   20979926.9434
        52.9004         50.1004
  -3590113.34546  -2782732.50947  22276677.761    22276677.7974   22276680.1214
        49.1004         46.3004
  -9143940.78446  -7101159.53147  22505144.179    22505143.5664   22505147.6234
        47.4004         44.4004
 -15995508.81047 -12439932.78748  21223352.125    21223352.2964   21223355.0844
        52.2004         49.4004
 -13090902.94546 -10186317.04547  20440421.783    20440421.6084   20440424.5514
        48.2004         45.4004
  -7079688.53645  -5500614.90546  22406924.477    22406925.4304   22406929.1874
        43.9004         41.1004
  -3407803.93343  -2403949.56046  23078045.843    23078045.7444   23078049.7304
        38.2004         36.0004
   4430765.19944   3462202.66346  23999489.333    23999490.2284   23999497.3954
        43.0004         40.4004
 25  2 24  2 18 30.0000000  0  8G30G05G09G07G20G11G13G06
 -18552846.93748 -14434009.62948  20971001.713    20971001.4834   20971007.2764
        52.8004         49.9004
  -3677287.34846  -2850660.28347  22260088.917    22260088.8204   22260091.9324
        49.1004         46.3004
  -9058733.96046  -7034764.61447  22521357.360    22521357.6894   22521362.5974
        47.4004         44.4004
 -15971137.13347 -12420941.87048  21227990.109    21227990.3354   21227992.8544
        52.2004         49.4004
 -13114345.84046 -10204584.24247  20435961.620    20435960.6934   20435963.3544
        48.4004         45.6004
  -7005227.51945  -5442593.37546  22421093.645    22421094.4944   22421098.0234
        43.9004         41.1004
  -3502822.61743  -2477990.03746  23059964.285    23059963.2334   23059968.0204
        38.5004         36.2004
   4540322.09144   3547571.63446  24020337.758    24020338.2294   24020345.7264
        43.2004         40.6004
 25  2 24  2 19  0.0000000  0  8G30G05G09G07G20G11G13G06
 -18599250.92548 -14470168.56448  20962171.661    20962171.1454   20962176.9064
        52.8004         50.1004
  -3764169.08346  -2918360.32647  22243555.435    22243556.1814   22243558.3144
        49.1004         46.1004
  -8973368.58646  -6968246.15747  22537601.240    22537602.2844   22537606.7534
        47.4004         44.5004
 -15946324.35947 -12401607.24448  21232711.538    21232712.1444   21232714.6614
        52.2004         49.4004
 -13137266.70846 -10222444.65547  20431599.620    20431599.0694   20431601.7254
        48.4004         45.6004
  -6930338.53745  -5384238.35046  22435344.875    22435344.9624   22435348.5504
        43.7004         40.7004
  -3597672.09043  -2551898.66646  23041914.224    23041913.5004   23041918.3584
        38.7004         36.4004
   4649987.77944   3633025.35446  24041208.258    24041207.8734   24041213.8034
        43.4004         40.7004
 25  2 24  2 19 30.0000000  0  8G30G05G09G07G20G11G13G06
 -18645183.90548 -14505960.47548  20953431.106    20953431.0374   20953436.1374
        52.9004         50.3004
  -3850755.77746  -2985830.47047  22227078.525    22227079.0954   22227081.8134
        49.1004         46.1004
  -8887845.67146  -6901604.94547  22553876.478    22553876.6424   22553880.8854
        47.4004         44.4004
 -15921071.32347 -12381929.55848  21237517.640    21237517.6424   21237519.9974
        52.2004         49.4004
 -13159664.19246 -10239897.25347  20427337.213    20427336.7644   20427340.0144
        48.4004         45.6004
  -6855024.21645  -5325551.92746  22449677.255    22449677.3834   22449681.1954
        43.6004         40.7004
  -3692351.75143  -2625674.94246  23023897.210    23023897.5494   23023900.9034
        38.7004         36.6004
   4759759.23844   3718561.50146  24062093.675    24062095.4514   24062101.9654
        43.4004         40.6004
 25  2 24  2 20  0.0000000  0  8G30G05G09G07G20G11G13G06
 -18690645.04548 -14541384.72548  20944780.457    20944780.0984   20944785.1514
        53.1004         50.5004
  -3937045.45746  -3053069.16547  22210657.649    22210658.8704   22210660.8994
        48.9004         46.1004
  -8802166.15946  -6834841.71547  22570180.980    22570181.0574   22570185.8154
        47.2004         44.2004
 -15895379.45747 -12361909.92148  21242406.221    21242406.4474   21242408.9564
        52.2004         49.2004
 -13181537.08546 -10256941.06547  20423174.845    20423174.5864   20423177.3754
        48.4004         45.6004
  -6779287.28545  -5266536.17046  22464089.083    22464089.3994   22464093.2164
        43.7004         40.9004
  -3786860.52443  -2699318.08346  23005912.928    23005912.2854   23005916.5794
        39.0004         36.9004
   4869633.66145   3804177.88046  24083005.240    24083004.8644   24083010.7334
        43.6004         40.7004
 25  2 24  2 20 30.0000000  0  8G30G05G09G07G20G11G13G06
 -18735633.52248 -14576440.67348  20936219.362    20936219.0974   20936224.0904
        53.3004         50.5004
  -4023035.88346  -3120074.67647  22194295.251    22194295.3024   22194297.9764
        49.1004         46.1004
  -8716331.06646  -6767957.22447  22586514.529    22586514.8914   22586519.5004
        47.0004         44.2004
 -15869249.96447 -12341549.27748  21247378.838    21247378.8814   21247381.1944
        52.1004         49.2004
 -13202884.05046 -10273575.06647  20419112.875    20419112.2694   20419115.3154
        48.4004         45.6004
  -6703130.40745  -5207193.18146  22478582.210    22478581.9754   22478585.2624
        43.9004         41.1004
  -3881197.47643  -2772827.33146  22987960.408    22987960.4984   22987964.4394
        39.4004         37.1004
   4979608.04544   3889872.14046  24103931.046    24103931.4534   24103937.4864
        43.4004         40.7004
 25  2 24  2 21  0.0000000  0  8G30G05G09G07G20G11G13G06
 -18780148.50848 -14611127.66448  20927748.273    20927748.0234   20927753.2944
        53.3004         50.3004
  -4108723.87646  -3186844.51747  22177988.981    22177989.4534   22177992.3184
        48.9004         46.1004
  -8630341.30546  -6700952.26047  22602879.799    22602878.5494   22602883.0444
        47.0004         44.2004
 -15842683.76447 -12320848.34148  21252434.372    21252434.1564   21252436.6414
        52.1004         49.2004
 -13223703.91946 -10289798.34447  20415150.779    20415150.3964   20415153.2964
        48.4004         45.6004
  -6626556.28445  -5147525.07146  22493153.326    22493153.4474   22493156.1574
        43.9004         40.7004
  -3975361.58843  -2846201.91646  22970042.083    22970041.9874   22970045.6514
        39.7004         37.3004
   5089679.57544   3975642.12346  24124876.604    24124877.3344   24124883.8634
        43.4004         40.6004
 25  2 24  2 21 30.0000000  0  8G30G05G09G07G20G11G13G06
 -18824189.22148 -14645445.08748  20919367.314    20919367.0994   20919372.7094
        53.1004         50.3004
  -4194107.51346  -3253377.20547  22161740.606    22161741.3004   22161743.9854
        49.1004         46.3004
  -8544197.90146  -6633827.54447  22619270.256    22619271.0734   22619275.7814
        47.0004         44.2004
 -15815682.13547 -12299808.11848  21257572.092    21257572.4994   21257574.8304
        52.1004         49.2004
 -13243994.99746 -10305609.57247  20411289.883    20411289.0194   20411291.7664
        48.4004         45.6004
  -6549567.64345  -5087533.95846  22507803.421    22507804.2154   22507807.4254
        43.7004         40.9004
  -4069352.15943  -2919441.26146  22952156.130    22952156.1894   22952159.6664
        39.9004         37.4004
   5199845.28744   4061485.46746  24145840.165    24145841.7124   24145847.6114
        43.4004         40.4004
 25  2 24  2 22  0.0000000  0  8G30G05G09G07G20G11G13G06
 -18867754.82848 -14679392.30148  20911076.390    20911076.5174   20911082.5014
        53.1004         50.3004
  -4279184.98146  -3319671.32347  22145551.448    22145551.6164   22145554.2964
        49.1004         46.3004
  -8457901.76646  -6566583.83147  22635693.410    22635692.9224   22635696.5004
        46.9004         43.9004
 -15788246.54147 -12278429.72848  21262793.886    21262793.5374   21262795.5064
        52.1004         49.2004
 -13263756.40846 -10321008.08247  20407529.298    20407528.4724   20407531.4044
        48.4004         45.6004
  -6472167.22745  -5027221.98146  22522532.288    22522532.8504   22522536.3114
        43.7004         40.9004
  -4163168.25243  -2992544.61846  22934304.283    22934303.5884   22934307.7264
        40.1004         37.8004
   5310102.24444   4147399.94046  24166822.200    24166822.4874   24166829.0784
        43.2004         40.4004
 25  2 24  2 22 30.0000000  0  8G30G05G09G07G20G11G13G06
 -18910844.59148 -14712968.72548  20902877.140    20902876.9894   20902882.7074
        53.1004         50.3004
  -4363953.46546  -3385724.66547  22129419.923    22129420.4944   22129423.5504
        49.3004         46.5004
  -8371453.87646  -6499221.86747  22652142.940    22652142.5324   22652147.7284
        46.9004         43.9004
 -15760377.81047 -12256713.83648  21268096.470    21268096.6644   21268098.9114
        52.1004         49.2004
 -13282987.09146 -10335993.03047  20403869.688    20403868.9364   20403872.0394
        48.4004         45.6004
  -6394357.73245  -4966591.24646  22537339.366    22537340.4504   22537343.2834
        43.7004         40.9004
  -4256808.66843  -3065511.09446  22916484.159    22916484.1424   22916488.8234
        40.3004         37.8004
   5420447.62744   4233383.28346  24187820.833    24187821.5414   24187827.5754
        43.2004         40.4004
 25  2 24  2 23  0.0000000  0  8G30G05G09G07G20G11G13G06
 -18953457.70948 -14746173.73448  20894768.239    20894768.2004   20894773.7894
        53.1004         50.3004
  -4448410.61546  -3451535.40047  22113349.007    22113348.6504   22113351.7034
        49.3004         46.5004
  -8284855.19946  -6431742.39547  22668621.985    22668621.9514   22668626.5674
        46.7004         43.5004
 -15732077.30047 -12234661.49748  21273482.429    21273482.4074   21273484.2614
        52.1004         49.2004
 -13301685.55446 -10350563.25747  20400311.634    20400311.0024   20400314.0454
        48.4004         45.6004
  -6316141.94445  -4905643.92146  22552224.397    22552223.4764   22552227.3514
        43.7004         40.7004
  -4350272.69543  -3138340.14846  22898698.270    22898699.0764   22898703.4694
        40.3004         37.6004
   5530878.44644   4319433.23346  24208835.112    24208835.0424   24208842.4254
        43.0004         40.2004
 25  2 24  2 23 30.0000000  0  8G30G05G09G07G20G11G13G06
 -18995593.49348 -14779006.79348  20886749.961    20886749.8694   20886755.6754
        53.1004         50.3004
  -4532553.51246  -3517101.26347  22097336.339    22097336.7914   22097339.9104
        49.3004         46.5004
  -8198106.67145  -6364146.15647  22685129.168    22685129.4014   22685133.9324
        46.3004         43.5004
 -15703346.45247 -12212273.82148  21278949.743    21278949.5414   21278951.5524
        52.1004         49.2004
 -13319850.31946 -10364717.62347  20396854.837    20396854.3984   20396857.2294
        48.4004         45.6004
  -6237522.61745  -4844382.13446  22567183.670    22567183.4024   22567188.2364
        43.6004         40.7004
  -4443559.62743  -3211031.19146  22880947.595    22880947.1154   22880950.5484
        40.1004         37.6004
   5641391.88744   4405547.55846  24229865.828    24229866.5174   24229872.4354
        43.0004         40.4004
 25  2 24  2 24  0.0000000  0  8G30G05G09G07G20G11G13G06
 -19037251.14848 -14811467.28848  20878822.427    20878822.5504   20878828.3504
        53.1004         50.5004
  -4616379.72546  -3582420.37447  22081385.695    22081386.1094   22081388.2284
        49.5004         46.6004
  -8111209.25146  -6296433.90747  22701666.427    22701665.8954   22701671.3784
        46.7004         43.9004
 -15674186.54047 -12189551.81748  21284498.238    21284498.3454   21284500.5134
        52.1004         49.2004
 -13337480.84246 -10378455.69647  20393499.874    20393499.1044   20393502.3264
        48.4004         45.6004
  -6158502.50044  -4782808.06646  22582221.761    22582221.5824   22582224.3444
        43.4004         40.4004
  -4536668.09843  -3283583.18446  22863229.409    22863229.6294   22863231.9404
        39.9004         37.4004
   5751985.01544   4491723.94646  24250910.274    24250911.0554   24250918.5294
        43.2004         40.4004
 25  2 24  2 24 30.0000000  0  8G30G05G09G07G20G11G13G06
 -19078430.00448 -14843554.70048  20870986.903    20870986.6764   20870992.1294
        53.3004         50.5004
  -4699887.83146  -3647491.61747  22065494.704    22065495.0384   22065497.0304
        49.5004         46.6004
  -8024163.87745  -6228606.37747  22718228.860    22718229.1164   22718233.8244
        46.3004         43.3004
 -15644598.66147 -12166496.32748  21290128.671    21290128.5144   21290130.9054
        52.1004         49.2004
 -13354575.67746 -10391776.35347  20390247.014    20390246.3694   20390249.0924
        48.4004         45.6004
  -6079084.38444  -4720923.86246  22597334.160    22597334.5004   22597337.1314
        43.4004         40.4004
  -4629597.31343  -3355995.48546  22845545.723    22845545.4684   22845547.6584
        39.9004         37.4004
   5862654.92744   4577960.19246  24271970.165    24271970.2924   24271978.3704
        43.2004         40.6004
 25  2 24  2 25  0.0000000  0  8G30G05G09G07G20G11G13G06
 -19119129.34448 -14875268.46548  20863242.120    20863242.1184   20863247.0724
        53.3004         50.6004
  -4783074.27547  -3712312.21247  22049664.120    22049665.0664   22049667.2664
        49.6004         46.8004
  -7936971.55145  -6160664.31947  22734821.801    22734821.7544   22734827.0064
        46.3004         43.3004
 -15614584.09547 -12143108.35148  21295840.095    21295840.3084   21295842.4974
        52.1004         49.2004
 -13371133.62046 -10404678.65547  20387096.274    20387095.3124   20387098.6704
        48.4004         45.6004
  -5999271.11944  -4658731.73446  22612520.941    22612522.3884   22612525.9444
        43.2004         40.4004
  -4722346.72143  -3428267.68646  22827896.149    22827895.9114   22827898.6044
        39.7004         37.1004
   5973398.78544   4664254.05346  24293044.882    24293044.2144   24293052.3014
        43.2004         40.4004
 25  2 24  2 25 30.0000000  0  8G30G05G09G07G20G11G13G06
 -19159348.49448 -14906608.04848  20855588.859    20855588.3554   20855593.7154
        53.3004         50.5004
  -4865937.18747  -3776880.70047  22033896.565    22033896.7954   22033898.9954
        49.8004         47.0004
  -7849633.12045  -6092608.45547  22751442.611    22751442.2654   22751446.9494
        46.3004         43.3004
 -15584144.08947 -12119388.86448  21301633.282    21301633.0304   21301635.1444
        52.1004         49.2004
 -13387153.60246 -10417161.75747  20384047.272    20384046.7634   20384049.9794
        48.4004         45.6004
  -5919065.37544  -4596233.80046  22627784.497    22627785.0034   22627788.5264
        43.2004         40.4004
  -4814914.88643  -3500398.68546  22810279.781    22810279.5734   22810283.5234
        39.4004         36.9004
   6084213.65544   4750603.23646  24314130.890    24314131.1994   24314139.1974
        43.4004         40.6004
 25  2 24  2 26  0.0000000  0  8G30G05G09G07G20G11G13G06
 -19199086.77448 -14937572.93648  20848026.595    20848026.4044   20848031.8324
        53.3004         50.5004
  -4948473.91947  -3841195.01547  22018189.595    22018190.1804   22018192.5094
        49.8004         47.0004
  -7762149.56345  -6024439.45947  22768088.468    22768089.0494   22768093.9944
        46.2004         43.3004
 -15553279.94547 -12095338.88348  21307506.044    21307506.1344   21307508.8194
        52.2004         49.2004
 -13402634.47146 -10429224.77647  20381102.073    20381101.0494   20381104.0664
        48.4004         45.6004
  -5838470.02844  -4533432.27746  22643121.303    22643120.9614   22643126.0694
        43.2004         40.4004
  -4907301.12343  -3572387.91646  22792699.266    22792699.3994   22792702.8634
        39.4004         37.1004
   6195096.67544   4837005.55646  24335230.844    24335230.9094   24335239.8104
        43.4004         40.6004
 25  2 24  2 26 30.0000000  0  8G30G05G09G07G20G11G13G06
 -19238343.56248 -14968162.62548  20840556.192    20840556.2154   20840561.6374
        53.3004         50.5004
  -5030682.35147  -3905253.52447  22002546.500    22002546.2274   22002549.0754
        49.8004         46.8004
  -7674521.84245  -5956158.16547  22784764.893    22784764.9324   22784770.8304
        46.2004         43.5004
 -15521992.97347 -12070959.42948  21313460.202    21313459.9114   21313462.2924
        52.2004         49.2004
 -13417575.22046 -10440866.92247  20378258.600    20378257.9244   20378260.8154
        48.2004         45.4004
  -5757487.88044  -4470329.35246  22658531.706    22658531.7544   22658536.2944
        43.2004         40.4004
  -4999504.49943  -3644234.64046  22775153.223    22775153.7284   22775156.9374
        39.4004         37.1004
   6306045.01744   4923458.74646  24356341.961    24356343.5194   24356352.4074
        43.2004         40.4004
 25  2 24  2 27  0.0000000  0  8G30G05G09G07G20G11G13G06
 -19277118.20648 -14998376.61548  20833177.692    20833177.5164   20833183.1004
        53.3004         50.6004
  -5112560.16947  -3969054.39347  21986965.672    21986965.4724   21986968.1294
        49.6004         46.8004
  -7586750.86645  -5887765.21047  22801466.285    22801466.1324   22801471.9864
        46.2004         43.2004
 -15490284.63547 -12046251.63148  21319493.794    21319493.5824   21319495.6974
        52.1004         49.2004
 -13431974.63546 -10452087.25147  20375518.738    20375517.9314   20375520.4294
        48.2004         45.6004
  -5676121.82444  -4406927.29646  22674015.520    22674015.1604   22674019.6414
        43.2004         40.4004
  -5091523.92043  -3715938.01546  22757643.367    22757642.7414   22757646.9374
        39.7004         37.3004
   6417055.72844   5009960.53446  24377469.120    24377469.3364   24377476.9984
        43.4004         40.7004
 25  2 24  2 27 30.0000000  0  8G30G05G09G07G20G11G13G06
 -19315410.09548 -15028214.43748  20825890.562    20825890.5934   20825896.3184
        53.3004         50.6004
  -5194104.44647  -4032595.36447  21971447.656    21971448.1914   21971450.6694
        49.6004         46.8004
  -7498837.50145  -5819261.32247  22818196.741    22818196.5134   22818201.6554
        46.0004         43.2004
 -15458155.78347 -12021216.15848  21325607.649    21325607.4554   21325609.8404
        52.1004         49.1004
 -13445831.90346 -10462885.13147  20372881.444    20372880.7454   20372883.6394
        48.2004         45.4004
  -5594374.64944  -4343228.23946  22689570.556    22689571.1274   22689575.3424
        43.2004         40.4004
  -5183358.41743  -3787497.32146  22740167.526    22740167.2444   22740170.3964
        39.7004         37.3004
   6528125.95644   5096508.69446  24398607.198    24398607.0654   24398613.5004
        43.2004         40.4004
 25  2 24  2 28  0.0000000  0  8G30G05G09G07G20G11G13G06
 -19353218.60748 -15057675.60348  20818696.312    20818696.1854   20818701.4344
        53.3004         50.6004
  -5275312.90247  -4095874.66047  21955994.929    21955994.6744   21955997.1774
        49.6004         46.6004
  -7410782.77245  -5750647.27547  22834950.364    22834951.5484   22834958.3884
        46.0004         43.2004
 -15425608.53247 -11995854.66648  21331800.563    21331800.8434   21331803.4404
        51.9004         49.1004
 -13459145.56046 -10473259.41747  20370348.137    20370347.4544   20370350.1144
        48.2004         45.6004
  -5512249.18445  -4279234.41546  22705199.370    22705199.6114   22705203.5024
        43.6004         40.7004
  -5275007.59743  -3858912.21846  22722727.219    22722727.8984   22722729.7534
        39.7004         37.3004
   6639252.83644   5183101.00646  24419752.906    24419753.0934   24419758.7734
        43.0004         40.0004
 25  2 24  2 28 30.0000000  0  8G30G05G09G07G20G11G13G06
 -19390543.16248 -15086759.66148  20811594.147    20811593.7214   20811598.7574
        53.5004         50.8004
  -5356183.42847  -4158890.64147  21940605.440    21940605.5614   21940607.6524
        49.8004         46.8004
  -7322587.53845  -5681923.75947  22851734.589    22851734.9744   22851740.6124
        45.8004         43.0004
 -15392643.41747 -11970167.56248  21338073.828    21338074.0744   21338076.5324
        51.9004         49.1004
 -13471914.72846 -10483209.42447  20367917.931    20367917.1884   20367920.3414
        48.2004         45.4004
  -5429748.31144  -4214948.06646  22720899.140    22720898.6314   22720902.3554
        43.4004         40.4004
  -5366470.21543  -3930181.73546  22705322.939    22705322.9634   22705325.7184
        39.7004         37.4004
   6750433.49144   5269735.22846  24440907.911    24440909.8934   24440917.0444
        42.7004         39.7004
 25  2 24  2 29  0.0000000  0  8G30G05G09G07G20G11G13G06
 -19427383.14848 -15115466.13348  20804583.381    20804583.2804   20804588.5874
        53.6004         50.8004
  -5436713.13147  -4221641.05447  21925281.188    21925281.0444   21925283.6024
        50.0004         47.2004
  -7234252.72345  -5613091.45047  22868543.372    22868544.2264   22868549.8224
        45.6004         42.8004
 -15359262.07947 -11944156.13248  21344426.501    21344426.3354   21344428.5004
        51.9004         49.1004
 -13484138.54946 -10492734.48747  20365591.870    20365591.3974   20365594.1434
        48.2004         45.6004
  -5346874.89044  -4150371.40846  22736669.863    22736670.0104   22736672.8524
        43.2004         40.4004
  -5457745.19043  -4001305.02046  22687953.470    22687953.1304   22687956.4054
        39.6004         37.1004
   6861665.15544   5356409.19946  24462075.791    24462076.5374   24462085.1394
        42.3004         39.5004
 25  2 24  2 29 30.0000000  0  8G30G05G09G07G20G11G13G06
 -19463738.08848 -15143794.64448  20797665.728    20797665.2404   20797670.4424
        53.6004         50.8004
  -5516899.62147  -4284124.03147  21910021.984    21910022.5574   21910024.7234
        50.2004         47.3004
  -7145779.24545  -5544151.13347  22885382.179    22885380.9424   22885385.8364
        45.6004         42.6004
 -15325465.89947 -11917821.44548  21350857.271    21350857.5324   21350859.8794
        51.9004         49.1004
 -13495816.07746 -10501833.86347  20363369.819    20363369.0914   20363372.0944
        48.2004         45.4004
  -5263631.77744  -4085506.67946  22752509.212    22752509.9344   22752513.8704
        43.2004         40.2004
  -5548832.00443  -4072281.67746  22670619.536    22670619.4864   22670623.2304
        39.4004         37.1004
   6972944.86344   5443120.60746  24483251.023    24483251.8774   24483258.5624
        42.0004         39.2004
 25  2 24  2 30  0.0000000  0  8G30G05G09G07G20G11G13G06
 -19499607.38748 -15171744.73448  20790839.712    20790839.2984   20790844.5894
        53.5004         50.8004
  -5596740.87847  -4346337.98547  21894829.071    21894829.2294   21894831.6964
        50.3004         47.5004
  -7057168.02745  -5475103.44547  22902243.734    22902243.2364   22902247.5694
        45.5004         42.6004
 -15291256.60547 -11891164.85548  21357367.732    21357367.6124   21357369.9054
        51.9004         49.1004
 -13506946.17446 -10510506.66847  20361251.481    20361251.1154   20361254.0734
        48.2004         45.4004
  -5180021.87244  -4020356.12446  22768419.795    22768420.2814   22768424.6674
        42.9004         40.0004
  -5639729.53843  -4143110.86646  22653322.094    22653320.8364   22653325.6364
        39.6004         36.9004
   7084269.83744   5529867.27946  24504438.702    24504437.3614   24504441.7354
        41.5004         38.8004
 25  2 24  2 30 30.0000000  0  8G30G05G09G07G20G11G13G06
 -19534990.51448 -15199315.98748  20784106.026    20784105.7544   20784111.3244
        53.5004         50.6004
  -5676234.36547  -4408280.94847  21879702.296    21879702.1434   21879704.4984
        50.5004         47.7004
  -6968419.98445  -5405949.15147  22919129.638    22919130.9434   22919136.2854
        45.5004         42.5004
 -15256635.26847 -11864187.18848  21363956.145    21363955.6934   21363958.2004
        51.9004         49.1004
 -13517527.82046 -10518752.11047  20359238.430    20359237.5404   20359240.1564
        48.2004         45.4004
  -5096048.01944  -3954921.98846  22784399.722    22784400.1144   22784404.6284
        42.9004         39.9004
  -5730436.69243  -4213791.71746  22636061.125    22636061.4844   22636064.8634
        39.9004         37.6004
   7195637.22944   5616646.98046  24525629.638    24525629.6214   24525634.0764
        41.1004         38.3004
 25  2 24  2 31  0.0000000  0  8G30G05G09G07G20G11G13G06
 -19569887.00248 -15226508.04348  20777464.860    20777464.9404   20777470.6544
        53.3004         50.6004
  -5755377.45947  -4469950.87847  21864641.463    21864641.1854   21864643.9774
        50.5004         47.5004
  -6879535.99445  -5336688.92847  22936045.128    22936045.4214   22936050.6074
        45.5004         42.6004
 -15221602.94047 -11836889.26848  21370621.863    21370621.9314   21370624.5464
        51.9004         49.1004
 -13527560.32546 -10526569.64747  20357328.755    20357328.1314   20357331.0614
        48.1004         45.2004
  -5011713.15744  -3889206.55146  22800447.768    22800448.6014   22800451.5454
        42.7004         39.9004
  -5820952.70343  -4284323.61646  22618837.177    22618837.8004   22618839.8714
        40.1004         37.8004
   7307044.11844   5703457.50146  24546828.107    24546829.0424   24546834.7854
        40.9004         38.3004
 25  2 24  2 31 30.0000000  0  8G30G05G09G07G20G11G13G06
 -19604296.31048 -15253320.47748  20770917.714    20770917.3044   20770922.8944
        53.3004         50.6004
  -5834168.30047  -4531346.32847  21849647.857    21849648.1584   21849650.3984
        50.3004         47.3004
  -6790517.00245  -5267323.50047  22952984.656    22952985.2204   22952990.8424
        45.6004         42.8004
 -15186161.24847 -11809272.36548  21377366.418    21377366.5354   21377369.3384
        52.1004         49.2004
 -13537042.48246 -10533958.34547  20355524.705    20355523.6784   20355526.8514
        48.1004         45.2004
  -4927020.19244  -3823212.08646  22816565.273    22816565.6874   22816568.6604
        42.9004         40.2004
  -5911276.54243  -4354705.78346  22601649.103    22601649.7224   22601652.4084
        40.3004         37.6004
   7418487.79044   5790296.65646  24568035.964    24568036.7494   24568043.0234
        40.9004         38.5004
 25  2 24  2 32  0.0000000  0  8G30G05G09G07G20G11G13G06
 -19638217.98248 -15279752.93648  20764462.771    20764462.2914   20764467.8324
        53.5004         50.8004
  -5912603.66947  -4592464.79547  21834722.366    21834722.1444   21834724.5374
        50.3004         47.3004
  -6701363.85845  -5197853.56847  22969952.081    22969951.2914   22969955.7794
        45.8004         43.2004
 -15150311.72047 -11781337.66748  21384187.979    21384188.1844   21384191.1504
        52.1004         49.2004
 -13545973.52946 -10540917.60947  20353824.797    20353824.4674   20353827.3344
        48.1004         45.2004
  -4841972.01044  -3756940.81446  22832748.752    22832749.0464   22832753.8494
        43.0004         40.2004
  -6001407.28943  -4424937.47646  22584497.736    22584498.3814   22584500.2324
        39.9004         37.3004
   7529965.27744   5877162.17146  24589248.988    24589249.2434   24589258.1504
        41.1004         38.6004
 25  2 24  2 32 30.0000000  0  8G30G05G09G07G20G11G13G06
 -19671651.52548 -15305805.03848  20758100.139    20758100.3874   20758105.5624
        53.5004         50.8004
  -5990681.19447  -4653304.41747  21819864.260    21819864.7004   21819867.2894
        50.3004         47.5004
  -6612077.46145  -5128279.78947  22986942.294    22986941.6014   22986946.5704
        45.8004         43.0004
 -15114055.71747 -11753086.23748  21391087.395    21391087.7644   21391090.6264
        52.1004         49.2004
 -13554352.44846 -10547446.64447  20352230.733    20352229.9474   20352232.9114
        48.1004         45.2004
  -4756571.54144  -3690395.05346  22848999.540    22848999.9184   22849004.3704
        43.2004         40.2004
  -6091344.18743  -4495018.13546  22567383.623    22567383.5164   22567385.3594
        39.7004         37.1004
   7641473.85844   5964051.91946  24610468.622    24610469.3854   24610477.1064
        41.3004         38.6004
 25  2 24  2 33  0.0000000  0  8G30G05G09G07G20G11G13G06
 -19704596.53148 -15331476.45748  20751831.120    20751830.9884   20751836.2214
        53.5004         50.8004
  -6068398.74047  -4713863.54147  21805075.516    21805075.7824   21805077.9444
        50.5004         47.7004
  -6522658.72945  -5058602.89047  23003958.948    23003958.4114   23003962.6374
        46.0004         43.2004
 -15077394.68147 -11724519.19448  21398063.849    21398064.1874   21398066.7454
        52.1004         49.2004
 -13562178.67846 -10553545.00847  20350741.257    20350740.5084   20350743.8454
        48.1004         45.2004
  -4670821.70144  -3623577.04946  22865317.802    22865317.5174   22865321.8754
        43.0004         40.2004
  -6181086.39343  -4564947.09146  22550305.553    22550305.9804   22550308.6634
        39.7004         37.3004
   7753010.58844   6050963.58746  24631694.405    24631694.4504   24631700.1594
        41.1004         38.3004
 25  2 24  2 33 30.0000000  0  8G30G05G09G07G20G11G13G06
 -19737052.55848 -15356766.85148  20745655.149    20745654.6594   20745660.2424
        53.5004         50.8004
  -6145753.76347  -4774140.17247  21790355.111    21790355.4194   21790357.4994
        50.5004         47.5004
  -6433108.55745  -4988823.56847  23020997.118    23020998.2724   23021002.1714
        45.8004         42.8004
 -15040329.87047 -11695637.52648  21405117.888    21405117.5074   21405119.7734
        52.1004         49.2004
 -13569451.12346 -10559211.85547  20349356.937    20349356.5094   20349359.6974
        48.1004         45.2004
  -4584725.47844  -3556489.12946  22881701.180    22881701.2274   22881705.9474
        43.0004         40.2004
  -6270632.85343  -4634723.49446  22533264.961    22533265.5284   22533268.3544
        39.9004         37.6004
   7864572.71644   6137895.03646  24652922.477    24652923.1344   24652930.5054
        40.9004         38.3004
 25  2 24  2 34  0.0000000  0  8G30G05G09G07G20G11G13G06
 -19769019.19748 -15381675.90648  20739571.811    20739571.5864   20739577.2244
        53.5004         50.8004
  -6222743.77247  -4834132.38647  21775703.995    21775704.6114   21775707.0204
        50.5004         47.7004
  -6343427.78845  -4918942.48147  23038064.771    23038064.2084   23038069.3234
        45.6004         42.8004
 -15002862.65047 -11666442.28448  21412247.494    21412247.3754   21412249.7304
        52.1004         49.2004
 -13576168.97546 -10564446.54747  20348078.728    20348078.0384   20348081.5124
        48.1004         45.2004
  -4498285.76044  -3489133.53846  22898149.430    22898150.3514   22898154.1364
        43.0004         40.0004
  -6359982.76043  -4704346.74746  22516262.206    22516262.6464   22516266.2854
        40.3004         37.8004
   7976157.46444   6224844.11946  24674157.821    24674158.1964   24674165.2454
        41.1004         38.5004
 25  2 24  2 34 30.0000000  0  8G30G05G09G07G20G11G13G06
 -19800496.03248 -15406203.29448  20733582.285    20733581.7764   20733587.5674
        53.5004         50.8004
  -6299366.77347  -4893838.61447  21761123.905    21761123.8424   21761126.2154
        50.5004         47.7004
  -6253617.37545  -4848960.38847  23055153.759    23055154.1994   23055159.2734
        45.6004         42.8004
 -14964994.76947 -11636934.84548  21419452.954    21419452.9504   21419455.7384
        52.1004         49.1004
 -13582331.59646 -10569248.59547  20346906.627    20346905.7584   20346908.9084
        48.1004         45.4004
  -4411505.47644  -3421512.59146  22914665.360    22914664.8864   22914668.6384
        42.7004         39.9004
  -6449135.31043  -4773816.21146  22499296.939    22499297.3564   22499301.2154
        40.4004         37.9004
   8087762.02044   6311808.62546  24695397.372    24695396.9104   24695403.4734
        41.5004         38.8004
 25  2 24  2 35  0.0000000  0  8G30G05G09G07G20G11G13G06
 -19831482.70148 -15430348.73948  20727685.550    20727685.2964   20727690.8344
        53.5004         50.8004
  -6375620.09847  -4953256.77447  21746613.100    21746612.8494   21746615.6494
        50.3004         47.5004
  -6163678.14645  -4778877.89447  23072267.801    23072268.3334   23072272.0754
        45.3004         42.3004
 -14926727.46247 -11607116.15748  21426734.850    21426734.7594   21426737.6114
        52.1004         49.1004
 -13587937.85646 -10573617.11447  20345839.469    20345838.8584   20345841.8474
        48.1004         45.4004
  -4324387.58544  -3353628.56746  22931241.365    22931241.7674   22931246.3754
        42.7004         39.9004
  -6538089.14043  -4843130.84046  22482370.679    22482369.1034   22482373.7744
        40.4004         37.9004
   8199383.50844   6398786.31946  24716635.936    24716636.5524   24716644.2514
        41.3004         38.5004
 25  2 24  2 35 30.0000000  0  8G30G05G09G07G20G11G13G06
 -19861978.80248 -15454111.91848  20721881.773    20721881.8814   20721887.4774
        53.5004         50.8004
  -6451501.25647  -5012384.93947  21732173.524    21732173.2384   21732175.8884
        50.3004         47.3004
  -6073610.98245  -4708695.71747  23089408.045    23089407.9874   23089413.1934
        45.3004         42.5004
 -14888062.28247 -11576987.44448  21434092.570    21434092.8254   21434095.4004
        52.1004         49.2004
 -13592987.25046 -10577551.71347  20344878.595    20344877.9644   20344881.2404
        48.2004         45.4004
  -4236935.10844  -3285483.81546  22947883.100    22947884.3664   22947887.2064
        42.7004         39.9004
  -6626843.51744  -4912290.04646  22465481.268    22465480.4504   22465484.2684
        40.8004         38.5004
   8311019.12644   6485775.05646  24737879.710    24737879.6764   24737885.9204
        40.8004         37.9004
 25  2 24  2 36  0.0000000  0  8G30G05G09G07G20G11G13G06
 -19891984.00248 -15477492.58548  20716172.733    20716172.3474   20716177.7134
        53.6004         51.0004
  -6527008.03947  -5071221.39247  21717804.741    21717804.9984   21717807.6294
        50.3004         47.5004
  -5983416.74445  -4638414.52546  23106570.007    23106571.0734   23106575.3404
        44.9004         41.9004
 -14849000.46747 -11546549.66548  21441526.561    21441526.1454   21441528.6314
        52.1004         49.2004
 -13597479.11246 -10581051.87347  20344023.785    20344023.1634   20344026.5444
        48.2004         45.6004
  -4149150.95944  -3217080.63646  22964589.717    22964589.0754   22964592.7254
        42.7004         39.9004
  -6715397.61744  -4981293.19246  22448629.831    22448629.9584   22448633.0564
        41.1004         38.6004
   8422666.16143   6572772.67246  24759124.899    24759125.7684   24759132.4054
        40.4004         37.8004
 25  2 24  2 36 30.0000000  0  8G30G05G09G07G20G11G13G06
 -19921497.97548 -15500490.47348  20710556.529    20710556.2514   20710561.3594
        53.6004         51.0004
  -6602137.70547  -5129763.97347  21703508.340    21703508.1844   21703510.8294
        50.5004         47.7004
  -5893096.33445  -4568034.99747  23123760.695    23123759.3184   23123762.9294
        44.9004         42.1004
 -14809543.58847 -11515804.04748  21449034.642    21449034.7624   21449036.8134
        52.1004         49.2004
 -13601412.39546 -10584116.77347  20343275.737    20343275.1684   20343278.3014
        48.4004         45.6004
  -4061038.11644  -3148421.32246  22981356.352    22981356.3054   22981360.4584
        42.9004         40.0004
  -6803750.48244  -5050139.54046  22431816.456    22431817.0024   22431819.6774
        41.3004         38.8004
   8534321.75743   6659776.93446  24780373.603    24780374.2644   24780379.6144
        40.4004         37.9004
 25  2 24  2 37  0.0000000  0  8G30G05G09G07G20G11G13G06
 -19950520.40248 -15523105.33848  20705033.268    20705033.1814   20705038.6174
        53.8004         51.0004
  -6676888.20947  -5188011.11347  21689283.959    21689283.8304   21689286.1344
        50.5004         47.7004
  -5802650.62245  -4497557.86247  23140970.062    23140970.5324   23140975.4624
        45.3004         42.5004
 -14769692.99147 -11484751.63548  21456618.675    21456618.2454   21456620.1384
        52.1004         49.2004
 -13604786.46346 -10586745.92947  20342633.173    20342632.6204   20342636.0944
        48.2004         45.6004
  -3972599.56844  -3079508.21146  22998185.768    22998185.9774   22998189.3224
        42.7004         39.7004
  -6891901.31344  -5118828.44046  22415043.094    22415042.8254   22415045.0714
        41.5004         38.8004
   8645983.18743   6746785.75246  24801619.886    24801621.6004   24801628.0264
        40.3004         37.6004
 25  2 24  2 37 30.0000000  0  8G30G05G09G07G20G11G13G06
 -19979050.91848 -15545336.89948  20699604.020    20699604.1164   20699609.4094
        53.8004         51.1004
  -6751256.57947  -5245960.48747  21675131.147    21675131.3834   21675134.1654
        50.5004         47.5004
  -5712080.43045  -4426983.71047  23158207.407    23158206.3694   23158209.5884
        45.5004         42.6004
 -14729450.39647 -11453393.76948  21464275.439    21464275.7134   21464278.0654
        52.1004         49.1004
 -13607600.74446 -10588938.87447  20342097.760    20342097.4074   20342100.7734
        48.2004         45.6004
  -3883838.32544  -3010343.67346  23015076.609    23015075.8864   23015079.2814
        42.3004         39.2004
  -6979849.16544  -5187359.18746  22398306.417    22398306.7344   22398309.2944
        41.5004         38.6004
   8757647.60143   6833796.91246  24822868.826    24822869.7204   24822878.0564
        40.3004         37.8004
 25  2 24  2 38  0.0000000  0  8G30G05G09G07G20G11G13G06
 -20007089.30148 -15567184.97448  20694269.227    20694268.6484   20694273.8614
        53.8004         51.1004
  -6825240.98547  -5303610.66447  21661052.757    21661052.7814   21661055.5744
        50.3004         47.5004
  -5621386.69845  -4356313.27647  23175462.701    23175463.6994   23175469.6014
        45.5004         42.8004
 -14688817.19347 -11421731.53348  21472007.311    21472007.7754   21472009.9814
        51.9004         48.9004
 -13609854.42046 -10590694.99247  20341668.437    20341668.3924   20341671.7254
        48.2004         45.6004
  -3794757.28544  -2940929.91946  23032027.653    23032028.4984   23032032.0804
        42.2004         39.5004
  -7067592.85744  -5255730.83846  22381609.137    22381609.2844   22381611.6854
        41.3004         38.8004
   8869312.23243   6920808.23946  24844118.427    24844118.7844   24844127.2234
        40.1004         37.4004
 25  2 24  2 38 30.0000000  0  9G30G05G09G14G07G20G11G13G06
 -20034635.25648 -15588649.34248  20689026.663    20689026.6694   20689031.8694
        53.8004         51.1004
  -6898838.91747  -5360959.69147  21647047.176    21647047.9534   21647050.4654
        50.5004         47.7004
  -5530570.22545  -4285547.23847  23192745.996    23192746.1874   23192750.2874
        45.6004         42.8004
   -288893.87552   -212458.73055  24518112.278    24518112.5824   24518116.0334
        36.4004         35.5004
 -14647795.01847 -11389766.19648  21479813.780    21479813.7474   21479816.3514
        51.7004         48.9004
 -13611546.92446 -10592013.83047  20341346.703    20341346.1924   20341349.5014
        48.2004         45.6004
  -3705359.53844  -2871269.39746  23049039.419    23049039.3054   23049043.1034
        42.0004         39.0004
  -7155131.79444  -5323942.94746  22364950.572    22364950.3084   22364954.2194
        41.1004         38.1004
   8980974.36143   7007817.61146  24865368.638    24865369.3314   24865376.2274
        40.1004         37.4004
 25  2 24  2 39  0.0000000  0  9G30G05G09G14G07G20G11G13G06
 -20061688.53248 -15609729.80448  20683878.742    20683878.6104   20683883.8494
        53.8004         51.1004
  -6972047.36647  -5418005.24147  21633116.854    21633116.9164   21633119.1804
        50.7004         47.8004
  -5439631.90845  -4214686.22147  23210051.114    23210051.2784   23210055.7364
        45.6004         42.6004
   -390774.40642   -291846.13345  24498723.713    24498724.3884   24498726.8194
        37.3004         35.5004
 -14606385.08347 -11357498.71348  21487694.394    21487693.9474   21487696.5784
        51.7004         48.9004
 -13612677.55246 -10592894.84847  20341132.184    20341131.2734   20341134.6174
        48.4004         45.6004
  -3615648.09044  -2801364.42846  23066111.284    23066112.1554   23066115.6634
        41.8004         39.2004
  -7242465.11144  -5391994.82446  22348330.967    22348330.7404   22348334.7994
        40.8004         38.1004
   9092631.15343   7094822.81846  24886617.065    24886617.4024   24886624.1804
        40.1004         37.6004
 25  2 24  2 39 30.0000000  0  9G30G05G09G14G07G20G11G13G06
 -20088248.86448 -15630426.15548  20678824.763    20678824.4704   20678829.5644
        53.8004         51.1004
  -7044864.63747  -5474745.96747  21619260.115    21619259.8324   21619262.7664
        50.7004         47.8004
  -5348572.60145  -4143730.95147  23227378.460    23227378.5474   23227384.3824
        45.5004         42.6004
   -492639.75952   -371221.68355  24479335.612    24479339.5484   24479342.6044
        37.3004         35.0004
 -14564589.11047 -11324930.42648  21495647.566    21495647.5584   21495650.0884
        51.7004         48.9004
 -13613245.75346 -10593337.60947  20341023.193    20341022.9514   20341026.2414
        48.4004         45.6004
  -3525625.86344  -2731217.28746  23083241.581    23083242.3794   23083246.0344
        42.0004         39.3004
  -7329591.78543  -5459885.70746  22331751.743    22331751.8064   22331754.9274
        40.4004         37.8004
   9204279.81843   7181821.67546  24907861.886    24907862.5144   24907869.5734
        40.1004         37.4004
 25  2 24  2 40  0.0000000  0  9G30G05G09G14G07G20G11G13G06
 -20114316.07448 -15650738.25448  20673864.474    20673863.9994   20673869.1174
        53.8004         51.1004
  -7117287.91147  -5531179.69247  21605478.130    21605478.1444   21605480.8564
        50.7004         47.7004
  -5257393.08445  -4072682.01247  23244728.785    23244729.5754   23244733.6994
        45.3004         42.3004
   -594487.20642   -450583.27245  24459957.098    24459958.1254   24459962.6414
        37.1004         35.0004
 -14522408.29447 -11292062.25248  21503674.245    21503674.1474   21503676.8074
        51.7004         48.9004
 -13613250.79746 -10593341.54447  20341022.703    20341022.0304   20341025.1294
        48.2004         45.6004
  -3435295.92844  -2660830.36846  23100431.718    23100431.1864   23100435.4854
        42.0004         39.2004
  -7416510.78043  -5527614.74546  22315211.024    22315211.5984   22315215.6704
        40.4004         37.8004
   9315917.71343   7268812.15446  24929105.457    24929105.5694   24929111.7714
        39.6004         37.1004
 25  2 24  2 40 30.0000000  0  9G30G05G09G14G07G20G11G13G06
 -20139889.92848 -15670665.91948  20668997.133    20668996.9974   20669002.7054
        53.8004         51.1004
  -7189314.68747  -5587304.44747  21591771.915    21591772.0024   21591774.9774
        50.5004         47.5004
  -5166094.30845  -4001540.14347  23262103.047    23262103.1024   23262108.1924
        45.3004         42.5004
   -696314.04142   -529928.83045  24440584.800    24440582.3294   24440585.9744
        37.1004         35.2004
 -14479844.52047 -11258895.68148  21511773.157    21511773.9714   21511776.5254
        51.7004         48.9004
 -13612691.79246 -10592905.96947  20341129.207    20341128.3024   20341131.9574
        48.4004         45.6004
  -3344661.31044  -2590206.05146  23117679.443    23117678.8004   23117681.1094
        41.8004         39.0004
  -7503221.43543  -5595181.42746  22298711.520    22298711.5824   22298714.2694
        40.4004         37.8004
   9427541.97243   7355792.00946  24950348.503    24950348.1994   24950354.7944
        39.6004         37.3004
 25  2 24  2 41  0.0000000  0  9G30G05G09G14G07G20G11G13G06
 -20164970.20548 -15690208.98248  20664224.719    20664224.4844   20664230.2064
        53.8004         51.1004
  -7260943.20147  -5643118.87147  21578141.188    21578141.5194   21578144.3024
        50.5004         47.5004
  -5074677.09545  -3930305.99947  23279497.805    23279499.0904   23279504.3834
        45.1004         42.3004
   -798117.44442   -609256.10945  24421210.234    24421209.7984   24421212.2164
        37.1004         34.8004
 -14436899.36747 -11225431.92148  21519946.136    21519946.1694   21519949.0194
        51.9004         49.1004
 -13611568.98446 -10592031.06347  20341342.283    20341341.9554   20341345.4134
        48.2004         45.4004
  -3253725.02644  -2519346.68046  23134983.043    23134983.1834   23134986.9914
        41.6004         39.0004
  -7589722.62343  -5662584.89446  22282251.088    22282250.2354   22282253.3294
        40.4004         38.1004
   9539149.91943   7442759.17246  24971586.381    24971586.7044   24971593.9414
        39.7004         37.3004
 25  2 24  2 41 30.0000000  0  9G30G05G09G14G07G20G11G13G06
 -20189556.74248 -15709367.31148  20659546.269    20659546.0154   20659551.3214
        53.8004         51.1004
  -7332170.76247  -5698620.86647  21564586.750    21564587.2934   21564589.9374
        50.3004         47.5004
  -4983142.22545  -3858980.16747  23296918.311    23296917.7234   23296923.0894
        45.1004         42.1004
   -899894.80742   -688563.10945  24401841.681    24401842.6424   24401844.8844
        37.3004         35.3004
 -14393573.87247 -11191671.79848  21528190.581    21528190.7464   21528193.3334
        51.9004         48.9004
 -13609881.55846 -10590716.19847  20341663.853    20341663.4754   20341666.7024
        48.2004         45.6004
  -3162490.09244  -2448254.56046  23152344.607    23152344.8904   23152349.6584
        41.8004         39.3004
  -7676013.28343  -5729824.32946  22265830.629    22265830.1824   22265831.6454
        40.4004         37.8004
   9650738.80743   7529711.46546  24992819.496    24992819.6814   24992826.7334
        39.6004         36.7004
